v_rid,name,addr,lat,lng,dc_score,status,g_place_id,g_name,g_addr,g_maps_url,g_lat,g_lng,name_sim,dist_m,match_score
urCeNctBgQiW,빈브라더스 커피하우스 서울,"서울특별시 마포구 토정로9길 2 6층, 7층",37.5452009,126.9244369,90,matched,ChIJ43jxy7mZfDUR1-jsFH6lUCw,빈브라더스 커피하우스 서울,서울특별시 마포구 토정로9길 2,https://maps.google.com/?cid=3193234096741214423&g_mp=Cidnb29nbGUubWFwcy5wbGFjZXMudjEuUGxhY2VzLlNlYXJjaFRleHQQAhgEIAA,37.545059599999995,126.92447419999999,1.0,16.1,1.25
3WZjdTKERcnH,모모스 로스터리&커피바,부산광역시 영도구 봉래나루로 160 모모스커피,35.0962617,129.0426052,88,error,,,,,,,0,,0
wNlE4h6H4c7o,소울 로스터리,강원특별자치도 춘천시 동면 소양강로 538 샵5건물앞,37.9244011,127.7676653,88,matched,ChIJ1x9-lADvYjURbMl_CjjFXjg,소울로스터리커피,강원특별자치도 춘천시 소양강로 538,https://maps.google.com/?cid=4061900758419753324&g_mp=Cidnb29nbGUubWFwcy5wbGFjZXMudjEuUGxhY2VzLlNlYXJjaFRleHQQAhgEIAA,37.9243555,127.76721560000001,1.0,39.8,1.25
u9wfeBBNRkqC,커피템플,제주특별자치도 제주시 영평길 269 중선농원 커피템플,33.4781647,126.5702468,86,matched,ChIJJZtzPyH9DDURQ2otFBCmLsQ,커피템플,제주특별자치도 제주시 영평길 269,https://maps.google.com/?cid=14136418868350773827&g_mp=Cidnb29nbGUubWFwcy5wbGFjZXMudjEuUGxhY2VzLlNlYXJjaFRleHQQAhgEIAA,33.4781416,126.5702901,1.0,4.8,1.25
KF2OEq8bIfYg,BCBL coffee roasters,부산광역시 수영구 남천동로108번길 49 2층,35.1469009,129.1137283,85,matched,ChIJjSbH_jHtaDURVSwqPfhiGaQ,BCBL coffee roasters,부산광역시 수영구 남천동로108번길 49 상가동 2 층,https://maps.google.com/?cid=11824591114955533397&g_mp=Cidnb29nbGUubWFwcy5wbGFjZXMudjEuUGxhY2VzLlNlYXJjaFRleHQQAhgEIAA,35.1469029,129.11390369999998,1.0,15.9,1.25
svXVmO04sxiB,월송 유로베이커리 앤 로스터리,강원도 춘천시 서면 경춘로 349-1,37.8481457,127.5507794,85,matched,ChIJc4cFjMzYYjURwP-PlJX6Rmg,월송유로베이커리앤로스터리,강원특별자치도 춘천시 서면 안보리 782-2,https://maps.google.com/?cid=7513968548663787456&g_mp=Cidnb29nbGUubWFwcy5wbGFjZXMudjEuUGxhY2VzLlNlYXJjaFRleHQQAhgEIAA,37.8480093,127.55115060000001,1.0,35.9,1.25
XUQDPxmCPyg3,향미사,경상북도 경주시 태종로 734 향미사,35.8391197,129.2083769,85,matched,ChIJX8VwREVPZjURpnBXOY9SwtU,향미사 HYANGMISA,경상북도 경주시 태종로 734,https://maps.google.com/?cid=15402964450656350374&g_mp=Cidnb29nbGUubWFwcy5wbGFjZXMudjEuUGxhY2VzLlNlYXJjaFRleHQQAhgEIAA,35.8391223,129.2083834,0.85,0.7,1.1
M3pJ0KqUG839,히트커피로스터스 서교,서울특별시 마포구 동교로 146 관양빌딩 1층 카페,37.5552656,126.9183238,85,matched,ChIJc97iKhyZfDUReHAlmt9KMX0,히트커피로스터스 서교,서울특별시 마포구 동교로 146,https://maps.google.com/?cid=9021073852824121464&g_mp=Cidnb29nbGUubWFwcy5wbGFjZXMudjEuUGxhY2VzLlNlYXJjaFRleHQQAhgEIAA,37.555216,126.91835700000001,1.0,6.2,1.25
iO9BoPLfOieh,그리다부부,부산광역시 중구 광복중앙로 35-1 1층 그리다부부,35.1025821,129.0307166,84,matched,ChIJmYrjAdXpaDURSNwBaAkaQb0,그리다부부,부산광역시 중구 광복중앙로 35-1 1층,https://maps.google.com/?cid=13637209774356552776&g_mp=Cidnb29nbGUubWFwcy5wbGFjZXMudjEuUGxhY2VzLlNlYXJjaFRleHQQAhgEIAA,35.10257850000001,129.030735,1.0,1.7,1.25
QZPT4NeRRy6i,스트럿커피,부산광역시 부산진구 동성로39번길 28 스트럿,35.1541101,129.0668328,84,matched,ChIJX73ryZ_raDURUjsO3Wo5ya0,스트럿커피,부산광역시 부산진구 동성로39번길 28,https://maps.google.com/?cid=12522603370018388818&g_mp=Cidnb29nbGUubWFwcy5wbGFjZXMudjEuUGxhY2VzLlNlYXJjaFRleHQQAhgEIAA,35.1541096,129.0668198,1.0,1.2,1.25
0BsCJ0QaEHGJ,챔프커피,서울특별시 용산구 녹사평대로26가길 24 1층,37.532533,126.9928149,84,matched,ChIJbws5L0yifDURFxLV5w3xrrE,챔프커피 이태원,서울특별시 용산구 녹사평대로26가길 24,https://maps.google.com/?cid=12803435832687268375&g_mp=Cidnb29nbGUubWFwcy5wbGFjZXMudjEuUGxhY2VzLlNlYXJjaFRleHQQAhgEIAA,37.532497899999996,126.9928235,0.85,4.0,1.1
XnihYh6RXCdg,커피고 by MOHB,강원도 고성군 토성면 토성로 84 1층 커피고,38.2538434,128.5636062,84,matched,ChIJo6iOAFa_2F8R3k8RRIbKQwU,커피고 by MOHB,강원특별자치도 고성군 특별자치도 토성면 토성로 84,https://maps.google.com/?cid=379369471645667294&g_mp=Cidnb29nbGUubWFwcy5wbGFjZXMudjEuUGxhY2VzLlNlYXJjaFRleHQQAhgEIAA,38.253837499999996,128.56356689999998,1.0,3.5,1.25
q4VvN4rsNB5M,소사이어티카페,경기도 안양시 만안구 장내로139번길 56-6 1층,37.4000355,126.9216701,83,matched,ChIJf5STK9BgezURvMqTNB_uq6E,소사이어티카페,경기도 안양시 만안구 장내로139번길 56-6,https://maps.google.com/?cid=11649666678917417660&g_mp=Cidnb29nbGUubWFwcy5wbGFjZXMudjEuUGxhY2VzLlNlYXJjaFRleHQQAhgEIAA,37.4000413,126.9216206,1.0,4.4,1.25
QDTTXwKZmK7u,일상엔,"경기도 수원시 팔달구 고화로 8 1층, 2층",37.2703543,127.0081915,83,matched,ChIJHUFrMT1DezURSRx94-p068I,일상엔베이커리카페 l Everyday Bakery Café l エブリデイ ベーカリーカフェ l 日常烘焙咖啡馆 l 수원맛집,경기도 수원시 매산로3가 128-12 KR,https://maps.google.com/?cid=14045448415072820297&g_mp=Cidnb29nbGUubWFwcy5wbGFjZXMudjEuUGxhY2VzLlNlYXJjaFRleHQQAhgEIAA,37.270320999999996,127.00823829999999,0.85,5.6,1.1
iTOXZ2XLel5f,정지영커피로스터즈,경기도 수원시 팔달구 신풍로 42 정지영커피로스터즈 행궁본점,37.284908,127.0144039,83,matched,ChIJ9_ndU51DezURyWyJWMNsnKs,정지영커피로스터즈 행궁본점,경기도 수원시 팔달구 신풍동 신풍로 42,https://maps.google.com/?cid=12365878263112363209&g_mp=Cidnb29nbGUubWFwcy5wbGFjZXMudjEuUGxhY2VzLlNlYXJjaFRleHQQAhgEIAA,37.2848574,127.01440450000001,0.85,5.6,1.1
c8LGf8y77Ljg,카페 팃빗,서울특별시 관악구 관악로14가길 6 2층,37.4782592,126.9560033,83,matched,ChIJJ23Ja7ihfDURd8vZzY7RFIo,팃빗,서울특별시 관악구 관악로14가길 6,https://maps.google.com/?cid=9949807888037432183&g_mp=Cidnb29nbGUubWFwcy5wbGFjZXMudjEuUGxhY2VzLlNlYXJjaFRleHQQAhgEIAA,37.478256,126.95598509999999,1.0,1.6,1.25
U4gVTEgicQOQ,로와이드,"서울특별시 강남구 압구정로 146 1, 2층",37.5251105,127.0248805,82,matched,ChIJwxpmZnKjfDURHGJ5REhetwg,로와이드 압구정 (LOWIDE Apgujeong),"서울특별시 강남구 압구정로 146 성우빌딩 1,2층",https://maps.google.com/?cid=628074337520935452&g_mp=Cidnb29nbGUubWFwcy5wbGFjZXMudjEuUGxhY2VzLlNlYXJjaFRleHQQAhgEIAA,37.5250741,127.0248785,0.85,4.1,1.1
fsXbiGNBbuSi,론트커피,"인천광역시 부평구 부평대로38번길 3 1, 2층",37.4948307,126.7231231,82,matched,ChIJ_1Ysr8t9ezUR72YJjYUvdPw,론트로스터스클럽 Lohnt,인천광역시 부평구 부평동 212-8,https://maps.google.com/?cid=18191217045499635439&g_mp=Cidnb29nbGUubWFwcy5wbGFjZXMudjEuUGxhY2VzLlNlYXJjaFRleHQQAhgEIAA,37.4948382,126.7230973,0.85,2.4,1.1
qNoBU82H9A5a,몬스터로스터스,경상남도 창원시 마산합포구 월영동9길 14 1층 몬스터로스터스,35.180382,128.5636807,82,matched,ChIJpSiMqrUvbzUR1VJn3pUylsM,몬스터 로스터스,경상남도 창원시 마산합포구 월영동 월영동9길 14,https://maps.google.com/?cid=14093507703165375189&g_mp=Cidnb29nbGUubWFwcy5wbGFjZXMudjEuUGxhY2VzLlNlYXJjaFRleHQQAhgEIAA,35.1803363,128.5636977,1.0,5.3,1.25
hgXRvMttcaxa,커피 몽타주,서울특별시 강동구 올림픽로48길 23-12 1층,37.5295051,127.1218766,82,matched,ChIJ1V3KElmlfDUR5hi87_XU9QE,커피몽타주 성내,서울특별시 강동구 올림픽로48길 23-12,https://maps.google.com/?cid=141253116086196454&g_mp=Cidnb29nbGUubWFwcy5wbGFjZXMudjEuUGxhY2VzLlNlYXJjaFRleHQQAhgEIAA,37.5294746,127.1218402,0.85,4.7,1.1
8aPdAkyxppRu,터프이너프,경기도 평택시 포승읍 포승향남로 11 단독건물 터프이너프 카페,36.9828751,126.8799161,82,matched,ChIJKc6J1B8ZezURwMCLY6IXV24,터프 이너프 로스터스,경기도 평택시 포승읍 도곡리 942-5,https://maps.google.com/?cid=7950849653368144064&g_mp=Cidnb29nbGUubWFwcy5wbGFjZXMudjEuUGxhY2VzLlNlYXJjaFRleHQQAhgEIAA,36.9828571,126.87985760000001,1.0,5.6,1.25
ao3tsQbpUWHK,팟오브부산,부산광역시 부산진구 동성로39번길 30-7 1층,35.1543668,129.0666897,82,matched,ChIJEYFmN4rraDUR5IIg75Hpm2I,팟오브부산(Pot of Busan),부산광역시 부산진구 동성로39번길 30-7,https://maps.google.com/?cid=7105529650098504420&g_mp=Cidnb29nbGUubWFwcy5wbGFjZXMudjEuUGxhY2VzLlNlYXJjaFRleHQQAhgEIAA,35.1543525,129.0666847,0.85,1.7,1.1
4EfrvfLyRqiF,히떼 로스터리,부산광역시 부산진구 동성로 59 2층,35.1557531,129.0682086,82,matched,ChIJB_YSeMzraDUR0XnotrHpOI4,히떼로스터리,부산광역시 부산진구 동성로 59 2층,https://maps.google.com/?cid=10248197901568735697&g_mp=Cidnb29nbGUubWFwcy5wbGFjZXMudjEuUGxhY2VzLlNlYXJjaFRleHQQAhgEIAA,35.155767,129.0682232,1.0,2.0,1.25
Pb6GyUBbXRkB,히떼로스터리,부산광역시 수영구 수영로510번길 57 2층,35.150624,129.1145392,82,matched,ChIJq6qqquHsaDURQMvvdJOEMvo,히떼로스터리 광안점,부산광역시 수영구 수영로510번길 57 2층,https://maps.google.com/?cid=18028618027174447936&g_mp=Cidnb29nbGUubWFwcy5wbGFjZXMudjEuUGxhY2VzLlNlYXJjaFRleHQQAhgEIAA,35.1506475,129.1144988,0.85,4.5,1.1
TUl5roUKYnfk,건대커피랩,서울특별시 광진구 동일로22길 102 2층,37.5408292,127.0696519,81,matched,ChIJjR4KTOikfDURd6QQZAL7TOA,건대커피랩,서울특별시 광진구 동일로22길 102 2층,https://maps.google.com/?cid=16162569150413186167&g_mp=Cidnb29nbGUubWFwcy5wbGFjZXMudjEuUGxhY2VzLlNlYXJjaFRleHQQAhgEIAA,37.5408361,127.06966600000001,1.0,1.5,1.25
mTGJg86s3YOi,디마인커피로스터즈,경기도 의왕시 백운로 177 1층 디마인커피로스터즈 포레스트점,37.3612027,126.9923148,81,matched,ChIJQfMvegBdezURaP4VNYXZZ1o,디마인커피로스터즈_포레스트점(백운호수),경기도 의왕시 백운로 177,https://maps.google.com/?cid=6514414552159223400&g_mp=Cidnb29nbGUubWFwcy5wbGFjZXMudjEuUGxhY2VzLlNlYXJjaFRleHQQAhgEIAA,37.3611108,126.99226039999999,0.85,11.3,1.1
vQtcG1tX6fZ6,마비스커피,부산광역시 북구 만덕대로 42,35.2109626,129.0096464,81,matched,ChIJyZjBN0iVaDUR_jxfYPAXtDg,마비스커피,부산광역시 북구 만덕대로 42,https://maps.google.com/?cid=4085917083108326654&g_mp=Cidnb29nbGUubWFwcy5wbGFjZXMudjEuUGxhY2VzLlNlYXJjaFRleHQQAhgEIAA,35.2110371,129.0096579,1.0,8.3,1.25
xDu05cDELs9o,베르크 로스터스,부산광역시 수영구 수영로 566 베르크로스터스,35.1561215,129.1129792,81,matched,ChIJ38l3XAHraDURkCHKHUwHG8s,베르크(WERK)로스터스,부산광역시 수영구 수영로 566,https://maps.google.com/?cid=14635299437569253776&g_mp=Cidnb29nbGUubWFwcy5wbGFjZXMudjEuUGxhY2VzLlNlYXJjaFRleHQQAhgEIAA,35.1561203,129.11300839999998,0.85,2.7,1.1
tqdyvdk06ZOo,보사노바,강원도 강릉시 창해로14번길 28,37.7720879,128.9478338,81,matched,ChIJGxY3IgPnYTUR98adAK6CJg4,보사노바 커피 로스터스 강릉점,강원특별자치도 강릉시 창해로14번길 28,https://maps.google.com/?cid=1019646049492256503&g_mp=Cidnb29nbGUubWFwcy5wbGFjZXMudjEuUGxhY2VzLlNlYXJjaFRleHQQAhgEIAA,37.7720398,128.9478401,0.85,5.4,1.1
D00OmCZfKXh5,얼룩개,부산광역시 동래구 충렬대로272번길 15 2층 202호,35.2000791,129.0892223,81,matched,ChIJjWLi-bOTaDUR3ClT8z9k-O8,얼룩개(a look at),부산광역시 동래구 충렬대로272번길 15 2층,https://maps.google.com/?cid=17291680995117050332&g_mp=Cidnb29nbGUubWFwcy5wbGFjZXMudjEuUGxhY2VzLlNlYXJjaFRleHQQAhgEIAA,35.200063799999995,129.08924149999999,0.85,2.4,1.1
jhz7giUTGfLN,일기장,부산광역시 수영구 광안해변로 27-6 1층 101호,35.1380993,129.1130036,81,matched,ChIJO8aMIQLtaDURm5O396MJYdI,일기장,부산광역시 수영구 광안해변로 27-6 1층 101호,https://maps.google.com/?cid=15159408420546122651&g_mp=Cidnb29nbGUubWFwcy5wbGFjZXMudjEuUGxhY2VzLlNlYXJjaFRleHQQAhgEIAA,35.1380894,129.1129982,1.0,1.2,1.25
vhGglwM513Kz,처치앤댄스홀,대전광역시 중구 대흥로139번길 38,36.3257325,127.4267268,81,matched,ChIJSUFwH9hIZTURTqqnOkWzTfw,처치앤댄스홀,대전광역시 중구 대흥로139번길 대흥동,https://maps.google.com/?cid=18180384380682742350&g_mp=Cidnb29nbGUubWFwcy5wbGFjZXMudjEuUGxhY2VzLlNlYXJjaFRleHQQAhgEIAA,36.3256655,127.4267309,1.0,7.5,1.25
UyO7JgllvcCF,프릳츠,서울특별시 서초구 강남대로37길 24-11,37.4853569,127.0322383,81,matched,ChIJL9zyHkmhfDURwamGLjmKr68,프릳츠 양재,서울특별시 서초구 강남대로37길 24-11,https://maps.google.com/?cid=12659489055760099777&g_mp=Cidnb29nbGUubWFwcy5wbGFjZXMudjEuUGxhY2VzLlNlYXJjaFRleHQQAhgEIAA,37.485331099999996,127.03218319999999,0.85,5.6,1.1
62Int9GkKcF8,피핀커피로스터스,서울특별시 강서구 마곡중앙로 161-1 캐슬파크 217,37.567699,126.8272795,81,matched,ChIJa3oOCfidfDURV5lJeXKqOQM,피핀커피로스터스,서울 강서구 마곡중앙로 161-1 캐슬파크 2층 217호,https://maps.google.com/?cid=232404264424151383&g_mp=Cidnb29nbGUubWFwcy5wbGFjZXMudjEuUGxhY2VzLlNlYXJjaFRleHQQAhgEIAA,37.567879000000005,126.8274685,1.0,26.0,1.25
WFV6hXvR1O4s,PONT,서울특별시 용산구 한강대로15길 19-16 1층,37.5257906,126.9628565,80,maybe,ChIJtVRPjRChfDURav6BDPJqV5U,폰트커피,서울특별시 용산구 한강대로15길 19-16,https://maps.google.com/?cid=10761187422449565290&g_mp=Cidnb29nbGUubWFwcy5wbGFjZXMudjEuUGxhY2VzLlNlYXJjaFRleHQQAhgEIAA,37.525751,126.96284430000001,0.0,4.5,0.25
xwvlBKybBMso,나무사이로,서울특별시 종로구 사직로8길 21 카페 나무사이로,37.5747164,126.971003,80,matched,ChIJA3_W7JVrMhURUlozmc4p7yA,나무사이로 내자,서울특별시 종로구 사직로8길 21,https://maps.google.com/?cid=2373161495957822034&g_mp=Cidnb29nbGUubWFwcy5wbGFjZXMudjEuUGxhY2VzLlNlYXJjaFRleHQQAhgEIAA,37.5746756,126.9709374,0.85,7.3,1.1
HOi5JSWwcmI9,더네스트커피,부산광역시 동래구 아시아드대로133번길 17 1층,35.1961137,129.0650172,80,matched,ChIJWQf7hxaVaDURjZ6WcuApXos,더네스트커피,부산광역시 동래구 사직제1동 99-5,https://maps.google.com/?cid=10042510263054671501&g_mp=Cidnb29nbGUubWFwcy5wbGFjZXMudjEuUGxhY2VzLlNlYXJjaFRleHQQAhgEIAA,35.196080699999996,129.0649947,1.0,4.2,1.25
4YtMbCbgV2WC,딥블루레이크,서울특별시 마포구 포은로6길 11,37.5558155,126.9056787,80,matched,ChIJmfIOVS-ZfDURdJutr7fX_yY,딥블루레이크,서울특별시 마포구 포은로6길 9,https://maps.google.com/?cid=2810201876428856180&g_mp=Cidnb29nbGUubWFwcy5wbGFjZXMudjEuUGxhY2VzLlNlYXJjaFRleHQQAhgEIAA,37.555791299999996,126.90556579999999,1.0,10.3,1.25
Ask7PtHpfMAB,로우앤스윗 베이커리,부산광역시 해운대구 우동1로38번가길 1,35.1651674,129.1581153,80,matched,ChIJV7ehbFCNaDURS2BXnIBgyMI,로우앤스윗 베이커리,부산광역시 해운대구 우동1로38번가길 1 1층,https://maps.google.com/?cid=14035574344195203147&g_mp=Cidnb29nbGUubWFwcy5wbGFjZXMudjEuUGxhY2VzLlNlYXJjaFRleHQQAhgEIAA,35.1651124,129.1580704,1.0,7.4,1.25
QoUdyYA76Ruo,룰리커피,대구광역시 수성구 고모로 188,35.8568141,128.6796906,80,matched,ChIJ18Yp0Z8LZjURE78kryvPDR0,룰리커피 고모점,대구광역시 수성구 고모동 334-1,https://maps.google.com/?cid=2093557188326113043&g_mp=Cidnb29nbGUubWFwcy5wbGFjZXMudjEuUGxhY2VzLlNlYXJjaFRleHQQAhgEIAA,35.8566019,128.6797652,0.85,24.5,1.1
WhO7oQdoWGg3,마일스톤 커피,서울특별시 용산구 한남대로27가길 26 1층,37.5379217,127.0026845,80,matched,ChIJFagRhtGjfDURra0NGYpBM8w,마일스톤 커피 한남,서울특별시 용산구 한남대로27가길 26 1층,https://maps.google.com/?cid=14714176468931161517&g_mp=Cidnb29nbGUubWFwcy5wbGFjZXMudjEuUGxhY2VzLlNlYXJjaFRleHQQAhgEIAA,37.5378721,127.00266519999998,0.85,5.8,1.1
LbaTVdBcvPJ7,모센트,서울특별시 용산구 한강대로52길 25-14,37.5322423,126.973124,80,matched,ChIJJTtAfTijfDUR4Tfh3-RudzY,카페 모센트,서울특별시 용산구 한강대로52길 25-14,https://maps.google.com/?cid=3924727529564354529&g_mp=Cidnb29nbGUubWFwcy5wbGFjZXMudjEuUGxhY2VzLlNlYXJjaFRleHQQAhgEIAA,37.5321517,126.97311619999999,1.0,10.1,1.25
udZICnJWfATh,미니말레 커피뢰스터,서울특별시 서초구 강남대로10길 32,37.4688795,127.0412368,80,matched,ChIJAa9YuNKmfDURJuycJDhoyHE,미니말레 커피뢰스터 양재본점,서울특별시 서초구 양재동 329-11,https://maps.google.com/?cid=8198917711969709094&g_mp=Cidnb29nbGUubWFwcy5wbGFjZXMudjEuUGxhY2VzLlNlYXJjaFRleHQQAhgEIAA,37.4688318,127.041243,0.85,5.3,1.1
QzFI7ilzeAP1,빈플래토,서울특별시 성동구 한림말5길 19,37.54299,127.0164724,80,matched,ChIJw5E8d6CjfDURubC-ZGqyxcI,빈플래토,서울특별시 성동구 한림말5길 19,https://maps.google.com/?cid=14034819983796515001&g_mp=Cidnb29nbGUubWFwcy5wbGFjZXMudjEuUGxhY2VzLlNlYXJjaFRleHQQAhgEIAA,37.5429411,127.01645479999999,1.0,5.7,1.25
4Qy8qcY555gM,시에나커피로스터스,경기도 안양시 만안구 만안로 208-1 2층,37.3995149,126.9241994,80,matched,ChIJt8tmr0lhezURnCY6tauD-J4,시에나커피로스터스,경기도 안양시 만안구 만안로 208-1,https://maps.google.com/?cid=11455050425719989916&g_mp=Cidnb29nbGUubWFwcy5wbGFjZXMudjEuUGxhY2VzLlNlYXJjaFRleHQQAhgEIAA,37.399468399999996,126.92413250000001,1.0,7.9,1.25
F4Oj4CfLfm5S,언더커피,부산광역시 수영구 광남로 52 1층,35.1471025,129.1122916,80,matched,ChIJSbOBU_DtaDURZgVJ-vzfgDE,언더커피,부산광역시 수영구 광남로 52,https://maps.google.com/?cid=3567097182501274982&g_mp=Cidnb29nbGUubWFwcy5wbGFjZXMudjEuUGxhY2VzLlNlYXJjaFRleHQQAhgEIAA,35.1470511,129.11236,1.0,8.4,1.25
aPMFgJPuc0tM,오르빗,서울특별시 송파구 양재대로71길 42 1층 101호,37.5118534,127.1224304,80,matched,ChIJjeKkSQClfDURfQd0EE4y6S4,오르빗,서울특별시 송파구 양재대로71길 42,https://maps.google.com/?cid=3380288306183145341&g_mp=Cidnb29nbGUubWFwcy5wbGFjZXMudjEuUGxhY2VzLlNlYXJjaFRleHQQAhgEIAA,37.51190100000001,127.1224061,1.0,5.7,1.25
tIJu73H8nneT,유동커피,제주특별자치도 서귀포시 태평로 406-1,33.2445388,126.5637711,80,matched,ChIJe6UTop9TDDURasA2YAnDMQQ,유동커피,제주특별자치도 서귀포시 송산동 태평로 406-1,https://maps.google.com/?cid=302237095046856810&g_mp=Cidnb29nbGUubWFwcy5wbGFjZXMudjEuUGxhY2VzLlNlYXJjaFRleHQQAhgEIAA,33.2444906,126.56389920000001,1.0,13.1,1.25
ycPLJG7M1ev3,이그니토 커피컴퍼니,인천광역시 중구 개항로 107-4,37.472629,126.6344921,80,matched,ChIJWWDmRmB5ezUR76aZZiZ1F2M,이그니토 커피컴퍼니 IGNITO COFFEE COMPANY,인천광역시 중구 개항로 107-4,https://maps.google.com/?cid=7140304542009763567&g_mp=Cidnb29nbGUubWFwcy5wbGFjZXMudjEuUGxhY2VzLlNlYXJjaFRleHQQAhgEIAA,37.4725787,126.6344816,0.85,5.7,1.1
MUejGZN8KoVL,인썸니악 커피바,인천광역시 서구 청라에메랄드로 79 2층 A73호,37.5323372,126.6556908,80,matched,ChIJc_ycmCh_ezURrIVByvdqV08,인썸니악,인천광역시 서구 청라에메랄드로 79 2 층 a73 호,https://maps.google.com/?cid=5717155864452892076&g_mp=Cidnb29nbGUubWFwcy5wbGFjZXMudjEuUGxhY2VzLlNlYXJjaFRleHQQAhgEIAA,37.532334899999995,126.65571949999999,0.85,2.5,1.1
OdrxAgn5bQ8Q,커피그래,서울특별시 중구 동호로 204 1층,37.556287,127.0099429,80,matched,ChIJf_dIdaKjfDURXj1_URueKAE,커피 그래 Coffee Gre,서울특별시 중구 동호로 204,https://maps.google.com/?cid=83490433274953054&g_mp=Cidnb29nbGUubWFwcy5wbGFjZXMudjEuUGxhY2VzLlNlYXJjaFRleHQQAhgEIAA,37.5562164,127.0099543,0.85,7.9,1.1
ZwQqRng4C9xU,커피볶는여자,서울특별시 관악구 관악로14가길 2 1층,37.4783294,126.9561265,80,matched,ChIJ51VL3CagfDURTytnFPW6KNI,커피볶는여자 본점,서울특별시 관악구 봉천동 관악로14가길 2,https://maps.google.com/?cid=15143559308805352271&g_mp=Cidnb29nbGUubWFwcy5wbGFjZXMudjEuUGxhY2VzLlNlYXJjaFRleHQQAhgEIAA,37.4783172,126.95607430000001,0.85,4.8,1.1
ZAExxCVnmnQc,킵댓 로스터리,경기도 수원시 팔달구 화서문로42번길 46 킵댓,37.2836084,127.0141266,80,matched,ChIJu6R5RG1DezURFLD0ay2Vdgw,킵댓 로스터리,경기도 수원시 팔달구 신풍동 132-1,https://maps.google.com/?cid=898069198024257556&g_mp=Cidnb29nbGUubWFwcy5wbGFjZXMudjEuUGxhY2VzLlNlYXJjaFRleHQQAhgEIAA,37.2835945,127.01413120000001,1.0,1.6,1.25
gjNbcMLr40db,테라로사,제주특별자치도 서귀포시 칠십리로658번길 27-16,33.2495274,126.6188758,80,matched,ChIJce0JuVCrDTURTC4lGVGjaFA,테라로사 서귀포점,제주특별자치도 서귀포시 칠십리로658번길 27-16,https://maps.google.com/?cid=5794060489321688652&g_mp=Cidnb29nbGUubWFwcy5wbGFjZXMudjEuUGxhY2VzLlNlYXJjaFRleHQQAhgEIAA,33.2494837,126.61860039999999,0.85,26.1,1.1
ONYh23ORdEgw,포스톤즈 커피로스터스,서울특별시 강남구 테헤란로103길 5 포스톤즈커피로스터스,37.5098375,127.0641123,80,matched,ChIJcT-zduelfDUR9sLMQQNktXo,포스톤즈 삼성본점,서울특별시 강남구 테헤란로103길 5,https://maps.google.com/?cid=8842083408563454710&g_mp=Cidnb29nbGUubWFwcy5wbGFjZXMudjEuUGxhY2VzLlNlYXJjaFRleHQQAhgEIAA,37.509803,127.06409790000001,0.85,4.0,1.1
shlyuCnjrvLp,도조커피,서울특별시 영등포구 여의대로 108 B1층,37.526342,126.9283962,79,matched,ChIJNwf8CACffDURtfnB9Pz9ZZU,도조커피 더현대서울,서울특별시 영등포구 여의대로 108,https://maps.google.com/?cid=10765289747178977717&g_mp=Cidnb29nbGUubWFwcy5wbGFjZXMudjEuUGxhY2VzLlNlYXJjaFRleHQQAhgEIAA,37.5259028,126.9284177,0.85,48.9,1.1
ly4kdR9JEuJq,런이트,서울특별시 마포구 매봉산로2안길 12-9 2층,37.5780613,126.8942739,79,matched,ChIJu96NQM2ZfDURvbmEsfdrWkA,런이트 로스터리 카페 Runit roastery cafe,서울특별시 마포구 매봉산로2안길 12-9,https://maps.google.com/?cid=4637137477910706621&g_mp=Cidnb29nbGUubWFwcy5wbGFjZXMudjEuUGxhY2VzLlNlYXJjaFRleHQQAhgEIAA,37.5780192,126.89420089999999,0.85,8.0,1.1
3DwlyjwU0k7B,모닝캄 커피랩,서울특별시 마포구 성미산로 192 1층 + 지하1층,37.5628142,126.9263112,79,matched,ChIJX00bSNiZfDURD1QfV12X-6c,모닝캄커피랩 연남점,서울특별시 마포구 성미산로 192,https://maps.google.com/?cid=12104434850637763599&g_mp=Cidnb29nbGUubWFwcy5wbGFjZXMudjEuUGxhY2VzLlNlYXJjaFRleHQQAhgEIAA,37.562794,126.9262799,0.85,3.6,1.1
vrBoGGV0q3NH,보사노바,서울특별시 영등포구 영등포로20길 22-4,37.5199517,126.8920161,79,matched,ChIJN9N1dPOefDURH0F_f_ttrrY,보사노바 커피 로스터스 문래점,서울특별시 영등포구 영등포로20길 22-4,https://maps.google.com/?cid=13163579687793803551&g_mp=Cidnb29nbGUubWFwcy5wbGFjZXMudjEuUGxhY2VzLlNlYXJjaFRleHQQAhgEIAA,37.51994,126.89200939999999,0.85,1.4,1.1
ppD17IDqEhDh,스코그,경기도 광주시 남한산성면 남한산성로 507-18 스코그(SKOG),37.4665884,127.2059481,79,matched,ChIJMY7alG-vfDURlbgQLmfyYf0,스코그 (skog),경기도 광주시 남한산성면 남한산성로 507-18,https://maps.google.com/?cid=18258140889305102485&g_mp=Cidnb29nbGUubWFwcy5wbGFjZXMudjEuUGxhY2VzLlNlYXJjaFRleHQQAhgEIAA,37.4664589,127.2057402,0.85,23.3,1.1
X0PqBl4zXcU4,스톤크릭,강원도 원주시 지정면 지정로 1101,37.3706076,127.7965225,79,matched,ChIJQR5wzhJtYzURZa6I0E1XEk0,스톤크릭,강원특별자치도 원주시 지정면 지정로 1101,https://maps.google.com/?cid=5553597282223959653&g_mp=Cidnb29nbGUubWFwcy5wbGFjZXMudjEuUGxhY2VzLlNlYXJjaFRleHQQAhgEIAA,37.3706588,127.7962819,1.0,22.0,1.25
6jVI3wb2MgGr,신기커피영도,부산광역시 영도구 와치로 65,35.0868493,129.0602725,79,maybe,ChIJc2SmTxjpaDUREj8PWmzuNlk,Sinkicoffee(구 신기숲),부산광역시 영도구 와치로 65,https://maps.google.com/?cid=6428587667252789010&g_mp=Cidnb29nbGUubWFwcy5wbGFjZXMudjEuUGxhY2VzLlNlYXJjaFRleHQQAhgEIAA,35.086965899999996,129.0601921,0.1,14.9,0.35
EBgpB2eOMBvd,윌로우 우드,경기도 시흥시 서울대학로278번길 19-13 상가 B동 243호,37.3714903,126.7270827,79,maybe,ChIJ0eWtDBRxezURS2e--ISGdeE,willow wood,경기도 시흥시 서울대학로278번길 19-13 써밋플레이스 상가 B동 243호,https://maps.google.com/?cid=16246039136475965259&g_mp=Cidnb29nbGUubWFwcy5wbGFjZXMudjEuUGxhY2VzLlNlYXJjaFRleHQQAhgEIAA,37.3715385,126.7271255,0.0,6.6,0.25
SRFPT4BndB4r,유람,세종특별자치시 조치원읍 신안새동네길 25 유람,36.6141897,127.2910276,79,matched,ChIJVaGdZW7TejURJlfNSNhbCcU,유람 커피로스터스 세종점,세종특별자치시 조치원읍 신안새동네길 25,https://maps.google.com/?cid=14197980284754679590&g_mp=Cidnb29nbGUubWFwcy5wbGFjZXMudjEuUGxhY2VzLlNlYXJjaFRleHQQAhgEIAA,36.614172599999996,127.2910242,0.85,1.9,1.1
M61MR4isQPN2,임프레션 커피 컴퍼니,대전광역시 서구 탄방로 36 1층,36.3436996,127.3909921,79,matched,ChIJo8bEmlxJZTURrZezkYKqw_0,임프레션커피컴퍼니,대전광역시 서구 탄방로 36,https://maps.google.com/?cid=18285646389821282221&g_mp=Cidnb29nbGUubWFwcy5wbGFjZXMudjEuUGxhY2VzLlNlYXJjaFRleHQQAhgEIAA,36.343654,127.3909999,1.0,5.1,1.25
9rtYLGetnR6C,제이엠커피로스터스,부산광역시 기장군 기장읍 대변3길 8 제이엠커피로스터스(제이엠커피그룹본사),35.2228754,129.2315227,79,matched,ChIJI0pZ3TiMaDURnx1cAVLQqKg,제이엠커피로스터스 부산본점,부산광역시 기장군 기장읍 대변3길 8,https://maps.google.com/?cid=12153192645087993247&g_mp=Cidnb29nbGUubWFwcy5wbGFjZXMudjEuUGxhY2VzLlNlYXJjaFRleHQQAhgEIAA,35.2228426,129.2316194,0.85,9.5,1.1
b5GLa55iVIaC,커피가이,경기도 수원시 팔달구 창룡대로103번길 132 1층 커피가이,37.2834598,127.019844,79,matched,ChIJj2fdeYNdezURA1ek8ohK_Sk,커피가이 coffee guy,경기도 수원시 매향동 창룡대로103번길 132,https://maps.google.com/?cid=3025656476709705475&g_mp=Cidnb29nbGUubWFwcy5wbGFjZXMudjEuUGxhY2VzLlNlYXJjaFRleHQQAhgEIAA,37.2834013,127.01983199999998,0.85,6.6,1.1
26jqY4MKikex,코그커피,대구광역시 중구 종로 78 1층,35.8727684,128.5910229,79,matched,ChIJv8gFCGLjZTURz5bmAtBng9M,코그커피,대구광역시 중구 대안동 81-4,https://maps.google.com/?cid=15241139707051415247&g_mp=Cidnb29nbGUubWFwcy5wbGFjZXMudjEuUGxhY2VzLlNlYXJjaFRleHQQAhgEIAA,35.872766399999996,128.5910792,1.0,5.1,1.25
eHsi94kK7pGy,톤티커피,서울특별시 종로구 북촌로 6-8 톤티커피,37.5776474,126.9863152,79,matched,ChIJp_8F-CejfDUR2S19y9Ubnb4,톤티 tonti,서울특별시 종로구 북촌로 6-8,https://maps.google.com/?cid=13735165043605843417&g_mp=Cidnb29nbGUubWFwcy5wbGFjZXMudjEuUGxhY2VzLlNlYXJjaFRleHQQAhgEIAA,37.5776438,126.98630469999999,0.85,1.0,1.1
9UeTqgFCIp0G,트레져스커피,부산광역시 부산진구 전포대로216번길 28 . 1층,35.1557404,129.0671332,79,matched,ChIJA8hu6mPraDURrCcCirlgdnM,트레져스 부산전포점,부산광역시 부산진구 전포대로216번길 28,https://maps.google.com/?cid=8319943711614183340&g_mp=Cidnb29nbGUubWFwcy5wbGFjZXMudjEuUGxhY2VzLlNlYXJjaFRleHQQAhgEIAA,35.1556749,129.0670918,0.85,8.2,1.1
kgunzJEYVkbb,포스톤즈,서울특별시 종로구 삼청로 103-4 삼청동 수제비 옆 골목,37.5847732,126.9816589,79,maybe,ChIJQTyKUQCjfDURpSvq8q7T3uk,fourstones coffee roasters,서울특별시 종로구 삼청로 103-4,https://maps.google.com/?cid=16852139604020177829&g_mp=Cidnb29nbGUubWFwcy5wbGFjZXMudjEuUGxhY2VzLlNlYXJjaFRleHQQAhgEIAA,37.584828099999996,126.9816807,0.0,6.4,0.25
gCYeg2BJEvqp,프로토콜,서울특별시 서대문구 연희로 109 2층,37.5677946,126.9313914,79,matched,ChIJMz97KaqZfDURX6x5sq-kQa4,프로토콜,서울특별시 서대문구 연희로 109,https://maps.google.com/?cid=12556498310606203999&g_mp=Cidnb29nbGUubWFwcy5wbGFjZXMudjEuUGxhY2VzLlNlYXJjaFRleHQQAhgEIAA,37.567754099999995,126.93135830000001,1.0,5.4,1.25
u6CE1PCdl8xv,TIMT,서울특별시 종로구 경희궁2길 14 익근빌딩 지상층,37.5729365,126.9716476,78,matched,ChIJEwYvjZOifDURSI_3-IZFbvU,팀트 TIMT,서울특별시 종로구 경희궁2길 14,https://maps.google.com/?cid=17685149232735424328&g_mp=Cidnb29nbGUubWFwcy5wbGFjZXMudjEuUGxhY2VzLlNlYXJjaFRleHQQAhgEIAA,37.5729225,126.9716029,0.85,4.2,1.1
3WCZFydBbQ1h,나무사이로,경기도 성남시 분당구 석운로 194 나무사이로,37.3797901,127.0459927,78,matched,ChIJyU3BBbpZezURvmWupRlBBCs,나무사이로 석운,경기도 성남시 석운동 53-8,https://maps.google.com/?cid=3099674021947401662&g_mp=Cidnb29nbGUubWFwcy5wbGFjZXMudjEuUGxhY2VzLlNlYXJjaFRleHQQAhgEIAA,37.3797699,127.04602289999998,0.85,3.5,1.1
JKtxFa90Ke9I,로코랩,서울특별시 종로구 종로 69 1층 로코랩,37.5703907,126.9849981,78,matched,ChIJJXN0TgCjfDUR4Xb5nZorYcY,로코랩,서울특별시 종로구 종로2가 9,https://maps.google.com/?cid=14294754635325994721&g_mp=Cidnb29nbGUubWFwcy5wbGFjZXMudjEuUGxhY2VzLlNlYXJjaFRleHQQAhgEIAA,37.5703762,126.98499919999998,1.0,1.6,1.25
JQNdSPPNwLZR,매뉴팩트커피,서울특별시 서대문구 연희로11길 29 2층,37.5677933,126.9296211,78,matched,ChIJC8mDVPKYfDURhxX_yE8bjPE,매뉴팩트커피 연희본점,서울특별시 서대문구 연희로11길 29,https://maps.google.com/?cid=17405316689368651143&g_mp=Cidnb29nbGUubWFwcy5wbGFjZXMudjEuUGxhY2VzLlNlYXJjaFRleHQQAhgEIAA,37.567782799999996,126.92960819999999,0.85,1.6,1.1
lXBRTRDnLMgu,먼스커피바,부산광역시 부산진구 동성로87번길 5 1층,35.1581383,129.0679172,78,matched,ChIJ5YDEvlDraDUR4EAyOcpzsQk,먼스커피바,부산광역시 부산진구 동성로87번길 5,https://maps.google.com/?cid=698466729599320288&g_mp=Cidnb29nbGUubWFwcy5wbGFjZXMudjEuUGxhY2VzLlNlYXJjaFRleHQQAhgEIAA,35.1581276,129.0679123,1.0,1.3,1.25
iAPFRKzM2EJr,비포어 커피 로스터스,서울특별시 구로구 디지털로31길 62 104호 Befores Coffee Roasters,37.4863429,126.8922306,78,matched,ChIJ1W57TACffDURFHXJJmwmhNw,비포어 커피 로스터스,서울특별시 구로구 디지털로31길 62,https://maps.google.com/?cid=15889867631219012884&g_mp=Cidnb29nbGUubWFwcy5wbGFjZXMudjEuUGxhY2VzLlNlYXJjaFRleHQQAhgEIAA,37.4864252,126.892126,1.0,13.0,1.25
NPZx520IXFkx,소람,부산광역시 연제구 중앙천로19번길 44 1층 카페 소람,35.1768751,129.0812452,78,matched,ChIJl3w8DV6TaDURJlYYLklGKT0,카페소람,부산광역시 연제구 중앙천로19번길 44,https://maps.google.com/?cid=4407130990478644774&g_mp=Cidnb29nbGUubWFwcy5wbGFjZXMudjEuUGxhY2VzLlNlYXJjaFRleHQQAhgEIAA,35.1768715,129.08125769999998,1.0,1.2,1.25
4OeF2nVKlS6f,펜타커피랩,경기도 광주시 초월읍 선장동길16번길 50 2층 펜타커피랩,37.383205,127.3174758,78,matched,ChIJfwob43lVYzURbFDXZxTEYwM,펜타커피랩,경기도 광주시 초월읍 선장동길16번길 50,https://maps.google.com/?cid=244254396728692844&g_mp=Cidnb29nbGUubWFwcy5wbGFjZXMudjEuUGxhY2VzLlNlYXJjaFRleHQQAhgEIAA,37.38316510000001,127.3174127,1.0,7.1,1.25
qMym4tKf9j6b,호이폴로이커피로스터스,서울특별시 노원구 동일로186길 64 상가,37.6252944,127.0765572,78,matched,ChIJt_63gXy7fDUR32vaxi74maE,호이폴로이 커피로스터스,서울특별시 노원구 동일로186길 64,https://maps.google.com/?cid=11644611191331515359&g_mp=Cidnb29nbGUubWFwcy5wbGFjZXMudjEuUGxhY2VzLlNlYXJjaFRleHQQAhgEIAA,37.6252782,127.07653779999998,1.0,2.5,1.25
GGWaizYMwf7Y,호커스포커스로스터스,경기도 평택시 장안웃길 12 호커스포커스 로스터스,37.063481,127.0762877,78,matched,ChIJbdtxAYI5ezURFblmLxRVzTM,호커스포커스로스터스 (HOCUS POCUS ROASTERS),경기도 평택시 장안동 412-1 KR,https://maps.google.com/?cid=3732733211342977301&g_mp=Cidnb29nbGUubWFwcy5wbGFjZXMudjEuUGxhY2VzLlNlYXJjaFRleHQQAhgEIAA,37.0633455,127.07625089999999,0.85,15.4,1.1
rO20xEHEZoPV,더하우스1932,서울특별시 중구 만리재로35길 7 더하우스1932,37.555548,126.9674035,77,matched,ChIJubb7kQejfDURmGCOpLyQTgI,더하우스1932,서울특별시 중구 만리재로35길 7,https://maps.google.com/?cid=166229376148332696&g_mp=Cidnb29nbGUubWFwcy5wbGFjZXMudjEuUGxhY2VzLlNlYXJjaFRleHQQAhgEIAA,37.5555315,126.96739300000002,1.0,2.1,1.25
ToMeWEFCupe4,드렁큰빈,서울특별시 서초구 사평대로55길 56 B1F-5F,37.5064827,127.0219666,77,matched,ChIJM1JFcQCjfDURU7-lvBAw2Pc,드렁큰빈,서울특별시 서초구 사평대로55길 56,https://maps.google.com/?cid=17859077170780290899&g_mp=Cidnb29nbGUubWFwcy5wbGFjZXMudjEuUGxhY2VzLlNlYXJjaFRleHQQAhgEIAA,37.5064689,127.022013,1.0,4.4,1.25
bav96hukZN7A,디아트커피,부산광역시 해운대구 청사포로128번길 12 디아트커피,35.1607378,129.1918807,77,matched,ChIJjSyESAONaDURpbsC0dUK5xQ,디아트 커피,부산광역시 해운대구 청사포로128번길 12,https://maps.google.com/?cid=1506184513829649317&g_mp=Cidnb29nbGUubWFwcy5wbGFjZXMudjEuUGxhY2VzLlNlYXJjaFRleHQQAhgEIAA,35.160738099999996,129.1918892,1.0,0.8,1.25
4TaQ66Nw3jVx,라이크댓커피,부산광역시 금정구 수림로91번길 51 1F 라이크댓커피,35.2376477,129.0825688,77,matched,ChIJSX1VlRaTaDURe23NjgdHYsk,라이크댓커피 (Like that coffee),부산광역시 금정구 수림로91번길 51 라이크댓 커피로스터스 1층,https://maps.google.com/?cid=14511239047127330171&g_mp=Cidnb29nbGUubWFwcy5wbGFjZXMudjEuUGxhY2VzLlNlYXJjaFRleHQQAhgEIAA,35.237688,129.0825396,0.85,5.2,1.1
iEcj4kbPT0SX,라파즈,"경기도 수원시 영통구 센트럴파크로127번길 152 지하1층,1층",37.2940246,127.0557489,77,matched,ChIJV0HpoodbezURNx-cz6RFVdY,라파즈,경기도 수원시 영통구 이의동 센트럴파크로127번길 152,https://maps.google.com/?cid=15444327071297052471&g_mp=Cidnb29nbGUubWFwcy5wbGFjZXMudjEuUGxhY2VzLlNlYXJjaFRleHQQAhgEIAA,37.2939942,127.05572809999998,1.0,3.8,1.25
BzEb5r4p09ah,로스터스 정진원의커피볶는집,경기도 안성시 원곡면 만세로 1113,37.0468508,127.1565832,77,matched,ChIJpczCFgg3ezURayPb8mimzjs,정진원의 커피볶는 집,경기도 안성시 원곡면 만세로 1113,https://maps.google.com/?cid=4309564863121400683&g_mp=Cidnb29nbGUubWFwcy5wbGFjZXMudjEuUGxhY2VzLlNlYXJjaFRleHQQAhgEIAA,37.046854499999995,127.15659559999999,1.0,1.2,1.25
aADDyd2sEWCG,로스팅웨어,경상남도 진주시 가호방아길 51-8,35.1571192,128.1186779,77,matched,ChIJbxRMTX37bjURcNOovLhsOj8,로스팅 웨어,경상남도 진주시 가호방아길 51-8,https://maps.google.com/?cid=4556073513733641072&g_mp=Cidnb29nbGUubWFwcy5wbGFjZXMudjEuUGxhY2VzLlNlYXJjaFRleHQQAhgEIAA,35.1570627,128.1186287,1.0,7.7,1.25
VYoong4JWQf7,로우앤스윗 로스터리,부산 해운대구 우동1로20번길 19 1층 로우앤스윗 로스터리,35.1641933,129.1576705,77,matched,ChIJofoWUQCNaDURDqIZjAjYMU8,로우앤스윗 로스터리,부산광역시 해운대구 우동1로20번길 19 1층,https://maps.google.com/?cid=5706579734076957198&g_mp=Cidnb29nbGUubWFwcy5wbGFjZXMudjEuUGxhY2VzLlNlYXJjaFRleHQQAhgEIAA,35.1642353,129.15767580000002,1.0,4.7,1.25
fHAO6tH1hWJN,말릭커피,서울특별시 마포구 와우산로29바길 20 반지층 카페 말릭,37.5555292,126.9257122,77,matched,ChIJcRoYS8KYfDURexH0nIaY6Mc,말릭커피 Malic coffee,서울특별시 마포구 와우산로29바길 20,https://maps.google.com/?cid=14404931112070812027&g_mp=Cidnb29nbGUubWFwcy5wbGFjZXMudjEuUGxhY2VzLlNlYXJjaFRleHQQAhgEIAA,37.555555399999996,126.92570349999998,0.85,3.0,1.1
uWyOSrr4V8DR,비전스트롤 연희 로스터리,서울특별시 서대문구 연희로11가길 24 1층,37.5673626,126.9285155,77,matched,ChIJtWZsYdWZfDURi8wntFmOn3U,비전스트롤 연희로스터리점,"1 층, 24 연희로11가길 서대문구 서울특별시",https://maps.google.com/?cid=8475649539660303499&g_mp=Cidnb29nbGUubWFwcy5wbGFjZXMudjEuUGxhY2VzLlNlYXJjaFRleHQQAhgEIAA,37.5673546,126.9284961,0.85,1.9,1.1
Fn9tC0kqfpyM,빌리프커피,서울특별시 마포구 양화로11길 50 해동빌딩 1층~지하1층,37.5523005,126.9140322,77,matched,ChIJndWvedeYfDUR9BxKm9IbCH4,빌리프커피 로스터스,서울특별시 마포구 양화로11길 50,https://maps.google.com/?cid=9081539239955012852&g_mp=Cidnb29nbGUubWFwcy5wbGFjZXMudjEuUGxhY2VzLlNlYXJjaFRleHQQAhgEIAA,37.5523362,126.9140074,1.0,4.5,1.25
N8hmak2FumSX,사이먼커피,부산광역시 연제구 중앙대로1056번길 2 1층,35.1823317,129.0790571,77,matched,ChIJqe4-q1GTaDURvUAtVuUFgIA,사이먼커피,부산광역시 연제구 중앙대로1056번길 2,https://maps.google.com/?cid=9259407316425195709&g_mp=Cidnb29nbGUubWFwcy5wbGFjZXMudjEuUGxhY2VzLlNlYXJjaFRleHQQAhgEIAA,35.1823583,129.0790882,1.0,4.1,1.25
9uK3fBJbCh5l,산체스커피로스터스,서울특별시 송파구 성내천로8길 3 1층 산체스커피,37.5022528,127.136131,77,matched,ChIJb5fBcYmvfDURbfx_p6i2BP4,산체스커피 본점,서울특별시 송파구 오금동 성내천로8길 3,https://maps.google.com/?cid=18303955621021482093&g_mp=Cidnb29nbGUubWFwcy5wbGFjZXMudjEuUGxhY2VzLlNlYXJjaFRleHQQAhgEIAA,37.5021671,127.1360643,0.85,11.2,1.1
sFStWXzuI9x9,스팅프리 커피웍스,부산 동구 중앙대로226번길 7-7 1층,35.1173523,129.0420159,77,maybe,ChIJp4C4dwDraDURWEnSInWqR4Q,Stingfree Coffee Works,부산광역시 동구 초량동 1197-4,https://maps.google.com/?cid=9531774556425046360&g_mp=Cidnb29nbGUubWFwcy5wbGFjZXMudjEuUGxhY2VzLlNlYXJjaFRleHQQAhgEIAA,35.1173585,129.04197489999999,0.0,3.8,0.25
FaGVRixU9N4X,어라우즈로스터리,부산광역시 강서구 르노삼성대로 630 어라우즈로스터리,35.1038551,128.9300393,77,matched,ChIJbborUfvDaDURNmqt4tZVA-c,어라우즈 로스터리,부산광역시 강서구 르노삼성대로 630,https://maps.google.com/?cid=16646243029105863222&g_mp=Cidnb29nbGUubWFwcy5wbGFjZXMudjEuUGxhY2VzLlNlYXJjaFRleHQQAhgEIAA,35.103596800000005,128.9300006,1.0,28.9,1.25
aGQKFVkHhNbm,어펜드 커피로스터스,서울특별시 중구 명동3길 17 충일빌딩 2층,37.5645736,126.9834312,77,matched,ChIJ1zDCmdSjfDURy1SZklk5rZU,어펜드커피로스터스 명동 UPND Upend Coffee Roasters Myeongdong,서울특별시 중구 명동3길 17 충일빌딩 2층,https://maps.google.com/?cid=10785339739496600779&g_mp=Cidnb29nbGUubWFwcy5wbGFjZXMudjEuUGxhY2VzLlNlYXJjaFRleHQQAhgEIAA,37.564486099999996,126.9833997,0.85,10.1,1.1
xvYjlSNGMSGW,오아스 로스터스,부산광역시 수영구 광안로21번길 23 1층 102호(광안동),35.1575069,129.1151569,77,matched,ChIJywrQSyztaDURICoNk4CXPyE,오아스로스터스,부산광역시 수영구 광안동 145-36,https://maps.google.com/?cid=2395800105263114784&g_mp=Cidnb29nbGUubWFwcy5wbGFjZXMudjEuUGxhY2VzLlNlYXJjaFRleHQQAhgEIAA,35.1575124,129.1151764,1.0,1.9,1.25
3c56bFnMeBym,이구동성 로스터리카페,경기도 남양주시 덕송3로 45-71 이구동성로스터리카페,37.6684586,127.1107178,77,matched,ChIJo1JW5465fDURV3DFurjbVhA,이구동성 로스터리카페,경기도 남양주시 별내동 덕송3로 45-71,https://maps.google.com/?cid=1177369939057930327&g_mp=Cidnb29nbGUubWFwcy5wbGFjZXMudjEuUGxhY2VzLlNlYXJjaFRleHQQAhgEIAA,37.668630300000004,127.11047169999999,1.0,28.9,1.25
UvU8CgZMfUkP,카페 이목,충청북도 음성군 삼성면 대청로 189 카페이목,36.995622,127.4655906,77,matched,ChIJL-vRoIm3ZDUREvdu8yoUQ4c,카페이목,충청북도 음성군 삼성면 청용리 453-1,https://maps.google.com/?cid=9746656193265202962&g_mp=Cidnb29nbGUubWFwcy5wbGFjZXMudjEuUGxhY2VzLlNlYXJjaFRleHQQAhgEIAA,36.9956068,127.465577,1.0,2.1,1.25
1kKho4yf3Fti,캐시미어커피,서울특별시 중구 수표로6길 33-2 1층,37.5628725,126.9923495,77,matched,ChIJc6f-EU-jfDURfNPXqBpY-Iw,캐시미어,서울특별시 중구 충무로 6길 33-2 1층,https://maps.google.com/?cid=10157965831059264380&g_mp=Cidnb29nbGUubWFwcy5wbGFjZXMudjEuUGxhY2VzLlNlYXJjaFRleHQQAhgEIAA,37.5628481,126.9922954,1.0,5.5,1.25
ARe0eCAEhKkh,코드라인,경기 용인시 처인구 양지읍 한터로 687-22 코드라인,37.2628161,127.27853,77,matched,ChIJmZ9CPttTezURjCq5Q5poXFQ,코드라인,경기도 용인시 처인구 한터로 687-22 코드라인 KR,https://maps.google.com/?cid=6078848608813787788&g_mp=Cidnb29nbGUubWFwcy5wbGFjZXMudjEuUGxhY2VzLlNlYXJjaFRleHQQAhgEIAA,37.262644099999996,127.27853730000001,1.0,19.1,1.25
MS3fJjwRXOH0,트래버틴,서울특별시 용산구 한강대로7길 18-7,37.5248744,126.9620815,77,matched,ChIJcbS60IKhfDURZkoT8YSPeUo,트래버틴 용산 카페 Yongsan coffee Travertine Cafe Roastery カフェ コーヒー,서울특별시 용산구 한강대로7길 18-7,https://maps.google.com/?cid=5366478232131684966&g_mp=Cidnb29nbGUubWFwcy5wbGFjZXMudjEuUGxhY2VzLlNlYXJjaFRleHQQAhgEIAA,37.5248656,126.9620749,0.85,1.1,1.1
shLF9mcrLmnd,페리아 커피,경기도 남양주시 와부읍 팔당로81번길 88-3 1층,37.5551331,127.238781,77,maybe,ChIJrVXcqOizfDURHNwFjjKcjiU,파레아 팔당,경기도 남양주시 와부읍 팔당로81번길 88-3,https://maps.google.com/?cid=2706272167041293340&g_mp=Cidnb29nbGUubWFwcy5wbGFjZXMudjEuUGxhY2VzLlNlYXJjaFRleHQQAhgEIAA,37.5550521,127.23877909999997,0.0,9.0,0.25
gP5K4DtpTNTO,프리퍼,서울특별시 서초구 반포대로5길 4 성원빌딩 1층,37.4820737,127.0114945,77,matched,ChIJMxwX7xChfDURvETvo2ZDhk4,프리퍼,서울특별시 서초구 서초동 1475-5,https://maps.google.com/?cid=5658284089953699004&g_mp=Cidnb29nbGUubWFwcy5wbGFjZXMudjEuUGxhY2VzLlNlYXJjaFRleHQQAhgEIAA,37.4820379,127.0114166,1.0,7.9,1.25
m2F8zh7NqH2L,헤베커피,서울특별시 중구 필동로 32 낙원빌딩 1층,37.5587175,126.9960127,77,matched,ChIJNRGDt4CjfDURfnQrGrn0rJE,헤베커피,서울특별시 중구 필동2가 99,https://maps.google.com/?cid=10497033907338966142&g_mp=Cidnb29nbGUubWFwcy5wbGFjZXMudjEuUGxhY2VzLlNlYXJjaFRleHQQAhgEIAA,37.558813199999996,126.9959892,1.0,10.8,1.25
LIEBT5S7qamF,헬무트커피,서울특별시 서초구 방배천로6길 3-10 헬무트커피로스터스,37.4799458,126.9828466,77,matched,ChIJd8pz4_-hfDURzlOTrc-ZjLg,헬무트커피로스터스,서울특별시 서초구 방배천로6길 3-10,https://maps.google.com/?cid=13298172916967625678&g_mp=Cidnb29nbGUubWFwcy5wbGFjZXMudjEuUGxhY2VzLlNlYXJjaFRleHQQAhgEIAA,37.479863099999996,126.9828555,1.0,9.2,1.25
SDYbBi0NjdMw,7HUNDRED,강원도 평창군 대관령면 강변길 93,37.6697443,128.7093841,76,matched,ChIJGUBwPTGLYTURvvpkkOrEJyI,7HUNDRED coffee roasters,강원특별자치도 평창군 대관령면 강변길 93,https://maps.google.com/?cid=2461152233105193662&g_mp=Cidnb29nbGUubWFwcy5wbGFjZXMudjEuUGxhY2VzLlNlYXJjaFRleHQQAhgEIAA,37.6697361,128.7093889,1.0,1.0,1.25
PXvPuE3FlDNH,FM coffee,부산광역시 부산진구 전포대로199번길 26,35.154595,129.063702,76,maybe,ChIJ-89b5mTraDURFoadptjw-MQ,에프엠 커피,부산광역시 부산진구 전포대로199번길 26,https://maps.google.com/?cid=14193359038957061654&g_mp=Cidnb29nbGUubWFwcy5wbGFjZXMudjEuUGxhY2VzLlNlYXJjaFRleHQQAhgEIAA,35.1546455,129.0637738,0.0,8.6,0.25
xCcc3tKJQ86m,그레이 그리스트밀,서울특별시 강남구 압구정로2길 15,37.5206043,127.0199776,76,maybe,ChIJadKUIMujfDURcIKsn36Ib30,cafe GRAY GRISTMILL,서울특별시 강남구 압구정로2길 15,https://maps.google.com/?cid=9038593054582014576&g_mp=Cidnb29nbGUubWFwcy5wbGFjZXMudjEuUGxhY2VzLlNlYXJjaFRleHQQAhgEIAA,37.5206993,127.01997499999999,0.0,10.6,0.25
5d0xqeEmdxik,노 스모크 위드아웃 파이어,경기도 수원시 팔달구 향교로 115-17 4층,37.2727261,127.0126957,76,matched,ChIJIRHjBqRDezURlQNQeBOhk-A,노스모크위드아웃파이어카페 유림점,경기도 수원시 팔달구 향교로 115-17,https://maps.google.com/?cid=16182454991067284373&g_mp=Cidnb29nbGUubWFwcy5wbGFjZXMudjEuUGxhY2VzLlNlYXJjaFRleHQQAhgEIAA,37.2727569,127.01268920000001,0.85,3.5,1.1
hLj3tDh4l1Hx,델문도,제주특별자치도 제주시 구좌읍 해맞이해안로 140,33.5634021,126.7683878,76,matched,ChIJba90GnYXDTURw-GnMzDFuR4,델문도 김녕점,제주특별자치도 제주시 특별자치도 김녕리 462-15,https://maps.google.com/?cid=2214017502645051843&g_mp=Cidnb29nbGUubWFwcy5wbGFjZXMudjEuUGxhY2VzLlNlYXJjaFRleHQQAhgEIAA,33.5634095,126.7684326,0.85,4.2,1.1
7ulVyBCDloCC,돌핀커피로스터스,"인천광역시 연수구 컨벤시아대로130번길 12 대경 스위트리아 1층 109호, 110호",37.3934714,126.6453132,76,matched,ChIJj73ap4N3ezUR7LK8jko34jc,돌핀커피로스터스,"인천광역시 연수구 컨벤시아대로130번길 12 대경 스위트리아 1층 109, 110호",https://maps.google.com/?cid=4026841810184483564&g_mp=Cidnb29nbGUubWFwcy5wbGFjZXMudjEuUGxhY2VzLlNlYXJjaFRleHQQAhgEIAA,37.3933263,126.6452497,1.0,17.1,1.25
k0qra7tET6z0,리시트,대구광역시 수성구 달구벌대로458길 62 1층(수성동1가),35.8569977,128.61202,76,matched,ChIJVXvAMwDjZTUR1gqKSCjYxgY,리시트 로스터리(수성),대구광역시 수성구 달구벌대로458길 62,https://maps.google.com/?cid=488315277143575254&g_mp=Cidnb29nbGUubWFwcy5wbGFjZXMudjEuUGxhY2VzLlNlYXJjaFRleHQQAhgEIAA,35.8571272,128.6120224,0.85,14.4,1.1
Nwf17PCVjn2i,묵리459,경기도 용인시 처인구 이동읍 이원로 484 카페 묵리459,37.1691205,127.2384417,76,matched,ChIJq5RhaJ9NezURDAh_agzanR4,묵리 459,경기도 용인시 처인구 이동읍 묵리 459,https://maps.google.com/?cid=2206159139342583820&g_mp=Cidnb29nbGUubWFwcy5wbGFjZXMudjEuUGxhY2VzLlNlYXJjaFRleHQQAhgEIAA,37.168214400000004,127.2391856,1.0,120.4,1.15
VgQcqNUFaFQl,뮤게트,인천광역시 부평구 부평대로36번길 35 3층 뮤게트,37.494824,126.7248622,76,maybe,ChIJjUXuLlN9ezURwOhb_8rLZ90,모트커피,인천광역시 부평구 부평동 부평대로32번길 22,https://maps.google.com/?cid=15953944277711317184&g_mp=Cidnb29nbGUubWFwcy5wbGFjZXMudjEuUGxhY2VzLlNlYXJjaFRleHQQAhgEIAA,37.4943442,126.72415570000001,0.0,82.0,0.15
0rrFDx2TiZ90,벙커컴퍼니,"서울특별시 강남구 언주로167길 23 1,2층",37.5263818,127.0312294,76,matched,ChIJEQGi7LmjfDURU_WbBWW4j-s,벙커컴퍼니 압구정점,서울특별시 강남구 언주로167길 23,https://maps.google.com/?cid=16973988264608003411&g_mp=Cidnb29nbGUubWFwcy5wbGFjZXMudjEuUGxhY2VzLlNlYXJjaFRleHQQAhgEIAA,37.5263607,127.0311998,0.85,3.5,1.1
j1CRUlCkLl3j,삼원샏,서울특별시 종로구 대학로11길 9-3 삼원샏,37.5821841,127.0012204,76,matched,ChIJWwbt9yejfDURg5ZT7DayGsY,삼원샏(samonesec),서울특별시 종로구 대학로11길 9-3,https://maps.google.com/?cid=14274917917867087491&g_mp=Cidnb29nbGUubWFwcy5wbGFjZXMudjEuUGxhY2VzLlNlYXJjaFRleHQQAhgEIAA,37.5821732,127.00125770000001,0.85,3.5,1.1
MoRkI4vyjRo5,서부커피로스터스,경상남도 김해시 봉황대길 43 A동 1층,35.2290259,128.8782673,76,matched,ChIJrW5jpAHHaDURnOI95N3aEmE,서부커피로스터스,경상남도 김해시 봉황동 236-1,https://maps.google.com/?cid=6994893817811690140&g_mp=Cidnb29nbGUubWFwcy5wbGFjZXMudjEuUGxhY2VzLlNlYXJjaFRleHQQAhgEIAA,35.2291072,128.8781186,1.0,16.3,1.25
BJnQip4RFdj2,서혜커피,경기도 성남시 분당구 정자일로156번길 6 뉴본타워 1층,37.3640169,127.1061147,76,matched,ChIJqYi2RVpZezUR0HauIePGD-Y,SEOHYE COFFEE 서혜커피,경기도 성남시 분당구 정자동 155-1,https://maps.google.com/?cid=16577687432199042768&g_mp=Cidnb29nbGUubWFwcy5wbGFjZXMudjEuUGxhY2VzLlNlYXJjaFRleHQQAhgEIAA,37.3639881,127.1060993,0.85,3.5,1.1
rhKIOwyd1KN0,시방리 카페,경상남도 거제시 장목면 옥포대첩로 1216 카페시방리,34.9636221,128.7068294,76,matched,ChIJ7egMI3MraTURfgFJyzp5pJ4,카페 시방리,경상남도 거제시 장목면 옥포대첩로 1216,https://maps.google.com/?cid=11431395047598784894&g_mp=Cidnb29nbGUubWFwcy5wbGFjZXMudjEuUGxhY2VzLlNlYXJjaFRleHQQAhgEIAA,34.9636408,128.706763,1.0,6.4,1.25
EJExrL1yekYN,신양로스터스,서울특별시 송파구 오금로18길 3 1층,37.5104022,127.1109716,76,matched,ChIJs7v5aHalfDURT8F3CiMdPzA,신양로스터스,서울특별시 송파구 오금로18길 3,https://maps.google.com/?cid=3476529473689993551&g_mp=Cidnb29nbGUubWFwcy5wbGFjZXMudjEuUGxhY2VzLlNlYXJjaFRleHQQAhgEIAA,37.5103464,127.11093890000001,1.0,6.8,1.25
INj5WUxVuF8M,애크로매틱 커피 컴퍼니,서울특별시 강동구 성내로14길 37 1층 애크로메틱 커피,37.5263394,127.1263978,76,matched,ChIJbQBp-LavfDURu2J0eUk_LfQ,애크로매틱 커피,서울특별시 강동구 성내제1동 성내로14길 37,https://maps.google.com/?cid=17594788904009228987&g_mp=Cidnb29nbGUubWFwcy5wbGFjZXMudjEuUGxhY2VzLlNlYXJjaFRleHQQAhgEIAA,37.5262299,127.12628989999999,0.85,15.5,1.1
vnUDyazZjXyK,앤티크커피,서울특별시 영등포구 국회대로29길 6 1층 앤티크커피 영등포구청점,37.5287144,126.8967124,76,matched,ChIJX8rZDumefDURPcNkZAeDwig,앤티크커피 영등포점,서울특별시 영등포구 국회대로29길 6,https://maps.google.com/?cid=2937053974771319613&g_mp=Cidnb29nbGUubWFwcy5wbGFjZXMudjEuUGxhY2VzLlNlYXJjaFRleHQQAhgEIAA,37.5286478,126.89681110000001,0.85,11.4,1.1
QPNDKO6avMEE,올웨이즈 어거스트 로스터리,서울특별시 용산구 한강대로 179 1층,37.5349159,126.9728506,76,matched,ChIJOXlRDgCjfDURaJBfC5AEVho,올웨이즈 어거스트 로스터스,서울특별시 용산구 한강대로 179,https://maps.google.com/?cid=1897709309695856744&g_mp=Cidnb29nbGUubWFwcy5wbGFjZXMudjEuUGxhY2VzLlNlYXJjaFRleHQQAhgEIAA,37.5348848,126.97286539999999,1.0,3.7,1.25
zRnscZerwc0G,웰컴백커피,서울특별시 강서구 공항대로 206 115호,37.5587405,126.8301749,76,matched,ChIJ-_GnkOebfDURw3T3OO6rEiE,웰컴백커피,서울특별시 강서구 공항대로 206 나인스퀘어 115호,https://maps.google.com/?cid=2383156192478721219&g_mp=Cidnb29nbGUubWFwcy5wbGFjZXMudjEuUGxhY2VzLlNlYXJjaFRleHQQAhgEIAA,37.558713,126.83018729999999,1.0,3.2,1.25
mClwD1w6KKYe,잉크커피,서울특별시 구로구 디지털로30길 28,37.4821277,126.8953134,76,matched,ChIJCRxlCySefDURPjCmMVHhbWc,잉크커피,서울특별시 구로구 구로동 222 12번지 마리오타워 1층 109호,https://maps.google.com/?cid=7452860697209614398&g_mp=Cidnb29nbGUubWFwcy5wbGFjZXMudjEuUGxhY2VzLlNlYXJjaFRleHQQAhgEIAA,37.482056899999996,126.895277,1.0,8.5,1.25
raz4wUwjIGFC,최가커피,서울특별시 광진구 자양로13가길 18 1층,37.5349062,127.0811664,76,matched,ChIJe24bIjylfDURlV2SVp5UtnA,최가커피 자양점,서울특별시 광진구 자양동 625-15,https://maps.google.com/?cid=8121772017043266965&g_mp=Cidnb29nbGUubWFwcy5wbGFjZXMudjEuUGxhY2VzLlNlYXJjaFRleHQQAhgEIAA,37.5348708,127.0811474,0.85,4.3,1.1
ZRKpVTpHvROh,카운트 커피,대전광역시 중구 대종로501번길 27 1-2층,36.328156,127.4234731,76,matched,ChIJ4eWmJQBJZTURKiAHGdL1G0Y,카운트 커피,대전광역시 중구 대종로501번길 27,https://maps.google.com/?cid=5051901689737977898&g_mp=Cidnb29nbGUubWFwcy5wbGFjZXMudjEuUGxhY2VzLlNlYXJjaFRleHQQAhgEIAA,36.3281604,127.4234636,1.0,1.0,1.25
RfSoBUiRBtDN,카페 드 220 볼트,"강원도 춘천시 동내면 금촌로 107-27 지하1, 지상1-2층 인디커피",37.8570165,127.783788,76,matched,ChIJffMk9jLlYjURyTQWw1OqMEQ,카페드220V볼트 본점,강원특별자치도 춘천시 특별자치도 동내면 금촌로 107-27,https://maps.google.com/?cid=4913614470193231049&g_mp=Cidnb29nbGUubWFwcy5wbGFjZXMudjEuUGxhY2VzLlNlYXJjaFRleHQQAhgEIAA,37.8570255,127.78398199999998,0.444,17.1,0.694
mtrXh4wkREBE,카페 모호,서울특별시 서초구 양재천로7길 1 1층,37.4743129,127.0361179,76,matched,ChIJdx6fieKhfDURKNXaNIuKwtI,카페 모호,서울특별시 서초구 양재천로7길 1,https://maps.google.com/?cid=15186853223938577704&g_mp=Cidnb29nbGUubWFwcy5wbGFjZXMudjEuUGxhY2VzLlNlYXJjaFRleHQQAhgEIAA,37.4742728,127.03607070000001,1.0,6.1,1.25
Q7gw1HsqogB8,콜론:커피랩,인천광역시 서구 청라루비로42번길 6-13 1층,37.5285563,126.6417196,76,matched,ChIJJfkStqd_ezURVEOfqU_mC-s,콜론:커피랩(COLON:CoffeeLab,인천광역시 서구 청라루비로42번길 6-13,https://maps.google.com/?cid=16936884053479474004&g_mp=Cidnb29nbGUubWFwcy5wbGFjZXMudjEuUGxhY2VzLlNlYXJjaFRleHQQAhgEIAA,37.5285625,126.64167599999999,0.85,3.9,1.1
Fgbti9Z6PNka,크레이트커피,서울특별시 용산구 독서당로 97 1층,37.5353057,127.0108819,76,matched,ChIJfdr_ugWjfDUR8NfMiuAw7mc,크레이트커피,서울특별시 용산구 대로변 독서당로 97 1층,https://maps.google.com/?cid=7488976971323201520&g_mp=Cidnb29nbGUubWFwcy5wbGFjZXMudjEuUGxhY2VzLlNlYXJjaFRleHQQAhgEIAA,37.5352704,127.01088449999999,1.0,3.9,1.25
iIN05yxb6eqW,투데이엣,대전광역시 서구 용소로58번길 21 1층 투데이엣 로스터리카페,36.3086963,127.354434,76,matched,ChIJf3rwCU1NZTUR8dYI-YLSVTY,투데이엣 로스터리카페 (Today At),대전광역시 서구 용소로 58번길 21 1층,https://maps.google.com/?cid=3915266911034201841&g_mp=Cidnb29nbGUubWFwcy5wbGFjZXMudjEuUGxhY2VzLlNlYXJjaFRleHQQAhgEIAA,36.3084755,127.35453559999999,0.85,26.2,1.1
0CmFwndvYRd1,퍼스널커피,서울특별시 마포구 망원로6길 50 1층,37.5547113,126.9037761,76,matched,ChIJ6X-RuKyZfDURBq-iQElfgrY,퍼스널커피,서울특별시 마포구 망원제1동 망원로6길 50,https://maps.google.com/?cid=13151178630096924422&g_mp=Cidnb29nbGUubWFwcy5wbGFjZXMudjEuUGxhY2VzLlNlYXJjaFRleHQQAhgEIAA,37.5546547,126.9037176,1.0,8.1,1.25
gOnLYGXPE4kq,프릳츠,서울특별시 중구 동호로24길 11,37.5597447,127.005232,76,matched,ChIJ2YkcDgCjfDURo6-Fr23BsA0,프릳츠 장충 Fritz JangChung,서울특별시 중구 동호로24길 11,https://maps.google.com/?cid=986500995234508707&g_mp=Cidnb29nbGUubWFwcy5wbGFjZXMudjEuUGxhY2VzLlNlYXJjaFRleHQQAhgEIAA,37.5597249,127.0052235,0.85,2.3,1.1
xoah5blEq8X9,필그림커피,서울특별시 영등포구 영신로9라길 12 1층 필그림커피,37.513106,126.9055999,76,matched,ChIJpX8APIqffDURJ1Lf9-QoN40,필그림커피,서울 영등포구 영신로9라길 12 1층,https://maps.google.com/?cid=10175646846943187495&g_mp=Cidnb29nbGUubWFwcy5wbGFjZXMudjEuUGxhY2VzLlNlYXJjaFRleHQQAhgEIAA,37.5131923,126.90555569999998,1.0,10.4,1.25
gzEeO1twoAxH,학림커피,서울특별시 종로구 대학로9길 23,37.5815355,127.0006361,76,matched,ChIJXzjfa6CjfDURejwpWdJ3F3M,학림커피,서울특별시 종로구 명륜4가 124-1,https://maps.google.com/?cid=8293228984148769914&g_mp=Cidnb29nbGUubWFwcy5wbGFjZXMudjEuUGxhY2VzLlNlYXJjaFRleHQQAhgEIAA,37.5815092,127.0005855,1.0,5.3,1.25
o6c8T1n0SPLH,꼬르꼬바두,서울특별시 종로구 수표로 86-1 B1~2층 카페 꼬르꼬바두,37.5689367,126.990077,75,matched,ChIJheJdguqjfDURAD2lHgcDNB0,꼬르꼬바두,서울특별시 종로구 수표로 86-1,https://maps.google.com/?cid=2104310255002664192&g_mp=Cidnb29nbGUubWFwcy5wbGFjZXMudjEuUGxhY2VzLlNlYXJjaFRleHQQAhgEIAA,37.568948999999996,126.99001179999999,1.0,5.9,1.25
vzr77GcVURmy,남산아래커피로스터즈,"서울특별시 중구 소파로 129 신관 401호,402호",37.5588893,126.9871666,75,matched,ChIJO6bBYLajfDURvnC8ud4US_8,남산아래커피로스터즈,서울특별시 중구 소파로 129,https://maps.google.com/?cid=18395820049756352702&g_mp=Cidnb29nbGUubWFwcy5wbGFjZXMudjEuUGxhY2VzLlNlYXJjaFRleHQQAhgEIAA,37.5588341,126.9869818,1.0,17.4,1.25
AnAW5vvu6gNJ,로스팅하우스 허깅,경기도 성남시 분당구 내정로11번길 16-4 로스팅하우스 허깅,37.2801751,127.0926939,75,matched,ChIJT36J5zJYezURL9wzA29cj8M,로스팅하우스 허깅 본점,경기도 용인시 기흥구 신정로41번길 95-28 로스팅하우스 허깅,https://maps.google.com/?cid=14091583390930426927&g_mp=Cidnb29nbGUubWFwcy5wbGFjZXMudjEuUGxhY2VzLlNlYXJjaFRleHQQAhgEIAA,37.2801924,127.0926678,0.85,3.0,1.1
FvEa1Cd7Yux7,루츠프레소 커피로스터스,인천광역시 계양구 경명대로1071번길 1 루츠프레소,37.5437483,126.7259604,75,matched,ChIJrbP2RuaDfDURzAjW6MFGbus,루츠프레소,인천광역시 계양구 경명대로1071번길 1,https://maps.google.com/?cid=16964574645000210636&g_mp=Cidnb29nbGUubWFwcy5wbGFjZXMudjEuUGxhY2VzLlNlYXJjaFRleHQQAhgEIAA,37.5437126,126.72594659999999,1.0,4.2,1.25
7cI9745Csmba,마숑,인천광역시 중구 해맞이길 41 101호,37.476252,126.5323311,75,matched,ChIJj8vp_cGDezURUnNpMQQwsI0,마숑,인천광역시 중구 해맞이길 41 101호,https://maps.google.com/?cid=10209713149815911250&g_mp=Cidnb29nbGUubWFwcy5wbGFjZXMudjEuUGxhY2VzLlNlYXJjaFRleHQQAhgEIAA,37.4762876,126.5322433,1.0,8.7,1.25
UsUQOkPgEG3o,모이커피클래식,경기도 수원시 팔달구 월드컵로 325 월드컵로325,37.2870829,127.0333132,75,matched,ChIJ__WBZ69cezUR-S9t6ab6k6w,모이커피 클래식,경기도 수원시 팔달구 우만동 499-4 KR,https://maps.google.com/?cid=12435558590887833593&g_mp=Cidnb29nbGUubWFwcy5wbGFjZXMudjEuUGxhY2VzLlNlYXJjaFRleHQQAhgEIAA,37.2869607,127.03332929999999,1.0,13.7,1.25
gBq1p8wuVkbF,미니말레 뢰스터리&커피바,서울특별시 서초구 반포대로30길 70 1층,37.4924983,127.0123214,75,matched,ChIJ28s9TQ6hfDURT85e28IA2ws,미니말레 뢰스터리&커피 바 서초교대점,서울특별시 서초구 서초동 1571-14,https://maps.google.com/?cid=854277391220919887&g_mp=Cidnb29nbGUubWFwcy5wbGFjZXMudjEuUGxhY2VzLlNlYXJjaFRleHQQAhgEIAA,37.4924526,127.0123309,0.85,5.2,1.1
Ee8HMCoFaUyG,바이아커피스토어,전라북도 전주시 완산구 현무1길 21-15 1층 바이아커피스토어,35.8200001,127.1474894,75,maybe,ChIJwQ4ITpsjcDURq0RK-l1tqpc,VIA COFFEE STORE,전북특별자치도 전주시 완산구 현무1길 21-15,https://maps.google.com/?cid=10928667696166487211&g_mp=Cidnb29nbGUubWFwcy5wbGFjZXMudjEuUGxhY2VzLlNlYXJjaFRleHQQAhgEIAA,35.8199961,127.14748859999999,0.0,0.5,0.25
A84jTfjER7O2,브리니 팔공,대구광역시 동구 팔공로206길 4,35.9533128,128.6908899,75,matched,ChIJp5prdG51ZjURVm2NaK1xV-M,브리니 팔공,대구광역시 동구 백안동 536 브리니 팔공,https://maps.google.com/?cid=16381687159180848470&g_mp=Cidnb29nbGUubWFwcy5wbGFjZXMudjEuUGxhY2VzLlNlYXJjaFRleHQQAhgEIAA,35.953288799999996,128.6909416,1.0,5.4,1.25
Dr9wWfHrm5aW,스너그로스터리,경기도 광명시 시청로 50 상가 A동 AA123호,37.4779417,126.8685205,75,matched,ChIJn57sGvhhezURVXKazyN58GI,스너그 로스터리,경기도 광명시 시청로 50,https://maps.google.com/?cid=7129331404841316949&g_mp=Cidnb29nbGUubWFwcy5wbGFjZXMudjEuUGxhY2VzLlNlYXJjaFRleHQQAhgEIAA,37.4780231,126.8684582,1.0,10.6,1.25
Ikc5wJDyoR42,스틸존,"경기도 용인시 처인구 모현읍 문현로 166 카페스틸존, 1층",37.3427936,127.2276291,75,matched,ChIJ-ZFqfeFVezURetG9_S180SM,스틸존,경기도 용인시 모현읍 문현로 166 KR,https://maps.google.com/?cid=2580980598432452986&g_mp=Cidnb29nbGUubWFwcy5wbGFjZXMudjEuUGxhY2VzLlNlYXJjaFRleHQQAhgEIAA,37.3427052,127.2275538,1.0,11.9,1.25
qbXpld0kytik,아날로그,인천광역시 남동구 남동대로691번길 13 1층,37.4440227,126.7059241,75,matched,ChIJFanh5tp7ezURjcHGDI3SkU0,아날로그 3호점,인천광역시 남동구 구월동 1176-6,https://maps.google.com/?cid=5589480115790070157&g_mp=Cidnb29nbGUubWFwcy5wbGFjZXMudjEuUGxhY2VzLlNlYXJjaFRleHQQAhgEIAA,37.4439725,126.70590059999999,0.85,6.0,1.1
EUQgeZCiQ9lN,아드프 커피로스터스,서울특별시 광진구 능동로3다길 1 1층/지하,37.5337839,127.0653215,75,matched,ChIJN8-wKcOlfDURwJpuGUZvNq4,아드프커피로스터스Adefcoffeeroasters,서울특별시 광진구 능동로3다길 1,https://maps.google.com/?cid=12553343358206909120&g_mp=Cidnb29nbGUubWFwcy5wbGFjZXMudjEuUGxhY2VzLlNlYXJjaFRleHQQAhgEIAA,37.533730999999996,127.0653107,0.85,6.0,1.1
F9rUrL64W8Qu,안녕우디,경기도 수원시 장안구 경수대로983번길 8,37.3046317,127.0033197,75,matched,ChIJi4d1QbtdezURjJ6i3sCYll0,안녕우디,경기도 수원시 장안구 경수대로983번길 8,https://maps.google.com/?cid=6743745446170238604&g_mp=Cidnb29nbGUubWFwcy5wbGFjZXMudjEuUGxhY2VzLlNlYXJjaFRleHQQAhgEIAA,37.3045963,127.00330559999999,1.0,4.1,1.25
9bJfvsmXMZru,업사이드커피,서울특별시 성동구 연무장13길 3 1층 업사이드,37.5419719,127.0580088,75,matched,ChIJlRjNUlGlfDURcAFd_QJSsKg,업사이드커피,서울특별시 성동구 연무장13길 3,https://maps.google.com/?cid=12155305567067111792&g_mp=Cidnb29nbGUubWFwcy5wbGFjZXMudjEuUGxhY2VzLlNlYXJjaFRleHQQAhgEIAA,37.5419619,127.05791370000001,1.0,8.5,1.25
kj4EE17EIgBy,엘카페 커피로스터스,서울특별시 용산구 후암로 68 B1,37.5519601,126.9771204,75,matched,ChIJhxrWpdmYfDURN6WQXw-L4jw,엘카페커피로스터스 (EL CAFE coffee roasters),서울특별시 용산구 후암로 68,https://maps.google.com/?cid=4387221885156369719&g_mp=Cidnb29nbGUubWFwcy5wbGFjZXMudjEuUGxhY2VzLlNlYXJjaFRleHQQAhgEIAA,37.551955299999996,126.97703430000001,0.85,7.6,1.1
EnQeb5PX4gbI,올댓커피 로스터리,경기도 고양시 일산동구 산두로 167-24 1층,37.671996,126.7825514,75,matched,ChIJj7PD-XCRfDURe0SxJIqR5dQ,올댓커피 로스터리,경기도 고양시 일산동구 산두로 167-24 1 층,https://maps.google.com/?cid=15340827728214574203&g_mp=Cidnb29nbGUubWFwcy5wbGFjZXMudjEuUGxhY2VzLlNlYXJjaFRleHQQAhgEIAA,37.6719997,126.7824969,1.0,4.8,1.25
sukYGwD9lmaa,우디집,서울특별시 강남구 압구정로46길 32 삼일빌딩,37.5265494,127.0360095,75,matched,ChIJ3zxvmAejfDURa9wKtrja0ko,우디집,서울특별시 강남구 압구정로46길 32,https://maps.google.com/?cid=5391612190778907755&g_mp=Cidnb29nbGUubWFwcy5wbGFjZXMudjEuUGxhY2VzLlNlYXJjaFRleHQQAhgEIAA,37.526725,127.03609300000001,1.0,20.9,1.25
Y0Z6kQ1psrYI,이그니토 커피 로스터스,인천광역시 남동구 인주대로604번길 49-15 1층 이그니토 커피로스터스,37.4475734,126.7043838,75,matched,ChIJS9JJZZd7ezURXdajg-5kXXo,이그니토 커피로스터스,인천광역시 남동구 구월동 1152-9,https://maps.google.com/?cid=8817314621034845789&g_mp=Cidnb29nbGUubWFwcy5wbGFjZXMudjEuUGxhY2VzLlNlYXJjaFRleHQQAhgEIAA,37.447570899999995,126.7043966,1.0,1.2,1.25
cqg1ezjJthd1,이디오피아집,강원도 춘천시 이디오피아길 7,37.8737337,127.7112091,75,matched,ChIJoyhrGpHnYjURTJRQCuYSSP4,이디오피아집,강원특별자치도 춘천시 근화동 이디오피아길 7,https://maps.google.com/?cid=18322915863181694028&g_mp=Cidnb29nbGUubWFwcy5wbGFjZXMudjEuUGxhY2VzLlNlYXJjaFRleHQQAhgEIAA,37.8735719,127.7112859,1.0,19.2,1.25
IEqc2QA8hpMr,이월로스터스,서울특별시 송파구 백제고분로45길 14,37.5096759,127.1099678,75,matched,ChIJPRb0OEGlfDURbN-9std_4Gk,이월로스터스 송파점,서울특별시 송파구 송파동 51-7,https://maps.google.com/?cid=7629238333159104364&g_mp=Cidnb29nbGUubWFwcy5wbGFjZXMudjEuUGxhY2VzLlNlYXJjaFRleHQQAhgEIAA,37.5097042,127.1100241,0.85,5.9,1.1
wXtPiMqExjw6,일야커피,서울특별시 마포구 독막로 312 1층 일야커피,37.5434618,126.9472752,75,matched,ChIJoX-ySaSYfDURznQQ103JeUY,일야커피 (ILYA Coffee roastery & shop),서울특별시 마포구 독막로 312,https://maps.google.com/?cid=5078311390994789582&g_mp=Cidnb29nbGUubWFwcy5wbGFjZXMudjEuUGxhY2VzLlNlYXJjaFRleHQQAhgEIAA,37.5434463,126.9472802,0.85,1.8,1.1
YUPfe1fGWXDR,초석로스터스,울산광역시 남구 왕생로72번길 20 2층,35.5400412,129.3330471,75,matched,ChIJK4tWKn7NZzURjPV1i4yCGHI,초석로스터스 삼산,울산광역시 남구 왕생로72번길 20 2층,https://maps.google.com/?cid=8221464659911636364&g_mp=Cidnb29nbGUubWFwcy5wbGFjZXMudjEuUGxhY2VzLlNlYXJjaFRleHQQAhgEIAA,35.540102999999995,129.3329891,0.85,8.6,1.1
RlfOARcWYdBM,카우프 로스터스,서울특별시 마포구 백범로 36-1,37.5515333,126.9371577,75,matched,ChIJLU5645CZfDURRDLLOUdi1dQ,카우프 로스터스,서울특별시 마포구 백범로 36-1,https://maps.google.com/?cid=15336272164131910212&g_mp=Cidnb29nbGUubWFwcy5wbGFjZXMudjEuUGxhY2VzLlNlYXJjaFRleHQQAhgEIAA,37.5514983,126.9371178,1.0,5.2,1.25
zwphhkHzsXPW,카페 산타로사,전라북도 군산시 한밭로 76-12 산타로사,35.9559668,126.6984586,75,matched,ChIJjy8_Vd5bcDUR66ai5EL9CiI,산타로사,전북특별자치도 군산시 나운3동 한밭로 76-12 KR,https://maps.google.com/?cid=2453051410802190059&g_mp=Cidnb29nbGUubWFwcy5wbGFjZXMudjEuUGxhY2VzLlNlYXJjaFRleHQQAhgEIAA,35.9559443,126.69848770000002,1.0,3.6,1.25
2R0HuGkmwEvB,카페 앙떼띠,"서울특별시 송파구 올림픽로 342 아울타워 1,2층",37.5157506,127.1083213,75,matched,ChIJV-f9vnOlfDUR2Gard9C_jO0,앙떼띠 커피로스터리,서울특별시 송파구 올림픽로 342,https://maps.google.com/?cid=17117267185810237144&g_mp=Cidnb29nbGUubWFwcy5wbGFjZXMudjEuUGxhY2VzLlNlYXJjaFRleHQQAhgEIAA,37.515674600000004,127.1082751,1.0,9.4,1.25
ei09wBLQHSr6,커넥츠커피,"서울특별시 마포구 성지길 60 1층, 커넥츠커피 합정점",37.5461158,126.9125972,75,matched,ChIJz-OdDNWYfDURDfcmV_JzerE,커넥츠커피 합정점,서울특별시 마포구 성지길 60,https://maps.google.com/?cid=12788661576553395981&g_mp=Cidnb29nbGUubWFwcy5wbGFjZXMudjEuUGxhY2VzLlNlYXJjaFRleHQQAhgEIAA,37.5460703,126.9125557,0.85,6.2,1.1
dVY718C89Zxt,커피 스니퍼,서울특별시 중구 세종대로16길 27 남양빌딩 1층 102호,37.5633743,126.9784195,75,matched,ChIJGXtXqXSjfDURdEkT62Gs26I,커피스니퍼 서울 시청점 (Koffee Sniffer Seoul City Hall),서울특별시 중구 세종대로16길 27 남양빌딩 1층,https://maps.google.com/?cid=11735162790599674228&g_mp=Cidnb29nbGUubWFwcy5wbGFjZXMudjEuUGxhY2VzLlNlYXJjaFRleHQQAhgEIAA,37.5633297,126.97838229999999,0.85,5.9,1.1
5aXgJfKzVhDv,커피단월,충청북도 충주시 충원대로 55,36.9424753,127.9121255,75,matched,ChIJ0XkyOmSJZDUR32ei8t7wN6A,커피단월,충청북도 충주시 단월동 130-13,https://maps.google.com/?cid=11544961010131691487&g_mp=Cidnb29nbGUubWFwcy5wbGFjZXMudjEuUGxhY2VzLlNlYXJjaFRleHQQAhgEIAA,36.9425381,127.912205,1.0,9.9,1.25
DqA3VAL6iyU6,커피스니퍼,서울특별시 강남구 테헤란로 231 센터필드 지상 2층 E207호 커피스니퍼,37.5034691,127.0416825,75,matched,ChIJmZqcX1mlfDUReDEFXNH4sjE,커피스니퍼 역삼 센터필드점 (Koffee Sniffer Yeoksam Centerfield),서울특별시 강남구 테헤란로 231 센터필드 지상 2층 E207호,https://maps.google.com/?cid=3581198231788663160&g_mp=Cidnb29nbGUubWFwcy5wbGFjZXMudjEuUGxhY2VzLlNlYXJjaFRleHQQAhgEIAA,37.5030426,127.04158799999998,0.85,48.2,1.1
tLl6rXBwKCAC,클럽 에스프레소,서울특별시 종로구 창의문로 132,37.5926836,126.9659447,75,matched,ChIJP4ijwbGifDUR1CEL2t4zaew,클럽에스프레소,서울특별시 종로구 부암동 창의문로 132,https://maps.google.com/?cid=17035204097739530708&g_mp=Cidnb29nbGUubWFwcy5wbGFjZXMudjEuUGxhY2VzLlNlYXJjaFRleHQQAhgEIAA,37.592670999999996,126.9659464,1.0,1.4,1.25
qxU9XfqkcESf,투드 커피,대전광역시 서구 상보안길 105 투드커피,36.2764977,127.3478491,75,matched,ChIJK6ORyMZNZTURNoacYKqZKoA,투드커피,대전광역시 서구 괴곡동 상보안길 105,https://maps.google.com/?cid=9235362942920984118&g_mp=Cidnb29nbGUubWFwcy5wbGFjZXMudjEuUGxhY2VzLlNlYXJjaFRleHQQAhgEIAA,36.27646,127.3477925,1.0,6.6,1.25
E91VdJQG1tNM,프라이빗 플레이스,서울특별시 광진구 능동로 280 1층 프라이빗 플레이스,37.5548084,127.0785197,75,maybe,ChIJf6MM4NClfDURG5GecIUn9-k,Private Place,서울특별시 광진구 능동로 280 Private Place 1층,https://maps.google.com/?cid=16858987184158314779&g_mp=Cidnb29nbGUubWFwcy5wbGFjZXMudjEuUGxhY2VzLlNlYXJjaFRleHQQAhgEIAA,37.5548485,127.0784992,0.0,4.8,0.25
I3SzYaUmSZG4,9로평상,서울특별시 구로구 서해안로 2134 (항동),37.4821597,126.8260772,74,matched,ChIJ5Um-7p9jezUR0OcvRDQvAfc,9로평상,서울특별시 구로구 서해안로 2134,https://maps.google.com/?cid=17798559103873705936&g_mp=Cidnb29nbGUubWFwcy5wbGFjZXMudjEuUGxhY2VzLlNlYXJjaFRleHQQAhgEIAA,37.4820832,126.82591740000001,1.0,16.5,1.25
WQqMu4tDYBRn,Perception,서울특별시 마포구 어울마당로1길 16 1층,37.5466632,126.9184928,74,maybe,ChIJi7CiGmmZfDUROfKS29Xgl3I,퍼셉션,서울특별시 마포구 합정동 어울마당로1길 16,https://maps.google.com/?cid=8257315650923590201&g_mp=Cidnb29nbGUubWFwcy5wbGFjZXMudjEuUGxhY2VzLlNlYXJjaFRleHQQAhgEIAA,37.5466607,126.91847399999999,0.0,1.7,0.25
3bOZViD0FKd5,가배향주,경상북도 경주시 포석로 1063,35.8360542,129.209518,74,matched,ChIJxQ_-fFlOZjURgFPJla-OlGA,가배향주,경상북도 경주시 황남동 303 9번지,https://maps.google.com/?cid=6959344208977679232&g_mp=Cidnb29nbGUubWFwcy5wbGFjZXMudjEuUGxhY2VzLlNlYXJjaFRleHQQAhgEIAA,35.8360172,129.2094741,1.0,5.7,1.25
GqyhEjZOHofK,고로커피,서울특별시 관악구 남부순환로231길 33,37.4807574,126.9579439,74,matched,ChIJe6tql-2hfDURPXpGlUgnXQk,고로커피로스터스,서울특별시 관악구 남부순환로231길 33,https://maps.google.com/?cid=674738711870995005&g_mp=Cidnb29nbGUubWFwcy5wbGFjZXMudjEuUGxhY2VzLlNlYXJjaFRleHQQAhgEIAA,37.4807446,126.9579358,1.0,1.6,1.25
t9oof3W68QVT,고블린,경기도 이천시 신둔면 서이천로 901 GOBLIN,37.2983648,127.4014627,74,matched,ChIJ1bbRKVZXYzURMKz9M9dbF3A,고블린,경기도 이천시 신둔면 서이천로 901,https://maps.google.com/?cid=8077025436560632880&g_mp=Cidnb29nbGUubWFwcy5wbGFjZXMudjEuUGxhY2VzLlNlYXJjaFRleHQQAhgEIAA,37.2983443,127.40141279999999,1.0,5.0,1.25
SspsBRRCQiFm,구성커피 로스터스,경기도 용인시 기흥구 이현로29번길 81-1 구성커피 로스터스,37.3013322,127.1006856,74,matched,ChIJ-aNGiiJbezUR5Wm8sPBNKIk,구성커피 로스터스,경기도 용인시 기흥구 이현로29번길 81-1 구성커피 로스터스,https://maps.google.com/?cid=9883235078417181157&g_mp=Cidnb29nbGUubWFwcy5wbGFjZXMudjEuUGxhY2VzLlNlYXJjaFRleHQQAhgEIAA,37.3009858,127.10076099999999,1.0,39.1,1.25
IMW5k2WoInd8,낙랑파라,서울특별시 마포구 연희로1길 21,37.5599945,126.9253574,74,matched,ChIJQ-txpumYfDURujXFmsox57Q,낙랑파라,서울특별시 마포구 연희로1길 21,https://maps.google.com/?cid=13035442392696960442&g_mp=Cidnb29nbGUubWFwcy5wbGFjZXMudjEuUGxhY2VzLlNlYXJjaFRleHQQAhgEIAA,37.5599406,126.9253274,1.0,6.6,1.25
cZkLCvJYFBkJ,디폴트 밸류,서울특별시 서대문구 성산로 333 1층(대로변),37.5661573,126.9274258,74,matched,ChIJAWv2fK2ZfDURdLUPkzMPZcc,디폴트밸류,서울특별시 서대문구 성산로 333,https://maps.google.com/?cid=14367906900380464500&g_mp=Cidnb29nbGUubWFwcy5wbGFjZXMudjEuUGxhY2VzLlNlYXJjaFRleHQQAhgEIAA,37.566178199999996,126.9273571,1.0,6.5,1.25
TmyRBC4IoQ7I,롱브릭스,경기도 이천시 신둔면 서이천로 925 1층,37.2988522,127.4039808,74,matched,ChIJ154ttytXYzURRAmPEkTrjZg,롱브릭스,경기도 이천시 신둔면 서이천로 925,https://maps.google.com/?cid=10992700943082916164&g_mp=Cidnb29nbGUubWFwcy5wbGFjZXMudjEuUGxhY2VzLlNlYXJjaFRleHQQAhgEIAA,37.2988388,127.4039646,1.0,2.1,1.25
Qjne6ZdoAlRU,르와조,서울특별시 강남구 논현로95길 10 1층,37.5024119,127.0351426,74,matched,ChIJA9o8VrajfDURFeEVZkZAQyA,르와조 역삼,서울특별시 강남구 논현로95길 10,https://maps.google.com/?cid=2324772503757906197&g_mp=Cidnb29nbGUubWFwcy5wbGFjZXMudjEuUGxhY2VzLlNlYXJjaFRleHQQAhgEIAA,37.5023638,127.03505949999997,0.85,9.1,1.1
2wQoXqMC4kOx,묵묵로스터리커피,"부산광역시 부산진구 서전로58번길 104 1F, 2F",35.153199,129.0660651,74,matched,ChIJHcZQxjrraDURASnUSDYwb9c,묵묵-로스팅웨이,부산광역시 부산진구 전포동 346-24,https://maps.google.com/?cid=15523679450277619969&g_mp=Cidnb29nbGUubWFwcy5wbGFjZXMudjEuUGxhY2VzLlNlYXJjaFRleHQQAhgEIAA,35.1531673,129.066005,0.85,6.5,1.1
7A0WaryjSKM3,블랙업커피,부산광역시 해운대구 중동2로 16 해운대온천센터,35.1633409,129.16435,74,matched,ChIJxa4u0WeNaDURAjyoVvz_pBw,블랙업커피 해운대점,부산광역시 해운대구 중동2로 16 온천센터 1층,https://maps.google.com/?cid=2064055988493237250&g_mp=Cidnb29nbGUubWFwcy5wbGFjZXMudjEuUGxhY2VzLlNlYXJjaFRleHQQAhgEIAA,35.1633954,129.1645474,0.85,18.9,1.1
o5gxrwFtOpXR,블루마일스커피로스터즈,서울특별시 노원구 동일로190길 65 2층,37.6265601,127.0766479,74,matched,ChIJ4aERe3-7fDURe6APu2Gr3EU,블루마일스 커피로스터즈,서울특별시 노원구 동일로190길 65 2층,https://maps.google.com/?cid=5034086919731912827&g_mp=Cidnb29nbGUubWFwcy5wbGFjZXMudjEuUGxhY2VzLlNlYXJjaFRleHQQAhgEIAA,37.6265164,127.07662289999999,1.0,5.3,1.25
ZBZfjZNB4zvF,사사커피LAB,서울특별시 구로구 경인로 620-1 1층 사사커피랩,37.5063614,126.8848094,74,maybe,ChIJCVUlEACffDURTcEs34aHL5s,사사커피랩에스프레소바,서울특별시 구로구 신도림동 426 30번지 1층,https://maps.google.com/?cid=11182305413123850573&g_mp=Cidnb29nbGUubWFwcy5wbGFjZXMudjEuUGxhY2VzLlNlYXJjaFRleHQQAhgEIAA,37.5063317,126.88488930000001,0.091,7.8,0.341
BPQwmUdNZyGA,샌드스톤커피랩,서울특별시 마포구 성미산로23안길 21 1층,37.5661351,126.9209405,74,matched,ChIJF8uYZACZfDURsVj2WLy2-i8,샌드스톤커피랩,서울특별시 마포구 성미산로23안길 21 1 층,https://maps.google.com/?cid=3457276584022923441&g_mp=Cidnb29nbGUubWFwcy5wbGFjZXMudjEuUGxhY2VzLlNlYXJjaFRleHQQAhgEIAA,37.5661111,126.9209337,1.0,2.7,1.25
3XG5FPca52mN,숏컷 로스터스,경기도 고양시 일산동구 성석로 218-16 숏컷로스터스,37.6961801,126.798871,74,matched,ChIJd_LECO-RfDUR1-6OZM_SbPo,숏컷 로스터스,경기도 고양시 일산동구 성석로 218-16,https://maps.google.com/?cid=18045029595153886935&g_mp=Cidnb29nbGUubWFwcy5wbGFjZXMudjEuUGxhY2VzLlNlYXJjaFRleHQQAhgEIAA,37.6966655,126.79870199999998,1.0,56.0,1.25
QiKohM3B7jYp,시그니처R,서울특별시 종로구 돈화문로11다길 27 시그니처 R,37.5734239,126.9904071,74,matched,ChIJxZE1vlijfDURQ8V5ir167W8,시그니처알,서울특별시 종로구 돈화문로11길 27,https://maps.google.com/?cid=8065237462181070147&g_mp=Cidnb29nbGUubWFwcy5wbGFjZXMudjEuUGxhY2VzLlNlYXJjaFRleHQQAhgEIAA,37.5724687,126.98988489999999,0.6,115.8,0.75
d7LZ76LN9VHe,심야카페,경기도 수원시 영통구 동수원로537번길 23 1층 심야카페,37.2743263,127.0476812,74,matched,ChIJRfnDcgBbezURN1xDGAzqGl4,심야카페 원천점,수원시 영통구 동수원로537번길 23,https://maps.google.com/?cid=6780989526627277879&g_mp=Cidnb29nbGUubWFwcy5wbGFjZXMudjEuUGxhY2VzLlNlYXJjaFRleHQQAhgEIAA,37.2742874,127.0476966,0.85,4.5,1.1
rvJ5aORikHau,오로스트커피,서울특별시 강남구 강남대로62길 21,37.4907183,127.0332191,74,maybe,ChIJuU1OK5qhfDURig6J9yJeAec,Oroast Coffee,서울특별시 강남구 역삼동 강남대로62길 21,https://maps.google.com/?cid=16645689202012917386&g_mp=Cidnb29nbGUubWFwcy5wbGFjZXMudjEuUGxhY2VzLlNlYXJjaFRleHQQAhgEIAA,37.4907083,127.03325249999999,0.0,3.1,0.25
IQFCUhFgbVR1,원두서점,서울특별시 금천구 서부샛길 578 1층(가산동),37.4781199,126.8769793,74,matched,ChIJ3Uym1F-ffDUR6sLVYXVJurM,원두서점,서울특별시 금천구 서부샛길 578,https://maps.google.com/?cid=12950744446958682858&g_mp=Cidnb29nbGUubWFwcy5wbGFjZXMudjEuUGxhY2VzLlNlYXJjaFRleHQQAhgEIAA,37.478101699999996,126.8769652,1.0,2.4,1.25
9anmIz9zG65G,잔상,서울특별시 서초구 언남1길 3 1층,37.4721358,127.0407532,74,matched,ChIJLegx6vOnfDUR5nfSu5ubAUc,잔상,서울특별시 서초구 양재동 언남1길 3,https://maps.google.com/?cid=5116541744842962918&g_mp=Cidnb29nbGUubWFwcy5wbGFjZXMudjEuUGxhY2VzLlNlYXJjaFRleHQQAhgEIAA,37.4721786,127.040712,1.0,6.0,1.25
j8vtaognyO7P,전광수 커피하우스,서울특별시 중구 명동길 74 명동성당 카톨릭회관 신관 B102,37.5640393,126.9863717,74,matched,ChIJ02HPrPqifDUR4RUD2_TGxBs,전광수커피하우스 명동성당점,"B102, 74 명동길 중구 서울특별시",https://maps.google.com/?cid=2000942889408075233&g_mp=Cidnb29nbGUubWFwcy5wbGFjZXMudjEuUGxhY2VzLlNlYXJjaFRleHQQAhgEIAA,37.564104,126.9867484,0.85,34.0,1.1
xRriZtGjF1Ey,카페 녹던,경기도 군포시 산본로323번길 16-7 3층 카페녹던,37.3592613,126.9318539,74,matched,ChIJg4Av-4RnezUR1k7pypkj3UA,카페녹던,경기도 군포시 산본로323번길 16-7 3층,https://maps.google.com/?cid=4673931131721699030&g_mp=Cidnb29nbGUubWFwcy5wbGFjZXMudjEuUGxhY2VzLlNlYXJjaFRleHQQAhgEIAA,37.359272600000004,126.93181249999999,1.0,3.9,1.25
fRjZrceI2C1O,카페 리버티 더 테이블,경기도 군포시 산본로323번길 20-33 2층,37.3598547,126.9307194,74,matched,ChIJV7N6xJJnezURKHLeOGhhbec,리버티 더 테이블(Liberty the Table),경기도 군포시 산본로323번길 20-33 2층,https://maps.google.com/?cid=16676092095481410088&g_mp=Cidnb29nbGUubWFwcy5wbGFjZXMudjEuUGxhY2VzLlNlYXJjaFRleHQQAhgEIAA,37.3598178,126.9306948,0.85,4.6,1.1
IQKfOObp3DQy,커피가게 디터틀,서울특별시 종로구 대학로9가길 14 디터틀,37.5815258,126.9996267,74,matched,ChIJKQa4qde8fDURfMWhRkVuS2o,커피가게 디터틀,서울특별시 종로구 대학로9가길 14,https://maps.google.com/?cid=7659336835090466172&g_mp=Cidnb29nbGUubWFwcy5wbGFjZXMudjEuUGxhY2VzLlNlYXJjaFRleHQQAhgEIAA,37.5815002,126.9996446,1.0,3.3,1.25
PIm1x9k9MMpw,커피냅 로스터스,제주 제주시 애월읍 하귀2길 45 1층,33.4891728,126.4137082,74,matched,ChIJOTUFDufxDDURIzUe4xAXT34,커피냅로스터스 제주,"제주특별자치도 제주시 특별자치도, 애월읍 하귀2길 45",https://maps.google.com/?cid=9101518733236385059&g_mp=Cidnb29nbGUubWFwcy5wbGFjZXMudjEuUGxhY2VzLlNlYXJjaFRleHQQAhgEIAA,33.489194399999995,126.41384190000001,0.85,12.6,1.1
MR6WbN8iElHK,커피냅로스터스,경기도 평택시 진위면 봉남2길 35,37.0988237,127.0901292,74,matched,ChIJyY0MwmQ4ezURiUL0ZXtAog0,커피냅로스터스 HQ (COFFEE NAP ROASTERS HQ),경기도 평택시 진위면 봉남2길 35,https://maps.google.com/?cid=982418567455851145&g_mp=Cidnb29nbGUubWFwcy5wbGFjZXMudjEuUGxhY2VzLlNlYXJjaFRleHQQAhgEIAA,37.0988338,127.09007469999997,0.85,5.0,1.1
kULnL5DrLPcS,커피리브레,서울특별시 마포구 성미산로32길 20-5,37.5636887,126.9237657,74,matched,ChIJK05lru6YfDUR22H8d3bQr58,커피 리브레 연남점 Coffee Libre Yeonnam,서울특별시 마포구 성미산로32길 20-5,https://maps.google.com/?cid=11506644780192653787&g_mp=Cidnb29nbGUubWFwcy5wbGFjZXMudjEuUGxhY2VzLlNlYXJjaFRleHQQAhgEIAA,37.5636473,126.92373740000001,0.85,5.2,1.1
lAJYzEoUyfSC,커피볶는곰,서울특별시 강남구 선릉로68길 12 1층 곰커피로스터스,37.4990925,127.0528341,74,matched,ChIJRVV4EhukfDUR02jMqBzRnME,커피볶는곰,서울특별시 강남구 선릉로68길 12,https://maps.google.com/?cid=13951255666708211923&g_mp=Cidnb29nbGUubWFwcy5wbGFjZXMudjEuUGxhY2VzLlNlYXJjaFRleHQQAhgEIAA,37.4989888,127.0527697,1.0,12.9,1.25
n5CBzdhXPPyR,커피스트,서울특별시 종로구 경희궁길 39,37.5728784,126.9694213,74,matched,ChIJmYfVaJGifDURwaymP6IZLzA,커피스트,서울특별시 종로구 경희궁길 39,https://maps.google.com/?cid=3472022022369225921&g_mp=Cidnb29nbGUubWFwcy5wbGFjZXMudjEuUGxhY2VzLlNlYXJjaFRleHQQAhgEIAA,37.5727926,126.96941939999999,1.0,9.5,1.25
iypaVrwBWo3F,커피예찬,경기도 안양시 동안구 평촌대로217번길 45 평촌뉴코아주차빌딩 115호,37.3898312,126.953661,74,matched,ChIJYx6cP6hgezURzF3bHsxGXII,커피예찬,경기도 안양시 동안구 평촌대로217번길 45 평촌뉴코아주차빌딩 115호,https://maps.google.com/?cid=9393460765292977612&g_mp=Cidnb29nbGUubWFwcy5wbGFjZXMudjEuUGxhY2VzLlNlYXJjaFRleHQQAhgEIAA,37.3900004,126.9534213,1.0,28.3,1.25
NEYqYdFAGbb9,커피익스체인지,서울특별시 성동구 마장로 270 인더매스 마장 (구 경동창고),37.5652859,127.039894,74,matched,ChIJQQ5E2H2jfDURITAy-vPI1AY,커피익스체인지(왕십리),서울특별시 성동구 마장동 마장로 270,https://maps.google.com/?cid=492239209490427937&g_mp=Cidnb29nbGUubWFwcy5wbGFjZXMudjEuUGxhY2VzLlNlYXJjaFRleHQQAhgEIAA,37.565381099999996,127.03982250000001,0.85,12.3,1.1
pAIzx1K62rbJ,커피품격,서울특별시 용산구 한강대로48길 17 1층 커피품격,37.5314696,126.9715012,74,matched,ChIJgW2iQziifDURP5RdETx-rgY,커피품격,서울특별시 용산구 한강대로48길 17 1층,https://maps.google.com/?cid=481461006629704767&g_mp=Cidnb29nbGUubWFwcy5wbGFjZXMudjEuUGxhY2VzLlNlYXJjaFRleHQQAhgEIAA,37.5314355,126.97148829999999,1.0,4.0,1.25
9ed5omPP9v7d,컴오프 로스터스,서울특별시 성동구 왕십리로6길 7 1층,37.546048,127.0456832,74,matched,ChIJM_X6kn6lfDURH18aWHzZmro,컴오프로스터스,서울특별시 성동구 왕십리로6길 7,https://maps.google.com/?cid=13446298765545332511&g_mp=Cidnb29nbGUubWFwcy5wbGFjZXMudjEuUGxhY2VzLlNlYXJjaFRleHQQAhgEIAA,37.5460403,127.0456246,1.0,5.2,1.25
zvIprKsnbg97,코페아 플래그쉽 스토어,경기도 용인시 처인구 모현읍 초부로 192,37.313827,127.262213,74,matched,ChIJq61gI71VezURDjJFzN82kr4,코페아 플래그쉽 스토어,경기도 용인시 모현읍 초부로 192,https://maps.google.com/?cid=13732098548638757390&g_mp=Cidnb29nbGUubWFwcy5wbGFjZXMudjEuUGxhY2VzLlNlYXJjaFRleHQQAhgEIAA,37.313794,127.2622852,1.0,7.4,1.25
yWjS4Ncm0EcV,콤비커피로스터스,인천광역시 남동구 인주대로522번길 59-10 콤비커피로스터스,37.448502,126.6959251,74,matched,ChIJH3oBedh7ezUR0m_gT7LmJ6g,콤비커피로스터스,인천광역시 남동구 구월동 인주대로522번길 59-10,https://maps.google.com/?cid=12116906975982284754&g_mp=Cidnb29nbGUubWFwcy5wbGFjZXMudjEuUGxhY2VzLlNlYXJjaFRleHQQAhgEIAA,37.4484515,126.69590199999999,1.0,6.0,1.25
HSqUeR3dj9cL,크로프트커피,강원도 춘천시 가연길16번길 6,37.8779024,127.7223639,74,matched,ChIJNYStQXjmYjURVZFE-MizC8M,크로프트 커피 로스터스,강원특별자치도 춘천시 낙원동 가연길16번길 6,https://maps.google.com/?cid=14054524737879839061&g_mp=Cidnb29nbGUubWFwcy5wbGFjZXMudjEuUGxhY2VzLlNlYXJjaFRleHQQAhgEIAA,37.8778716,127.72232240000001,1.0,5.0,1.25
m2G4Xhy8tUnF,텐나인,경기도 고양시 덕양구 행주산성로120번길 29 2층 카페 텐나인,37.6010627,126.8177896,74,matched,ChIJ394v57-bfDURzInohYwCWPc,텐나인,경기도 고양시 덕양구 행주산성로120번길 29,https://maps.google.com/?cid=17822998327884024268&g_mp=Cidnb29nbGUubWFwcy5wbGFjZXMudjEuUGxhY2VzLlNlYXJjaFRleHQQAhgEIAA,37.6010765,126.81780230000001,1.0,1.9,1.25
IttURUNEwPiw,펠릿로스터리,"전라북도 전주시 덕진구 용소로 70 1F, PELLET",35.8633576,127.1157931,74,maybe,ChIJIy1CLAA9cDURDINgcrkU2zo,Roastery Pellet,전북특별자치도 전주시 특별자치도 덕진구 용소로 70,https://maps.google.com/?cid=4241006260819886860&g_mp=Cidnb29nbGUubWFwcy5wbGFjZXMudjEuUGxhY2VzLlNlYXJjaFRleHQQAhgEIAA,35.863393099999996,127.11583439999998,0.0,5.4,0.25
my0wwIcFrPTD,프렙커피로스터스,부산광역시 기장군 정관읍 곰내길 634,35.3150231,129.1720117,74,not_found,ChIJI0pZ3TiMaDURnx1cAVLQqKg,제이엠커피로스터스 부산본점,부산광역시 기장군 기장읍 대변3길 8,https://maps.google.com/?cid=12153192645087993247&g_mp=Cidnb29nbGUubWFwcy5wbGFjZXMudjEuUGxhY2VzLlNlYXJjaFRleHQQAhgEIAA,35.2228426,129.2316194,0.0,11590.8,-0.4
dHqu9E1kFujg,허씨커피,강원도 강릉시 창해로 285,37.7895959,128.9225648,74,matched,ChIJb56KrOTnYTURKRnXgUdAx3M,허씨커피,강원특별자치도 강릉시 창해로 285,https://maps.google.com/?cid=8342707510592346409&g_mp=Cidnb29nbGUubWFwcy5wbGFjZXMudjEuUGxhY2VzLlNlYXJjaFRleHQQAhgEIAA,37.7895898,128.922564,1.0,0.7,1.25
pyO3BShnnzzK,헤르츠커피로스팅,서울특별시 광진구 능동로 334,37.5593217,127.0809013,74,matched,ChIJS_USWfy7fDURyp6Br-wfjww,헤르츠커피로스팅,서울특별시 광진구 중곡제2동 161-27 헤르츠커피로스팅 1층,https://maps.google.com/?cid=904977151542009546&g_mp=Cidnb29nbGUubWFwcy5wbGFjZXMudjEuUGxhY2VzLlNlYXJjaFRleHQQAhgEIAA,37.559196,127.08073759999998,1.0,20.1,1.25
rZvb9UCzbumh,나이브브류어스,부산광역시 부산진구 전포대로186번길 37,35.1531412,129.0675896,73,matched,ChIJC79bYpTraDURmF0l0TonIbw,나이브브류어스,부산광역시 부산진구 전포대로186번길 37,https://maps.google.com/?cid=13556159486932376984&g_mp=Cidnb29nbGUubWFwcy5wbGFjZXMudjEuUGxhY2VzLlNlYXJjaFRleHQQAhgEIAA,35.1531466,129.0675958,1.0,0.8,1.25
OSYRSTueQsxr,노부스테라,부산광역시 해운대구 수영강변대로 464 NOVUS TERRA 노부스테라,35.1995443,129.1166364,73,matched,ChIJxznWurKTaDURaz9gI9TDyfM,노부스테라,부산광역시 해운대구 반여동 1470-75,https://maps.google.com/?cid=17566787137429323627&g_mp=Cidnb29nbGUubWFwcy5wbGFjZXMudjEuUGxhY2VzLlNlYXJjaFRleHQQAhgEIAA,35.1994823,129.1167513,1.0,12.5,1.25
U4ybjcszRnyw,다크에디션커피,서울특별시 서대문구 연희로11마길 12 1층,37.5690038,126.928015,73,matched,ChIJo3e5BvOZfDURoPsYaUEKeSc,DARK EDITION COFFEE 다크에디션커피,서울특별시 서대문구 연희로11마길 12,https://maps.google.com/?cid=2844315915713575840&g_mp=Cidnb29nbGUubWFwcy5wbGFjZXMudjEuUGxhY2VzLlNlYXJjaFRleHQQAhgEIAA,37.5690016,126.92800039999999,0.85,1.3,1.1
uEzYzMoQ465o,대림커피,서울특별시 은평구 연서로29길 19 2층3층,37.6192318,126.9181457,73,matched,ChIJsZKQ64aXfDURPH_Dpu8nRFk,대림커피,서울특별시 은평구 갈현동 453 1번지 금화빌딩 2동 -3층,https://maps.google.com/?cid=6432310078040407868&g_mp=Cidnb29nbGUubWFwcy5wbGFjZXMudjEuUGxhY2VzLlNlYXJjaFRleHQQAhgEIAA,37.6191767,126.91810699999999,1.0,7.0,1.25
DYy7aLKHnZPh,더페이머스램,서울특별시 마포구 월드컵로14길 13,37.5561436,126.9112329,73,matched,ChIJCTXZJN2YfDURmXXOeoAS05o,더페이머스램,서울특별시 마포구 서교동 월드컵로14길 13 초록문 2층,https://maps.google.com/?cid=11156281044952315289&g_mp=Cidnb29nbGUubWFwcy5wbGFjZXMudjEuUGxhY2VzLlNlYXJjaFRleHQQAhgEIAA,37.5561012,126.9112216,1.0,4.8,1.25
3wrPnl8CF75g,드스텔라 커피,경상남도 통영시 운하1길 65 DESTELLARCOFFEE,34.8331204,128.4112384,73,matched,ChIJodkjnFDHbjURYwhw0ASXrVg,드스텔라커피,경상남도 통영시 미수동 1-1번지 KR,https://maps.google.com/?cid=6389929493241268323&g_mp=Cidnb29nbGUubWFwcy5wbGFjZXMudjEuUGxhY2VzLlNlYXJjaFRleHQQAhgEIAA,34.833210799999996,128.41112790000003,1.0,14.2,1.25
G04XUxneLKb8,라이크라이프 로스터리,광주광역시 서구 화정로 256-1 2층,35.147612,126.8848463,73,matched,ChIJ88jqPj-LcTURxkXB_TqRQu8,라이크라이프 로스터리,광주광역시 서구 화정동 724-41 2층,https://maps.google.com/?cid=17240502006079112646&g_mp=Cidnb29nbGUubWFwcy5wbGFjZXMudjEuUGxhY2VzLlNlYXJjaFRleHQQAhgEIAA,35.147612099999996,126.8848652,1.0,1.7,1.25
KC7Xc2yMH5ta,르와조,서울특별시 강서구 공항대로 237 에이스타워 120호,37.5595688,126.833955,73,matched,ChIJ3_GMktWdfDURJqck-S0bYIA,르와조,서울특별시 강서구 마곡동 797 에이스타워 120호,https://maps.google.com/?cid=9250423518886405926&g_mp=Cidnb29nbGUubWFwcy5wbGFjZXMudjEuUGxhY2VzLlNlYXJjaFRleHQQAhgEIAA,37.5594769,126.8338682,1.0,12.8,1.25
LJbPV40sFb82,리쇼커피로스터스,서울특별시 중구 소월로2길 30 1층 (110호) 리쇼커피로스터스,37.5537283,126.9757758,73,matched,ChIJm-3fWQCjfDUR-iJkf_pOS_k,리쇼커피로스터스,서울특별시 중구 소월로2길 30 1 층 110 호,https://maps.google.com/?cid=17963538376483414778&g_mp=Cidnb29nbGUubWFwcy5wbGFjZXMudjEuUGxhY2VzLlNlYXJjaFRleHQQAhgEIAA,37.553832199999995,126.97579010000001,1.0,11.6,1.25
cnlHOFqYSAXS,메이븐커피로스터스,서울특별시 마포구 성암로13길 10 메이븐커피로스터스,37.5775584,126.8965592,73,matched,ChIJKaiqSlGZfDURN8BTfcyNTyA,메이븐 커피,서울특별시 마포구 상암동 1457,https://maps.google.com/?cid=2328235441789321271&g_mp=Cidnb29nbGUubWFwcy5wbGFjZXMudjEuUGxhY2VzLlNlYXJjaFRleHQQAhgEIAA,37.577484,126.8965691,1.0,8.3,1.25
hRqDaul74JIS,무우수 커피 로스터스,제주특별자치도 제주시 조천읍 조천11길 22-2 1F,33.5377828,126.638346,73,matched,ChIJyyQHQ90dDTURNv7TEx0qAo4,무우수 커피 로스터스 조천점,제주특별자치도 제주시 특별자치도 조천읍 조천11길 22-2,https://maps.google.com/?cid=10232787607714266678&g_mp=Cidnb29nbGUubWFwcy5wbGFjZXMudjEuUGxhY2VzLlNlYXJjaFRleHQQAhgEIAA,33.5378198,126.6384827,0.85,13.3,1.1
hMxLqH4IUGKb,버들로스터리,부산광역시 금정구 수림로61번길 53 A동 2호,35.2375562,129.0854264,73,matched,ChIJ-b-pQ--TaDURdUfx-Fff5Q0,버들로스터리,부산광역시 광역시 수림로61번길 53,https://maps.google.com/?cid=1001452061091514229&g_mp=Cidnb29nbGUubWFwcy5wbGFjZXMudjEuUGxhY2VzLlNlYXJjaFRleHQQAhgEIAA,35.2374832,129.0855827,1.0,16.4,1.25
YfqPLvV1ZmHO,보난자커피,경기도 안양시 동안구 시민대로 180 (호계동),37.3898824,126.9502625,73,matched,ChIJz6gIaddhezURoaB9DwDgCMY,보난자커피 롯데백화점 평촌 Bonanza Coffee Lotte Department Store Pyeongchon,경기도 안양시 동안구 시민대로 180 롯데백화점 평촌점 2F,https://maps.google.com/?cid=14269901710187929761&g_mp=Cidnb29nbGUubWFwcy5wbGFjZXMudjEuUGxhY2VzLlNlYXJjaFRleHQQAhgEIAA,37.3902272,126.950482,0.85,43.0,1.1
7tiQydtt083X,보트커피,서울특별시 동작구 장승배기로 56 지층 카페,37.5027652,126.9400981,73,matched,ChIJI1u5xzeffDURh5VEtPgBt9U,보트커피,서울특별시 동작구 장승배기로 56 지층에 위치,https://maps.google.com/?cid=15399779618504611207&g_mp=Cidnb29nbGUubWFwcy5wbGFjZXMudjEuUGxhY2VzLlNlYXJjaFRleHQQAhgEIAA,37.502679,126.9402035,1.0,13.4,1.25
MJ8rUsXqgvVT,브루클린커피,서울특별시 강서구 강서로52길 16 1층,37.5577767,126.8388761,73,matched,ChIJqdLpmx2dfDURQAfcB8VmnVI,브루클린커피 발산역점,서울특별시 강서구 강서로52길 16,https://maps.google.com/?cid=5953027278880114496&g_mp=Cidnb29nbGUubWFwcy5wbGFjZXMudjEuUGxhY2VzLlNlYXJjaFRleHQQAhgEIAA,37.557683399999995,126.83888629999998,0.85,10.4,1.1
mHksuHx7rOhQ,셀레브르,인천광역시 연수구 아트센터대로 131 202동217호,37.3987929,126.6368293,73,matched,ChIJjawG3T53ezURaPN-Ca8et-4,셀레브르(Celebre),인천광역시 연수구 아트센터대로 131 202동217호,https://maps.google.com/?cid=17201251038892323688&g_mp=Cidnb29nbGUubWFwcy5wbGFjZXMudjEuUGxhY2VzLlNlYXJjaFRleHQQAhgEIAA,37.3987456,126.63678539999998,0.85,6.5,1.1
qQfI6pOHa65S,스프레드,강원도 원주시 원문로 180 삼성철물 윗층,37.3564159,127.9297693,73,not_found,ChIJRS5LaRN1YzURdwIDKjn-7pk,신화철물,대한민국 원주시,https://maps.google.com/?cid=11092082453731541623&g_mp=Cidnb29nbGUubWFwcy5wbGFjZXMudjEuUGxhY2VzLlNlYXJjaFRleHQQAhgEIAA,37.3557498,127.95564960000002,0.0,2288.7,-0.4
mTzwP2nwhD1u,시그니쳐 로스터스,경기도 안양시 동안구 평촌대로127번길 88 1층,37.3809035,126.9590327,73,matched,ChIJm8xQzgBeezURyIaTNbA7tL8,시그니쳐로스터스,경기도 안양시 동안구 평촌대로127번길 88 1층,https://maps.google.com/?cid=13813731585051297480&g_mp=Cidnb29nbGUubWFwcy5wbGFjZXMudjEuUGxhY2VzLlNlYXJjaFRleHQQAhgEIAA,37.3808494,126.9590087,1.0,6.4,1.25
SVOw9ZzuGJH7,시니커피,부산광역시 해운대구 구남로 37 라비드아틀란호텔 102~104호,35.161098,129.1612412,73,matched,ChIJVd1RosONaDURXgjKhzBr5lo,시니컴퍼니,부산광역시 해운대구 구남로 37,https://maps.google.com/?cid=6550040564237731934&g_mp=Cidnb29nbGUubWFwcy5wbGFjZXMudjEuUGxhY2VzLlNlYXJjaFRleHQQAhgEIAA,35.1610456,129.1614329,0.85,18.4,1.1
E9hgMdFWq0tH,언더워터 커피 로스터스,서울특별시 성북구 고려대로6길 48 2층,37.5836195,127.0213735,73,matched,ChIJUxZ8zdK9fDURoUY_Bz-Hhgo,언더워터 커피로스터스,서울특별시 성북구 고려대로 6길 48 2층,https://maps.google.com/?cid=758442292032784033&g_mp=Cidnb29nbGUubWFwcy5wbGFjZXMudjEuUGxhY2VzLlNlYXJjaFRleHQQAhgEIAA,37.5836285,127.0213526,1.0,2.1,1.25
BrNcpklr2dLJ,에이라운드,"서울특별시 종로구 창경궁로 263 1, 2층",37.5848464,127.0003123,73,matched,ChIJUbb0TAKjfDURN4NoCdnSHcY,에이라운드,서울특별시 종로구 창경궁로 263 1 2층,https://maps.google.com/?cid=14275798223441920823&g_mp=Cidnb29nbGUubWFwcy5wbGFjZXMudjEuUGxhY2VzLlNlYXJjaFRleHQQAhgEIAA,37.5848365,127.00028619999999,1.0,2.5,1.25
tan9vDZNCF1S,영앤도터스,서울특별시 마포구 마포대로 156 푸르지오시티 1층 107호,37.5481367,126.9543574,73,matched,ChIJNdEOlZujfDURaJtJ2lPOtJo,영앤도터스,서울특별시 마포구 마포대로 156 푸르지오시티 1층 107호,https://maps.google.com/?cid=11147761837188684648&g_mp=Cidnb29nbGUubWFwcy5wbGFjZXMudjEuUGxhY2VzLlNlYXJjaFRleHQQAhgEIAA,37.5480011,126.9542349,1.0,18.5,1.25
lWAu0C0jATAG,오안커피로스터스,경상남도 창원시 마산회원구 산호천동길 88 2층,35.229391,128.5830366,73,matched,ChIJG0V0WAAzbzURes0wGebYYnw,오안커피로스터스,경상남도 창원시 마산회원구 양덕동 62-33번지 점포전체,https://maps.google.com/?cid=8962964691197414778&g_mp=Cidnb29nbGUubWFwcy5wbGFjZXMudjEuUGxhY2VzLlNlYXJjaFRleHQQAhgEIAA,35.229440499999995,128.5830134,1.0,5.9,1.25
T8Qb1YPblmT9,오프레스트 로스터리,서울특별시 강서구 공항대로59길 64 상가1동 오프레스트 로스터리 카페,37.5541288,126.8636482,73,matched,ChIJc-JOUQidfDUR38JvoAO49YQ,오프레스트 로스터리,서울특별시 강서구 상가1동 공항대로59길 64 오프레스트 로스터리,https://maps.google.com/?cid=9580766108016689887&g_mp=Cidnb29nbGUubWFwcy5wbGFjZXMudjEuUGxhY2VzLlNlYXJjaFRleHQQAhgEIAA,37.5541269,126.8636443,1.0,0.4,1.25
bot7wewyxWQn,올웨이즈어거스트 제작소,서울특별시 마포구 연남로 71 1층 올웨이즈어거스트,37.5653237,126.9191659,73,matched,ChIJYQwk-_aZfDURS3iB0K7ItW0,올웨이즈어거스트 연남,서울특별시 마포구 연남로 71 1 층,https://maps.google.com/?cid=7905445374066784331&g_mp=Cidnb29nbGUubWFwcy5wbGFjZXMudjEuUGxhY2VzLlNlYXJjaFRleHQQAhgEIAA,37.565273999999995,126.91913719999998,0.583,6.1,0.833
ozyQgvzCbU1G,움브리아커피,경기도 양주시 송랑로 33,37.788686,127.0862364,73,matched,ChIJLZ7BZczFfDURAHXRBEPaUO4,움브리아커피,경기도 양주시 만송동 번지 1층 434-2,https://maps.google.com/?cid=17172465360542201088&g_mp=Cidnb29nbGUubWFwcy5wbGFjZXMudjEuUGxhY2VzLlNlYXJjaFRleHQQAhgEIAA,37.7886769,127.0862176,1.0,1.9,1.25
Yp2C56v8vhQp,인터렉티브커피바,서울특별시 마포구 홍익로 13-5 1층,37.5534945,126.9231058,73,matched,ChIJ3VZwg16ZfDURfy0-hktgkPg,인터렉티브커피바,서울특별시 마포구 홍익로 13-5 1,https://maps.google.com/?cid=17910921595543498111&g_mp=Cidnb29nbGUubWFwcy5wbGFjZXMudjEuUGxhY2VzLlNlYXJjaFRleHQQAhgEIAA,37.5534791,126.92309770000001,1.0,1.9,1.25
wW8XWjABmFI3,제레미,제주특별자치도 제주시 애월읍 애월로 106-1,33.464634,126.3185633,73,matched,ChIJgw5hbU30DDURxjaH0qeFoDg,제레미,제주특별자치도 제주시 애월읍 애월로 106-1,https://maps.google.com/?cid=4080408218235778758&g_mp=Cidnb29nbGUubWFwcy5wbGFjZXMudjEuUGxhY2VzLlNlYXJjaFRleHQQAhgEIAA,33.464618,126.31858799999999,1.0,2.9,1.25
CjzfXKPPpY3M,체이스커피,인천광역시 중구 운서로7번길 49 1층,37.4961366,126.5028032,73,matched,ChIJ8X7QXUSRezURrZdUu5xs9Dg,체이스커피,인천광역시 중구 운서로7번길 49,https://maps.google.com/?cid=4104024580854945709&g_mp=Cidnb29nbGUubWFwcy5wbGFjZXMudjEuUGxhY2VzLlNlYXJjaFRleHQQAhgEIAA,37.496139,126.5028115,1.0,0.8,1.25
NGM5OU6jyqb0,카페BDC,경기도 하남시 미사강변동로84번길 20 112호 BDC카페,37.5623629,127.1944098,73,matched,ChIJ6e2RDG2xfDUR6yQFo2TdA6w,카페BDC,경기도 하남시 망월동 1132번지 퀸즈파크 미사1차 1층 112호,https://maps.google.com/?cid=12394994023755228395&g_mp=Cidnb29nbGUubWFwcy5wbGFjZXMudjEuUGxhY2VzLlNlYXJjaFRleHQQAhgEIAA,37.563137,127.192445,1.0,193.4,1.15
7i0ueeKjrbxI,커피루소,경기도 용인시 수지구 성복1로281번길 10 커피루소 수지,37.3239432,127.0543444,73,matched,ChIJQwTVaQBbezURHdoJ1e4zTl8,커피루소 수지점,경기도 용인시 수지구 성복동 788,https://maps.google.com/?cid=6867483582656010781&g_mp=Cidnb29nbGUubWFwcy5wbGFjZXMudjEuUGxhY2VzLlNlYXJjaFRleHQQAhgEIAA,37.3239814,127.05432660000001,0.85,4.5,1.1
mHwbVJSXaiwm,커피별녹색잔,서울특별시 양천구 목동로21길 26,37.525271,126.8608659,73,matched,ChIJVfaGOtOdfDURLRuejib6LBQ,커피별녹색잔,서울특별시 양천구 신정4동 988-14,https://maps.google.com/?cid=1453811823242255149&g_mp=Cidnb29nbGUubWFwcy5wbGFjZXMudjEuUGxhY2VzLlNlYXJjaFRleHQQAhgEIAA,37.5252373,126.8608357,1.0,4.6,1.25
8eJNze5tOyFG,커피업,서울특별시 용산구 청파로 389 1층 커피업,37.5544154,126.968858,73,matched,ChIJyQDi3sWjfDURmxwhdXPhNhY,커피업 Coffee Up,서울특별시 용산구 서계동 220-4,https://maps.google.com/?cid=1600714603579382939&g_mp=Cidnb29nbGUubWFwcy5wbGFjZXMudjEuUGxhY2VzLlNlYXJjaFRleHQQAhgEIAA,37.55438170000001,126.9688297,0.85,4.5,1.1
FwAoZetVqocS,커피투어,서울특별시 종로구 사직로10길 12,37.5753695,126.9702742,73,matched,ChIJFZFWJ5SifDURN_cIgLA3ajQ,커피투어 광화문점,서울특별시 종로구 사직로10길 12,https://maps.google.com/?cid=3776892468705425207&g_mp=Cidnb29nbGUubWFwcy5wbGFjZXMudjEuUGxhY2VzLlNlYXJjaFRleHQQAhgEIAA,37.57539330000001,126.9702392,0.85,4.1,1.1
F3S6FyECxd6f,커피투어,서울특별시 종로구 자하문로 1,37.5763372,126.972312,73,matched,ChIJYY2lpJWifDUR6h_yeoIeQik,커피투어 경복궁점,서울특별시 종로구 자하문로 1,https://maps.google.com/?cid=2972972249775218666&g_mp=Cidnb29nbGUubWFwcy5wbGFjZXMudjEuUGxhY2VzLlNlYXJjaFRleHQQAhgEIAA,37.57628160000001,126.97224870000001,0.85,8.3,1.1
GKLOJV16GsiR,커피해피,경기도 성남시 분당구 서현로494번길 9 1층,37.3694563,127.1469312,73,matched,ChIJMTJHcepXezURdDzT2X6GXrU,커피해피,경기도 성남시 분당구 서현로494번길 9,https://maps.google.com/?cid=13069031048054258804&g_mp=Cidnb29nbGUubWFwcy5wbGFjZXMudjEuUGxhY2VzLlNlYXJjaFRleHQQAhgEIAA,37.3694529,127.1469044,1.0,2.4,1.25
d7Voj18OEAqp,타이니닷,"인천광역시 미추홀구 주승로96번길 1 1, 2층",37.4447648,126.6811146,73,matched,ChIJ6TEPB5Z5ezURA56Ngt7ZvCE,타이니닷(Tiny dot),인천광역시 미추홀구 주승로96번길 1,https://maps.google.com/?cid=2431057448569511427&g_mp=Cidnb29nbGUubWFwcy5wbGFjZXMudjEuUGxhY2VzLlNlYXJjaFRleHQQAhgEIAA,37.4447641,126.68114840000001,0.85,3.0,1.1
crqWN2S6cjkE,타이드,부산광역시 금정구 금정로 56-1 2~4층,35.2296749,129.0864392,73,matched,ChIJOdYX3M6TaDURfCfna3tdedE,카페 타이드 부산대점 TIDE COFFEE ROASTERS,부산광역시 금정구 금정로 56-1 2~4층,https://maps.google.com/?cid=15094198410781599612&g_mp=Cidnb29nbGUubWFwcy5wbGFjZXMudjEuUGxhY2VzLlNlYXJjaFRleHQQAhgEIAA,35.22972,129.08638249999998,0.85,7.2,1.1
9duJggeiwKy5,티에프티커피로스터스,"서울특별시 영등포구 여의대방로67길 11 잡지회관 1층, 2층",37.5197531,126.9302633,73,matched,ChIJ25ED0j-ffDURMn9irnDcVnw,티에프티커피로스터스,서울특별시 영등포구 여의대방로67길 11,https://maps.google.com/?cid=8959590885220319026&g_mp=Cidnb29nbGUubWFwcy5wbGFjZXMudjEuUGxhY2VzLlNlYXJjaFRleHQQAhgEIAA,37.5197844,126.93028429999998,1.0,3.9,1.25
jlIYgOlWB2Zd,파브스커피,서울특별시 은평구 증산로15가길 15 1층 파브스커피,37.5903914,126.9117742,73,matched,ChIJ8bxKkiOZfDURQAiHT_OewaM,파브스 커피 로스터스,서울특별시 은평구 증산로15가길 15,https://maps.google.com/?cid=11799887266535901248&g_mp=Cidnb29nbGUubWFwcy5wbGFjZXMudjEuUGxhY2VzLlNlYXJjaFRleHQQAhgEIAA,37.5903122,126.91172659999998,1.0,9.8,1.25
bNJ6onezZcRb,하스트커피,경기도 안양시 동안구 갈산로44번길 34 1층,37.3770601,126.9620409,73,matched,ChIJ1SWG1N5dezURD1TEtc28pt8,하스트커피,경기도 안양시 동안구 갈산로44번길 34,https://maps.google.com/?cid=16115775908295758863&g_mp=Cidnb29nbGUubWFwcy5wbGFjZXMudjEuUGxhY2VzLlNlYXJjaFRleHQQAhgEIAA,37.377018799999995,126.96201330000001,1.0,5.2,1.25
RZtqCwdLCgoN,흑수사,"전북특별자치도 전주시 완산구 현무3길 9-5 1,2층",35.8202651,127.1512012,73,matched,ChIJO7pQZQAjcDURgzM5nlb4H7w,흑수사,전북특별자치도 전주시 완산구 2층 현무3길 9-5,https://maps.google.com/?cid=13555826454313907075&g_mp=Cidnb29nbGUubWFwcy5wbGFjZXMudjEuUGxhY2VzLlNlYXJjaFRleHQQAhgEIAA,35.8202615,127.151201,1.0,0.4,1.25
qtDK4mNXrJ7I,히트커피로스터스,서울특별시 종로구 우정국로 26 센트로폴리스 빌딩 건물 지하2층,37.5714967,126.983659,73,matched,ChIJM8I1MwWjfDURsxqt1lTjekw,히트커피로스터스 센트로폴리스,서울특별시 종로구 공평동 17,https://maps.google.com/?cid=5510967047559649971&g_mp=Cidnb29nbGUubWFwcy5wbGFjZXMudjEuUGxhY2VzLlNlYXJjaFRleHQQAhgEIAA,37.571444899999996,126.98362909999999,0.85,6.3,1.1
y7NUICevqNT6,공감플랫폼,경기도 광주시 도척면 도척로 196 공감플랫폼,37.3350329,127.3363658,72,matched,ChIJQVMDrHKrfDURVXOVNae_C3Y,공감플랫폼,경기도 광주시 도척면 도척로 196 공감플랫폼,https://maps.google.com/?cid=8506103046098744149&g_mp=Cidnb29nbGUubWFwcy5wbGFjZXMudjEuUGxhY2VzLlNlYXJjaFRleHQQAhgEIAA,37.3350271,127.33633610000001,1.0,2.7,1.25
ePC96z3icv7V,기투 커피로스터스,"서울특별시 송파구 백제고분로48가길 13 1층, 2층",37.512779,127.1143114,72,matched,ChIJhVGg0FSlfDURKtdrLIQRzQE,기투커피로스터스,서울특별시 송파구 백제고분로48가길 13,https://maps.google.com/?cid=129779223642232618&g_mp=Cidnb29nbGUubWFwcy5wbGFjZXMudjEuUGxhY2VzLlNlYXJjaFRleHQQAhgEIAA,37.5127577,127.11429070000001,1.0,3.0,1.25
WSytZnVCbUt6,눙 커피로스터스,"서울특별시 영등포구 선유로 143 1,2층",37.5267382,126.8909435,72,matched,ChIJn7fQ_CGffDURw3G45vDlyTw,눙커피로스터스,서울특별시 영등포구 양평동3가 선유로 143-10,https://maps.google.com/?cid=4380284935420277187&g_mp=Cidnb29nbGUubWFwcy5wbGFjZXMudjEuUGxhY2VzLlNlYXJjaFRleHQQAhgEIAA,37.52668,126.8909256,1.0,6.7,1.25
sZsWb6Ejv3fG,단일서울,서울특별시 성동구 왕십리로 66-33 1층,37.5429936,127.0454827,72,matched,ChIJC2LDSWClfDURBwU3cw5Q-ts,단일 서울,서울특별시 성동구 왕십리로 66-33,https://maps.google.com/?cid=15851069861476631815&g_mp=Cidnb29nbGUubWFwcy5wbGFjZXMudjEuUGxhY2VzLlNlYXJjaFRleHQQAhgEIAA,37.5430007,127.04546990000001,1.0,1.4,1.25
MnJmQGWPJSi2,디프피 커피로스터스,부산광역시 북구 의성로128번길 51 1층 디프피커피로스터스,35.2085169,129.0085991,72,not_found,ChIJyZjBN0iVaDUR_jxfYPAXtDg,마비스커피,부산광역시 북구 만덕대로 42,https://maps.google.com/?cid=4085917083108326654&g_mp=Cidnb29nbGUubWFwcy5wbGFjZXMudjEuUGxhY2VzLlNlYXJjaFRleHQQAhgEIAA,35.2110371,129.0096579,0.0,296.3,0.05
EfI18Xrfxz0t,딥플로우커피,부산광역시 해운대구 우동1로20번길 37 1층 DEEP FLOW COFFEE,35.1646127,129.1584166,72,matched,ChIJ4xBMej-NaDURWNbsoDvCRu4,딥플로우 커피,부산광역시 해운대구 우동1로20번길 37,https://maps.google.com/?cid=17169624190755329624&g_mp=Cidnb29nbGUubWFwcy5wbGFjZXMudjEuUGxhY2VzLlNlYXJjaFRleHQQAhgEIAA,35.164599,129.15836869999998,1.0,4.6,1.25
UK2lmIKHpo8c,루엔커피로스터스,"인천광역시 연수구 인천타워대로 257 아트포레푸리지오시티C동 2층 213,214호",37.3934537,126.6320581,72,maybe,ChIJaUfXMAB3ezURcwoqG5-bgYY,Ruhen coffee,인천광역시 연수구 송도동 84-2,https://maps.google.com/?cid=9692198980735863411&g_mp=Cidnb29nbGUubWFwcy5wbGFjZXMudjEuUGxhY2VzLlNlYXJjaFRleHQQAhgEIAA,37.3936533,126.63240250000001,0.0,37.7,0.25
ldqLnjiAGz8f,리밀커피&밀리,서울특별시 마포구 동교로22길 21 1층,37.5546062,126.9186736,72,maybe,ChIJC3dNyEeZfDURyv1h38DIFWs,리밀커피 베이커리 Limil Coffee Bakery,서울특별시 마포구 동교로22길 21,https://maps.google.com/?cid=7716294267276230090&g_mp=Cidnb29nbGUubWFwcy5wbGFjZXMudjEuUGxhY2VzLlNlYXJjaFRleHQQAhgEIAA,37.554577699999996,126.91871710000001,0.056,5.0,0.306
NHg36uLcovAa,리짙커피로스터스,부산광역시 부산진구 중앙대로980번길 5,35.1765842,129.074686,72,matched,ChIJDUwUN6vsaDUR0nfugEENoB4,리짙커피로스터스,부산광역시 부산진구 양정동 147-7,https://maps.google.com/?cid=2206778392398690258&g_mp=Cidnb29nbGUubWFwcy5wbGFjZXMudjEuUGxhY2VzLlNlYXJjaFRleHQQAhgEIAA,35.1765721,129.07474919999999,1.0,5.9,1.25
TD8ey2xslmNL,메스트커피,서울특별시 양천구 신정중앙로 61,37.5271623,126.8586479,72,matched,ChIJK1wcBwCdfDURoXkCdb33GQY,메스트커피,서울특별시 양천구 신정중앙로 61,https://maps.google.com/?cid=439654831729310113&g_mp=Cidnb29nbGUubWFwcy5wbGFjZXMudjEuUGxhY2VzLlNlYXJjaFRleHQQAhgEIAA,37.527175899999996,126.8586441,1.0,1.5,1.25
OarOYvz2B7eh,문도노보,충청남도 보령시 대해로 110-10,36.3418765,126.5882225,72,matched,ChIJsa7lUZOAcDURNEj871n30Cs,문도노보,충청남도 보령시 궁촌동 대해로 110-10,https://maps.google.com/?cid=3157295304437155892&g_mp=Cidnb29nbGUubWFwcy5wbGFjZXMudjEuUGxhY2VzLlNlYXJjaFRleHQQAhgEIAA,36.341873899999996,126.5881931,1.0,2.6,1.25
wwRGjF5Vf1Ql,보헤미안박이추커피,서울특별시 영등포구 여의공원로 13 신관 2층,37.524836,126.9164112,72,matched,ChIJeXuI1dKffDUR3BlEQpkllG4,보헤미안박이추커피 KBS 신관점,서울특별시 영등포구 여의공원로 13길,https://maps.google.com/?cid=7968034980897233372&g_mp=Cidnb29nbGUubWFwcy5wbGFjZXMudjEuUGxhY2VzLlNlYXJjaFRleHQQAhgEIAA,37.525582299999996,126.91645879999999,0.85,83.1,1.0
NaXeuIBSCkEa,불스커피 로스터스,강원도 춘천시 우두5길 18 1층,37.9073339,127.7358514,72,matched,ChIJDdVG3PPvYjURJ3olEREZBCo,불스커피 로스터스,강원특별자치도 춘천시 우두5길 18 1층,https://maps.google.com/?cid=3027572410592623143&g_mp=Cidnb29nbGUubWFwcy5wbGFjZXMudjEuUGxhY2VzLlNlYXJjaFRleHQQAhgEIAA,37.907378099999995,127.73591569999998,1.0,7.5,1.25
qECeZjNoK2Kh,브루잉이펙트,서울특별시 서초구 청룡마을길 17-4 브루잉이펙트,37.4468307,127.0584027,72,matched,ChIJaQNecJOnfDURriwLNZ2oPz4,브루잉이펙트,서울특별시 서초구 청룡마을길 17-4,https://maps.google.com/?cid=4485489147037559982&g_mp=Cidnb29nbGUubWFwcy5wbGFjZXMudjEuUGxhY2VzLlNlYXJjaFRleHQQAhgEIAA,37.4468265,127.05840990000002,1.0,0.8,1.25
7smip9i1ahvc,블랙텐,경기도 김포시 걸포로 169 1층,37.6458152,126.7008912,72,matched,ChIJQXJUDZGFfDURXonY6Ra_0gI,블랙텐(Blaec10),경기도 김포시 걸포동 4-129 KR,https://maps.google.com/?cid=203435038318561630&g_mp=Cidnb29nbGUubWFwcy5wbGFjZXMudjEuUGxhY2VzLlNlYXJjaFRleHQQAhgEIAA,37.6457688,126.7005886,0.85,27.1,1.1
OEHl26eRvdpM,빈터커피로스터스,서울특별시 강남구 압구정로4길 14-2 1층,37.5216747,127.020094,72,matched,ChIJu9NwmTSjfDUR6BJo_465RDw,빈터 커피 바,서울특별시 강남구 압구정로4길 14-2,https://maps.google.com/?cid=4342799964513506024&g_mp=Cidnb29nbGUubWFwcy5wbGFjZXMudjEuUGxhY2VzLlNlYXJjaFRleHQQAhgEIAA,37.5216692,127.02008649999999,0.85,0.9,1.1
QTvctwcqntwY,서당개2년로스터스,서울특별시 마포구 동교로51길 129-6 1-4층,37.5662741,126.9200451,72,matched,ChIJPcYhpeWYfDURvn-oCjn7E0Q,서당개2년로스터스,서울특별시 마포구 동교로51길 129-6,https://maps.google.com/?cid=4905540641547124670&g_mp=Cidnb29nbGUubWFwcy5wbGFjZXMudjEuUGxhY2VzLlNlYXJjaFRleHQQAhgEIAA,37.566280299999995,126.92003270000001,1.0,1.3,1.25
MMQ9jK8w3BEi,서동진의커피랩,경기도 수원시 장안구 경수대로878번길 10-24 수원 종합운동장 사거리앞 서동진의커피랩 본점,37.2980464,127.0140863,72,matched,ChIJ435wNlNbezUR0fw6KAM6kgc,서동진의 커피랩,경기도 수원시 장안구 조원1동 경수대로878번길 10-24,https://maps.google.com/?cid=545562290099518673&g_mp=Cidnb29nbGUubWFwcy5wbGFjZXMudjEuUGxhY2VzLlNlYXJjaFRleHQQAhgEIAA,37.2979992,127.01409550000001,1.0,5.3,1.25
Cz0v6IYW9Ia3,스멜팅커피,서울특별시 영등포구 도림로141가길 31-3 1층,37.5161363,126.8897419,72,matched,ChIJRQJdcgCffDUReY3tK9vnPYQ,스멜팅커피 2호점,서울특별시 영등포구 도림로141가길 31-3 1층,https://maps.google.com/?cid=9529027315106680185&g_mp=Cidnb29nbGUubWFwcy5wbGFjZXMudjEuUGxhY2VzLlNlYXJjaFRleHQQAhgEIAA,37.5160906,126.88969900000001,0.85,6.3,1.1
FuXYqgZ9W7hc,스태그커피,"경기도 안양시 만안구 안양로319번길 22 안양로319번길 22 1층,2층,옥상",37.3996916,126.9190752,72,matched,ChIJczRkCtFgezURl46PFy0QV5I,스태그커피,경기도 안양시 만안구 안양로319번길 22,https://maps.google.com/?cid=10544914838366162583&g_mp=Cidnb29nbGUubWFwcy5wbGFjZXMudjEuUGxhY2VzLlNlYXJjaFRleHQQAhgEIAA,37.3996802,126.91908339999999,1.0,1.5,1.25
u1PNKLMjPINe,스텔라온커피,"세종특별자치시 시청대로 213 103,104,105호 (자연드림 옆)",36.4835708,127.2936172,72,matched,ChIJZ4GBBIzLejUR4fEUUG8FBxs,스텔라온커피,세종특별자치시 시청대로 213 103-105호,https://maps.google.com/?cid=1947531339504087521&g_mp=Cidnb29nbGUubWFwcy5wbGFjZXMudjEuUGxhY2VzLlNlYXJjaFRleHQQAhgEIAA,36.483616,127.2935069,1.0,11.1,1.25
gY1WbSGZ1q26,씨크스페셜티커피,서울특별시 관악구 관악로12길 45-12 1층 씨크스페셜티커피,37.4783147,126.9552539,72,matched,ChIJkS8JrjGhfDURCLdFmUr8XGc,씨크스페셜티커피,서울특별시 관악구 봉천동 1610-31,https://maps.google.com/?cid=7448105281093220104&g_mp=Cidnb29nbGUubWFwcy5wbGFjZXMudjEuUGxhY2VzLlNlYXJjaFRleHQQAhgEIAA,37.4782598,126.9551865,1.0,8.5,1.25
G4Yw45U549q5,아저씨커피,충청남도 공주시 먹자1길 1,36.4546225,127.1233456,72,matched,ChIJmzB_P3e5ejURIoWD5I4Q-v0,아저씨커피,충청남도 공주시 중동 147-210,https://maps.google.com/?cid=18300958241678656802&g_mp=Cidnb29nbGUubWFwcy5wbGFjZXMudjEuUGxhY2VzLlNlYXJjaFRleHQQAhgEIAA,36.4545909,127.12333410000001,1.0,3.7,1.25
uFdA0MJoN4q9,연흔 로스터스,서울특별시 종로구 자하문로7길 29 . 1층,37.579085,126.970278,72,matched,ChIJmVgIdQCjfDURdavCvA6adoc,연흔 로스터스 YEONHEUN ROASTERS,서울특별시 종로구 자하문로7길 29 1층,https://maps.google.com/?cid=9761158630459222901&g_mp=Cidnb29nbGUubWFwcy5wbGFjZXMudjEuUGxhY2VzLlNlYXJjaFRleHQQAhgEIAA,37.5790797,126.9702671,0.85,1.1,1.1
x7cqTSlw87pP,오든커피,경기도 남양주시 늘을1로16번길 9-29,37.6552583,127.2413487,72,matched,ChIJt2tk7gTLfDURDskEfSzADtM,오든커피 OTHEN COFFEE,경기도 남양주시 호평동 627-2,https://maps.google.com/?cid=15208304288985303310&g_mp=Cidnb29nbGUubWFwcy5wbGFjZXMudjEuUGxhY2VzLlNlYXJjaFRleHQQAhgEIAA,37.655204499999996,127.24131990000001,0.85,6.5,1.1
G0WKoPKDNcok,오라운트,경기도 광주시 양벌로 320-4 오라운트,37.3713915,127.2464725,72,matched,ChIJaUcbgFuqfDURz6UfLwzcBps,오라운트 로스터리 카페,경기도 광주시 오포읍 양벌로 320-4,https://maps.google.com/?cid=11170857870627415503&g_mp=Cidnb29nbGUubWFwcy5wbGFjZXMudjEuUGxhY2VzLlNlYXJjaFRleHQQAhgEIAA,37.3713698,127.24649719999998,1.0,3.3,1.25
38KyTYtDxA79,오투커피,세종특별자치시 금남면 금남구즉로 386,36.4801972,127.3182387,72,matched,ChIJA-kHqKw1ZTURRfMphFLE1Ww,오투커피,세종특별자치시 금남면 황용리 559-7,https://maps.google.com/?cid=7842390184819290949&g_mp=Cidnb29nbGUubWFwcy5wbGFjZXMudjEuUGxhY2VzLlNlYXJjaFRleHQQAhgEIAA,36.4802099,127.31825640000001,1.0,2.1,1.25
OTHhVtQWUU0y,오티비커피,세종특별자치시 한누리대로 2129 102호 Out Of The Blue,36.4785762,127.2897534,72,matched,ChIJB9ia9b3LejURg8om9GH0pU4,오티비커피,세종특별자치시 보람동 744,https://maps.google.com/?cid=5667204407660825219&g_mp=Cidnb29nbGUubWFwcy5wbGFjZXMudjEuUGxhY2VzLlNlYXJjaFRleHQQAhgEIAA,36.4785992,127.2897218,1.0,3.8,1.25
Ua5gPwoxUjwv,오퍼스 커피로스터즈,경기도 수원시 팔달구 효원로308번길 58-9 트윈파크 A동 114호,37.2578591,127.0336773,72,not_found,ChIJ1VNGFllDezURptyNKrR36AE,도손도손,경기도 수원시 팔달구 인계동 1122-7 번지 정동 빌딩 1 층 도손 도 손,https://maps.google.com/?cid=137491404326558886&g_mp=Cidnb29nbGUubWFwcy5wbGFjZXMudjEuUGxhY2VzLlNlYXJjaFRleHQQAhgEIAA,37.262563,127.03573800000001,0.0,553.9,0.0
fLxzonumsZEA,올디스트커피,경기도 군포시 고산로539번길 7-6 묘향롯데아파트상가 104호 올디스트커피,37.3621916,126.9225991,72,matched,ChIJpSNUdw9nezURcF8IBo6mdpA,올디스트커피AllDistCoffee,경기도 군포시 고산로539번길 7-6 KR,https://maps.google.com/?cid=10409690717630259056&g_mp=Cidnb29nbGUubWFwcy5wbGFjZXMudjEuUGxhY2VzLlNlYXJjaFRleHQQAhgEIAA,37.362127699999995,126.92255859999999,0.85,8.0,1.1
NviQYNlJNrP9,웨이브인커피,인천광역시 서구 가정로352번길 29 1층 웨이브인커피로스터리,37.5161059,126.6761925,72,matched,ChIJ8fgGDSx_ezUR2jGx71x2kbM,웨이브인커피 로스터리,인천광역시 서구 가정로352번길 29 1층,https://maps.google.com/?cid=12939253345942581722&g_mp=Cidnb29nbGUubWFwcy5wbGFjZXMudjEuUGxhY2VzLlNlYXJjaFRleHQQAhgEIAA,37.5161373,126.676166,1.0,4.2,1.25
ickAJr2YPhRn,이상적,경상북도 경주시 임해로 104 카페 이상적,35.8408804,129.2292558,72,matched,ChIJ3YE2uBBPZjUR5hfK4F9t5kY,이상적,경상북도 경주시 월성동 857-59,https://maps.google.com/?cid=5108891085859067878&g_mp=Cidnb29nbGUubWFwcy5wbGFjZXMudjEuUGxhY2VzLlNlYXJjaFRleHQQAhgEIAA,35.8407939,129.2292387,1.0,9.7,1.25
4BclBK0nZ9t1,임종호커피,인천광역시 강화군 송해면 강화대로 683 1층 A호,37.7612629,126.4658474,72,matched,ChIJG22dUgB7fDURbzyYh0f7Usk,임종호커피,인천광역시 강화군 송해면 솔정리 117-1,https://maps.google.com/?cid=14506933634349939823&g_mp=Cidnb29nbGUubWFwcy5wbGFjZXMudjEuUGxhY2VzLlNlYXJjaFRleHQQAhgEIAA,37.7612342,126.46579630000001,1.0,5.5,1.25
Zc9nawXS47op,칠복상회,서울특별시 강북구 한천로139가길 15 칠복상회로스터스,37.6401173,127.0253598,72,matched,ChIJGTRDc2u8fDUR21QrOmTQw60,칠복상회로스터스,서울특별시 강북구 수유동 192-93,https://maps.google.com/?cid=12521080517911336155&g_mp=Cidnb29nbGUubWFwcy5wbGFjZXMudjEuUGxhY2VzLlNlYXJjaFRleHQQAhgEIAA,37.640150399999996,127.0252776,1.0,8.1,1.25
hGswmaxemVM7,카페 드 비바체,서울특별시 용산구 두텁바위로1길 24-1 1층 2호,37.5456674,126.9737221,72,maybe,ChIJI7ThHQyjfDURxUETFeRjQQk,Cafe de Vivace,서울특별시 용산구 두텁바위로1길 24-1 1층 2호,https://maps.google.com/?cid=666924051084820933&g_mp=Cidnb29nbGUubWFwcy5wbGFjZXMudjEuUGxhY2VzLlNlYXJjaFRleHQQAhgEIAA,37.5456149,126.97365400000001,0.0,8.4,0.25
oW6onPrjneZu,카페 디어문,경기도 이천시 마장면 중부대로644번길 87 dear moon cafe,37.2517823,127.4026273,72,matched,ChIJuWdxnPipZDURKppBvCitgxc,카페 디어문(dear moon cafe),경기도 이천시 마장면 중부대로644번길 87,https://maps.google.com/?cid=1694388275290151466&g_mp=Cidnb29nbGUubWFwcy5wbGFjZXMudjEuUGxhY2VzLlNlYXJjaFRleHQQAhgEIAA,37.2516138,127.4026682,0.85,19.1,1.1
QAEehSStiKfj,카페 모던,전라남도 보성군 회천면 우암길 27-60 카페모던,34.6716158,127.0895159,72,matched,ChIJwWfWBANtcjURmM4gvHCFbww,카페모던,전라남도 보성군 회천면 동율리 560-4,https://maps.google.com/?cid=896081570109116056&g_mp=Cidnb29nbGUubWFwcy5wbGFjZXMudjEuUGxhY2VzLlNlYXJjaFRleHQQAhgEIAA,34.6716774,127.08954200000001,1.0,7.3,1.25
vRcxUeJJU1KL,카페 미곡창고,전라북도 전주시 덕진구 금상길 10,35.8415161,127.1738271,72,matched,ChIJF62ju_gjcDURJLzFB6nyqp8,미곡로스터리,전북특별자치도 전주시 덕진구 금상길 10,https://maps.google.com/?cid=11505275005865147428&g_mp=Cidnb29nbGUubWFwcy5wbGFjZXMudjEuUGxhY2VzLlNlYXJjaFRleHQQAhgEIAA,35.8414079,127.1738817,0.85,13.0,1.1
HeQoJCQqJNY1,카페 이끌다,전라남도 여수시 교동남2길 15 1층,34.7394361,127.7347017,72,matched,ChIJ8al5hlTZbTURJUyFOa6x834,이끌다,전라남도 여수시 교동남2길 15,https://maps.google.com/?cid=9147850629967072293&g_mp=Cidnb29nbGUubWFwcy5wbGFjZXMudjEuUGxhY2VzLlNlYXJjaFRleHQQAhgEIAA,34.7394232,127.7347597,1.0,5.5,1.25
WcSkWuIzMVA8,칼레오커피로스터스,서울특별시 광진구 아차산로 291 1층 칼레오커피,37.5387577,127.0753857,72,matched,ChIJvbZ4DuekfDUR7mwLZpHAgeI,칼레오 커피,서울특별시 광진구 자양동 아차산로 291,https://maps.google.com/?cid=16321538255282203886&g_mp=Cidnb29nbGUubWFwcy5wbGFjZXMudjEuUGxhY2VzLlNlYXJjaFRleHQQAhgEIAA,37.5387079,127.07543810000001,1.0,7.2,1.25
JmeyhFYqLPD7,커넥츠 커피,서울특별시 마포구 월드컵로11길 8 105호 커넥츠커피 망원점,37.5549024,126.9105161,72,matched,ChIJibSqr6aZfDUR9dX4_-D021o,커넥츠커피 망원점,"서울특별시 커넥츠커피 105호 KR 서울특별시 마포구 월드컵로 11길 8, 1층",https://maps.google.com/?cid=6547095730517497333&g_mp=Cidnb29nbGUubWFwcy5wbGFjZXMudjEuUGxhY2VzLlNlYXJjaFRleHQQAhgEIAA,37.5548715,126.9105022,0.85,3.6,1.1
yYcHYRQHT13S,커버커피,충청남도 천안시 동남구 신부9길 5 1층 커버커피 로스터스,36.8163247,127.158732,72,maybe,ChIJiR4wBlcnezUR-uNe5OfJsvc,커버 커피,충청남도 천안시 성성6로 7 16 1층 102호,https://maps.google.com/?cid=17848550271028749306&g_mp=Cidnb29nbGUubWFwcy5wbGFjZXMudjEuUGxhY2VzLlNlYXJjaFRleHQQAhgEIAA,36.8405039,127.12080689999999,1.0,4315.4,0.6
93NByMpiDAMC,커피냅로스터스,서울특별시 성동구 성수일로4길 35-11 커피냅로스터스 성수,37.5422923,127.0531435,72,matched,ChIJXdbrhyKlfDURBJPy2pzJghk,커피냅로스터스 성수,서울특별시 성동구 성수일로4길 35-12,https://maps.google.com/?cid=1838253273445995268&g_mp=Cidnb29nbGUubWFwcy5wbGFjZXMudjEuUGxhY2VzLlNlYXJjaFRleHQQAhgEIAA,37.542390999999995,127.052946,0.85,20.6,1.1
sj4KBlw1IYvY,커피랩스로스터리,서울특별시 영등포구 선유로3길 10 문래하우스디비즈 111호,37.5163116,126.8870363,72,matched,ChIJi_u78IqefDUR_19G86ERets,커피랩스로스터리,서울특별시 번지 122호 1 KR 서울특별시 영등포구 문래동6가 19,https://maps.google.com/?cid=15814972428733800447&g_mp=Cidnb29nbGUubWFwcy5wbGFjZXMudjEuUGxhY2VzLlNlYXJjaFRleHQQAhgEIAA,37.517930899999996,126.88730389999999,1.0,181.6,1.15
iDQ6iJQVUXcz,커피볶는남자,인천광역시 중구 햇내로안길 14-5 1층 103호,37.4950419,126.4991366,72,matched,ChIJsRbu5DOFezURx3ncMN4vGZk,커피볶는남자,인천광역시 중구 운서동 3047-27,https://maps.google.com/?cid=11031901393569741255&g_mp=Cidnb29nbGUubWFwcy5wbGFjZXMudjEuUGxhY2VzLlNlYXJjaFRleHQQAhgEIAA,37.494689699999995,126.49960229999999,1.0,56.8,1.25
1ZdGtwW9MhXi,커피휘엘,서울특별시 강남구 논현로149길 62,37.5170173,127.0236569,72,matched,ChIJR9__UemjfDURTUXTaTUcfv8,Coffee Fiel (커피휘엘),서울특별시 강남구 논현로149길 62,https://maps.google.com/?cid=18410183342471464269&g_mp=Cidnb29nbGUubWFwcy5wbGFjZXMudjEuUGxhY2VzLlNlYXJjaFRleHQQAhgEIAA,37.5169723,127.02360650000001,0.85,6.7,1.1
EPjfKnz0FjKg,컬러인커피,전라북도 전주시 완산구 중산1길 15 1층,35.8144016,127.118619,72,matched,ChIJC1EI6U47cDURcay3M5zrcmM,컬러인커피 스트라다점,전북특별자치도 전주시 완산구 중화산동2가 중산1길 15,https://maps.google.com/?cid=7166049013214981233&g_mp=Cidnb29nbGUubWFwcy5wbGFjZXMudjEuUGxhY2VzLlNlYXJjaFRleHQQAhgEIAA,35.814374099999995,127.11862760000001,0.85,3.2,1.1
CDPbQm8IIMlx,코빈즈 커피,강원도 춘천시 동면 노루목길 8-24 2층 카페코빈즈,37.8995532,127.7707765,72,matched,ChIJN0dXmO3vYjUR-ljZAec0M0c,코빈즈커피,강원특별자치도 춘천시 동면 노루목길 8-24 KR,https://maps.google.com/?cid=5130502567278237946&g_mp=Cidnb29nbGUubWFwcy5wbGFjZXMudjEuUGxhY2VzLlNlYXJjaFRleHQQAhgEIAA,37.899438200000006,127.76965789999998,1.0,99.0,1.15
9GQ31WYTmqtP,큐큐큐큐,서울특별시 송파구 오금로20길 4 1층 103호,37.5093327,127.1132989,72,maybe,ChIJmXYTRo-lfDUR5kD-PNdWPyI,큐,서울특별시 가락동 81-1번지 202호 삼원빌딩 송파구 서울특별시 KR,https://maps.google.com/?cid=2467786603263574246&g_mp=Cidnb29nbGUubWFwcy5wbGFjZXMudjEuUGxhY2VzLlNlYXJjaFRleHQQAhgEIAA,37.495368899999995,127.1197538,0.85,1653.8,0.45
sF43DNgN0wsd,크랙로스터스,서울 강서구 마곡중앙로 111 롯데캐슬 르웨스트 102동 141호,37.5634382,126.8259593,72,maybe,ChIJ0RyRYACdfDURIkyc9BqQGJc,Crack Roasters,서울특별시 강서구 마곡중앙로 111 롯데캐슬르웨스트 102동 141호,https://maps.google.com/?cid=10887610544615607330&g_mp=Cidnb29nbGUubWFwcy5wbGFjZXMudjEuUGxhY2VzLlNlYXJjaFRleHQQAhgEIAA,37.563593399999995,126.82665739999997,0.0,63.9,0.25
u8f0NKr3GT4H,투닷츠 로스터즈,충청북도 청주시 상당구 동남로 65,36.6031794,127.5125123,72,matched,ChIJX6-IzOMnZTURAoNcSmok3kk,투닷츠 로스터즈 청주점,충청북도 청주시 상당구 동남로 65,https://maps.google.com/?cid=5322731848531215106&g_mp=Cidnb29nbGUubWFwcy5wbGFjZXMudjEuUGxhY2VzLlNlYXJjaFRleHQQAhgEIAA,36.6031158,127.5126145,0.85,11.5,1.1
HAyMx8EKQLHO,파인커피로스터스,"경기도 시흥시 은행로155번길 17 은행프라자 1층 106,107호",37.4440004,126.7974214,72,matched,ChIJmc0iYPljezURuE_PkeMdv-A,파인커피로스터스,경기도 시흥시 은행동 537-1 은행프라자 1 층 KR,https://maps.google.com/?cid=16194695648288657336&g_mp=Cidnb29nbGUubWFwcy5wbGFjZXMudjEuUGxhY2VzLlNlYXJjaFRleHQQAhgEIAA,37.4439545,126.7973845,1.0,6.1,1.25
sL8BnDuSZoSH,피오커피,경기도 고양시 일산동구 정발산로 43-7 메리트윈 110호,37.6576954,126.773115,72,maybe,ChIJO_wyw0OFfDURq3smfMLpTKQ,도피오커피인일산호수공원점,경기도 고양시 일산동구 장항동 906번지 1층 KR 일부호호수공원매점,https://maps.google.com/?cid=11839094541966015403&g_mp=Cidnb29nbGUubWFwcy5wbGFjZXMudjEuUGxhY2VzLlNlYXJjaFRleHQQAhgEIAA,37.658391,126.7642233,0.85,786.5,0.85
8sA52E65qrG3,피터커피,대전광역시 서구 둔산로123번길 21 엠시티타워 1층 피터커피,36.3522712,127.387508,72,matched,ChIJDw3eOmFJZTUR88DHi1TXyXQ,피터 커피,대전광역시 서구 둔산동 1407번지 1층,https://maps.google.com/?cid=8415494136840831219&g_mp=Cidnb29nbGUubWFwcy5wbGFjZXMudjEuUGxhY2VzLlNlYXJjaFRleHQQAhgEIAA,36.352232099999995,127.3872491,1.0,23.6,1.25
t3XdadxeVd56,화이트셔츠 커피,광주광역시 서구 월드컵4강로182번길 21 지하1층,35.1525504,126.8719568,72,matched,ChIJDc6Pp5aLcTURoEpPrIjxvdE,화이트셔츠커피,광주광역시 서구 내방동 지하1층 839-18 화이트셔츠커피,https://maps.google.com/?cid=15113501493833976480&g_mp=Cidnb29nbGUubWFwcy5wbGFjZXMudjEuUGxhY2VzLlNlYXJjaFRleHQQAhgEIAA,35.1525144,126.8719864,1.0,4.8,1.25
3a8zKtF7U6PH,396커피스토어,경상북도 안동시 퇴계로 99 396커피스토어,36.5669725,128.7290635,71,matched,ChIJMWtSeGmhZjURJQR_NDaShSY,396커피스토어,경상북도 안동시 퇴계로 99,https://maps.google.com/?cid=2775785506850407461&g_mp=Cidnb29nbGUubWFwcy5wbGFjZXMudjEuUGxhY2VzLlNlYXJjaFRleHQQAhgEIAA,36.566917499999995,128.7289947,1.0,8.7,1.25
3RHnQfYekaOz,58mm커피로스터스,경기도 남양주시 두물로39번길 43 1층 102호,37.6594162,127.1283178,71,matched,ChIJTdW4hdO3fDURw2p5Zq6F3WI,58MM커피로스터스,경기도 남양주시 두물 로39번길 43 1층 102호,https://maps.google.com/?cid=7123997169660029635&g_mp=Cidnb29nbGUubWFwcy5wbGFjZXMudjEuUGxhY2VzLlNlYXJjaFRleHQQAhgEIAA,37.6593798,127.12832689999998,1.0,4.1,1.25
NkHZGraR3543,Log coffee roasters,서울특별시 구로구 디지털로29길 38 1층 109호 Log coffee roasters,37.4845388,126.8933416,71,maybe,ChIJBWQ77K-ffDURRp_pzqH4f6c,로그커피로스터스,서울특별시 구로구 디지털로29길 38 1층 109호,https://maps.google.com/?cid=12069638900221058886&g_mp=Cidnb29nbGUubWFwcy5wbGFjZXMudjEuUGxhY2VzLlNlYXJjaFRleHQQAhgEIAA,37.4842519,126.89309189999999,0.0,38.8,0.25
f3giPhtIjKCZ,OR COFFEE,경기도 파주시 송학1길 126,37.7145198,126.7642926,71,matched,ChIJQ41PdPWPfDUR6UrD9zIpbDg,OR COFFEE 오알커피,경기도 파주시 운정3동 송학1길 126,https://maps.google.com/?cid=4065669862490589929&g_mp=Cidnb29nbGUubWFwcy5wbGFjZXMudjEuUGxhY2VzLlNlYXJjaFRleHQQAhgEIAA,37.714471499999995,126.7642655,0.85,5.9,1.1
Fd2JU3iNRhcr,ST 535,서울특별시 동작구 상도로30길 40 두산위브트레지움 2차 상가 106호,37.5043736,126.9422357,71,not_found,ChIJ2W1aNwWffDUR-Bnz-SefZIw,상도2차두산위브트레지움아파트,서울특별시 동작구 상도로30길 40,https://maps.google.com/?cid=10116385657026976248&g_mp=Cidnb29nbGUubWFwcy5wbGFjZXMudjEuUGxhY2VzLlNlYXJjaFRleHQQAhgEIAA,37.503744999999995,126.94343970000001,0.0,127.1,0.15
byYT8ISjNRAk,가치커피,전라남도 여수시 장성3길 20 1층 가치커피,34.7532363,127.655677,71,matched,ChIJqYSBZrLfbTUR1tSRCMGzHjk,가치커피,전라남도 여수시 안산동 장성3길 20,https://maps.google.com/?cid=4115924751117046998&g_mp=Cidnb29nbGUubWFwcy5wbGFjZXMudjEuUGxhY2VzLlNlYXJjaFRleHQQAhgEIAA,34.7532022,127.6557225,1.0,5.6,1.25
bn6oJoDOx50I,골든커피로스터스,서울특별시 송파구 양재대로71길 16-28 1층,37.5118749,127.1259586,71,matched,ChIJe0LP94evfDURC_2JP7urxio,골든커피로스터스,서울특별시 송파구 원당빌딩 1층,https://maps.google.com/?cid=3082339815694925067&g_mp=Cidnb29nbGUubWFwcy5wbGFjZXMudjEuUGxhY2VzLlNlYXJjaFRleHQQAhgEIAA,37.511797,127.12591699999999,1.0,9.4,1.25
27DlFQauj08P,그러므로part2,제주특별자치도 제주시 수목원길 16-14,33.4684408,126.4858668,71,matched,ChIJHQ7Or8L7DDURT6Huu5n7LbE,그러므로 part2,제주특별자치도 제주시 특별자치도 수목원길 16-14,https://maps.google.com/?cid=12767137156366770511&g_mp=Cidnb29nbGUubWFwcy5wbGFjZXMudjEuUGxhY2VzLlNlYXJjaFRleHQQAhgEIAA,33.4684296,126.4860264,1.0,14.9,1.25
jDqYWVdMvNNS,나쓰커피,부산광역시 수영구 수영로611번길 30 1층 나쓰커피,35.1607078,129.1120051,71,matched,ChIJvwtKELXtaDURJP2gGra4ZoY,나쓰커피,부산광역시 수영구 광안동 수영로611번길 30,https://maps.google.com/?cid=9684631140977147172&g_mp=Cidnb29nbGUubWFwcy5wbGFjZXMudjEuUGxhY2VzLlNlYXJjaFRleHQQAhgEIAA,35.1607242,129.1120229,1.0,2.4,1.25
2h70heqdBZY0,논실 커피로스터스,경상북도 포항시 남구 희망대로514번길 46 논실커피로스터스,36.0230585,129.3343626,71,matched,ChIJ9bAJd8IBZzUR6gKBvtiJy7w,논실커피로스터스,경상북도 포항시 남구 희망대로514번길 46,https://maps.google.com/?cid=13604118663404782314&g_mp=Cidnb29nbGUubWFwcy5wbGFjZXMudjEuUGxhY2VzLlNlYXJjaFRleHQQAhgEIAA,36.0230514,129.334322,1.0,3.7,1.25
cFuTcxg31QdY,달몬트,전라남도 목포시 해안로 79 달몬트,34.7805019,126.3732844,71,matched,ChIJR7ArnB2lczURoIpYbwZxU9w,달몬트 DALMONTE,전라남도 목포시 해안로 79,https://maps.google.com/?cid=15876157383862946464&g_mp=Cidnb29nbGUubWFwcy5wbGFjZXMudjEuUGxhY2VzLlNlYXJjaFRleHQQAhgEIAA,34.7805564,126.37332889999999,0.85,7.3,1.1
Ycd0k4wEBpNQ,더블에이블 커피로스터즈,경기도 평택시 고덕국제3길 97 1층,37.0508877,127.0479409,71,matched,ChIJM46IqvU5ezURLcRow0K2byA,더블에이블 커피로스터즈,경기도 평택시 고덕동 고덕 국제3길 97,https://maps.google.com/?cid=2337287129491096621&g_mp=Cidnb29nbGUubWFwcy5wbGFjZXMudjEuUGxhY2VzLlNlYXJjaFRleHQQAhgEIAA,37.0509072,127.0480182,1.0,7.2,1.25
q9osynnnpciU,델문도로스터스,제주특별자치도 제주시 연삼로 316,33.4918448,126.5263139,71,matched,ChIJX5RvCKH8DDURAeW3FX5xTMk,델문도 로스터스,"제주특별자치도 제주시 특별자치도, 도남동 번지 1층 61-4 KR",https://maps.google.com/?cid=14505093286197716225&g_mp=Cidnb29nbGUubWFwcy5wbGFjZXMudjEuUGxhY2VzLlNlYXJjaFRleHQQAhgEIAA,33.4917912,126.52639029999999,1.0,9.3,1.25
AIRVTSe7aiep,도돌커피로스터스,경상남도 창원시 성산구 용호로 122 1층,35.2384513,128.6842299,71,matched,ChIJaf-beADNaDURclr6Sf6Xwx4,도돌 커피 로스터즈,경상남도 창원시 성산구 용호로 122 1층,https://maps.google.com/?cid=2216782560015047282&g_mp=Cidnb29nbGUubWFwcy5wbGFjZXMudjEuUGxhY2VzLlNlYXJjaFRleHQQAhgEIAA,35.2384912,128.6841912,0.85,5.7,1.1
dQhzD0xllDQD,동인커피,"세종특별자치시 가름로 232 비109,110호",36.4956004,127.2652818,71,matched,ChIJdSjkehHLejUR3Rd5Xw5HSdk,동인커피 세종점,세종특별자치시 어진동 657,https://maps.google.com/?cid=15657123706587125725&g_mp=Cidnb29nbGUubWFwcy5wbGFjZXMudjEuUGxhY2VzLlNlYXJjaFRleHQQAhgEIAA,36.495626300000005,127.26490840000001,0.85,33.5,1.1
