place_id,country,name,addr,lat,lng,maps_url,primary_type,types,business_status,rating,user_rating_count,found_via_query,found_via_region
ChIJOYWBuxsxUBMRCpjsacARfuY,AL,Komiteti Bar,"Rruga Papa Gjon Pali II, Tiranë",41.323313399999996,19.8225281,https://maps.google.com/?cid=16608731993897474058&g_mp=Cidnb29nbGUubWFwcy5wbGFjZXMudjEuUGxhY2VzLlNlYXJjaFRleHQQAhgEIAA,cafe,"cafe,bar,food,point_of_interest,establishment",OPERATIONAL,4.4,1547,coffee roastery,Tirana
ChIJRT9JpVoxUBMRwy0mz5fyKY4,AL,Café Momus,"Rruga Panorama, Tiranë",41.336706,19.8111444,https://maps.google.com/?cid=10243985561260273091&g_mp=Cidnb29nbGUubWFwcy5wbGFjZXMudjEuUGxhY2VzLlNlYXJjaFRleHQQAhgEIAA,restaurant,"restaurant,wine_bar,cocktail_bar,cafe,brunch_restaurant,bar,point_of_interest,food,establishment",OPERATIONAL,4.9,812,coffee roastery,Tirana
ChIJRaCc7ywxUBMR-lXsXges1nY,AL,HANA Corner Café - Specialty Coffee and Brunch,"Rruga Gjin Bue Shpata 4, Tiranë 1001",41.320547399999995,19.811611499999998,https://maps.google.com/?cid=8563220889148872186&g_mp=Cidnb29nbGUubWFwcy5wbGFjZXMudjEuUGxhY2VzLlNlYXJjaFRleHQQAhgEIAA,coffee_shop,"coffee_shop,cafe,bar,point_of_interest,food_store,store,food,establishment",OPERATIONAL,4.5,808,coffee roastery,Tirana
ChIJEbShFgAzRRMRZNeMLqxY3L0,AL,URA Specialty Coffee & Kuvend,"Rruga Cajupi 33, Vlora 9401",40.456621,19.4855545,https://maps.google.com/?cid=13680907264583325540&g_mp=Cidnb29nbGUubWFwcy5wbGFjZXMudjEuUGxhY2VzLlNlYXJjaFRleHQQAhgEIAA,coffee_shop,"coffee_shop,cafe,food_store,store,point_of_interest,food,establishment",OPERATIONAL,5,289,coffee roaster,Tirana
ChIJV_MLhMoxUBMRQJws69Ku-ZU,AL,Mimoza n’Qoshe | Specialty Coffee & Brunch in Tirana,"Rruga E Kosovarëve 5, Tiranë 1019",41.3150925,19.812180299999998,https://maps.google.com/?cid=10806861001764150336&g_mp=Cidnb29nbGUubWFwcy5wbGFjZXMudjEuUGxhY2VzLlNlYXJjaFRleHQQAhgEIAA,brunch_restaurant,"brunch_restaurant,cocktail_bar,breakfast_restaurant,coffee_shop,cafe,bar,food_store,store,restaurant,point_of_interest,food,establishment",OPERATIONAL,4.8,206,coffee roaster,Tirana
ChIJx874z_jHm4gRfqfca-RETTE,AL,The Roastery Coffee Co. Grand Bay,"9964 Grand Bay Wilmer Rd, Grand Bay, AL 36541, USA",30.483571899999998,-88.34145389999999,https://maps.google.com/?cid=3552571428918044542&g_mp=Cidnb29nbGUubWFwcy5wbGFjZXMudjEuUGxhY2VzLlNlYXJjaFRleHQQAhgEIAA,coffee_shop,"coffee_shop,coffee_roastery,playground,cafe,point_of_interest,food_store,store,food,establishment",OPERATIONAL,4.9,200,coffee roastery,Tirana
ChIJq7VhEWkxUBMRcHZi6RzXZAU,AL,SECA COFFEE,"Rruga Janos Hunyadi, Tiranë 1001",41.3186246,19.8165588,https://maps.google.com/?cid=388671987035305584&g_mp=Cidnb29nbGUubWFwcy5wbGFjZXMudjEuUGxhY2VzLlNlYXJjaFRleHQQAhgEIAA,coffee_shop,"coffee_shop,cafe,food_store,store,point_of_interest,food,establishment",OPERATIONAL,4.9,187,coffee roaster;coffee roastery,Tirana
ChIJJ110YQAxUBMRT--Ia1i_dBs,AL,Streha Coffee&Community,"Rruga Mihal Ciko 15, Tiranë 1023",41.3302195,19.804641399999998,https://maps.google.com/?cid=1978416522804653903&g_mp=Cidnb29nbGUubWFwcy5wbGFjZXMudjEuUGxhY2VzLlNlYXJjaFRleHQQAhgEIAA,coffee_shop,"coffee_shop,cocktail_bar,cafe,bar,food_store,store,point_of_interest,food,establishment",OPERATIONAL,4.9,179,coffee roaster;coffee roastery;specialty coffee roaster,Tirana
ChIJQ0otrwMxUBMRonQ2Ffsfkek,AL,Frut'za Vogel | Specialty Coffee,"Gjergj Fishta, Tiranë 1001",41.3229885,19.8166209,https://maps.google.com/?cid=16830268445713396898&g_mp=Cidnb29nbGUubWFwcy5wbGFjZXMudjEuUGxhY2VzLlNlYXJjaFRleHQQAhgEIAA,coffee_shop,"coffee_shop,cocktail_bar,coffee_roastery,cafe,bar,food_store,store,wholesaler,point_of_interest,food,establishment",OPERATIONAL,4.9,148,coffee roaster;coffee roastery;specialty coffee roaster,Tirana
ChIJ53y2x9YxUBMRl89VcrbVLb8,AL,COFFEE-LAB,"AL, Rruga Nikolla Tupe, Tiranë 1001",41.3198528,19.8170187,https://maps.google.com/?cid=13775901814775205783&g_mp=Cidnb29nbGUubWFwcy5wbGFjZXMudjEuUGxhY2VzLlNlYXJjaFRleHQQAhgEIAA,coffee_shop,"coffee_shop,cafe,food_store,store,point_of_interest,food,establishment",OPERATIONAL,4.5,138,coffee roaster;coffee roastery,Tirana
ChIJ9anxYJIxUBMRwSKQChSnYf0,AL,The Back Room - Specialty Coffee,"Sheshi Wilson, Rruga Sulejman Delvina, Tiranë",41.317720800000004,19.8111674,https://maps.google.com/?cid=18258058068855104193&g_mp=Cidnb29nbGUubWFwcy5wbGFjZXMudjEuUGxhY2VzLlNlYXJjaFRleHQQAhgEIAA,coffee_shop,"coffee_shop,cafe,food_store,store,point_of_interest,food,establishment",OPERATIONAL,4.9,90,coffee roaster;coffee roastery;specialty coffee roaster,Tirana
ChIJW18LaLufVBMRjsj6QJLeor4,AL,Fa-Kafë,"20 Rrugë Fehmi Agani, Prishtinë 10000",42.664663,21.1591295,https://maps.google.com/?cid=13736786533170202766&g_mp=Cidnb29nbGUubWFwcy5wbGFjZXMudjEuUGxhY2VzLlNlYXJjaFRleHQQAhgEIAA,coffee_roastery,"coffee_roastery,coffee_shop,cafe,wholesaler,point_of_interest,food_store,store,food,establishment",OPERATIONAL,4.8,41,coffee roastery,Tirana
ChIJhUhca7jPRT4RMqMHAyojzuU,AL,Coffee Roasters,"238 C Ring Rd, Doha, Qatar",25.263113699999998,51.5337472,https://maps.google.com/?cid=16559211543234323250&g_mp=Cidnb29nbGUubWFwcy5wbGFjZXMudjEuUGxhY2VzLlNlYXJjaFRleHQQAhgEIAA,coffee_roastery,"coffee_roastery,point_of_interest,food,establishment",OPERATIONAL,4.6,39,coffee roaster,Tirana
ChIJN67j_xYxUBMRLYfZ9iYydSg,AL,ATSH Kafe (Pazari i Ri),"Rruga Fadil Rada, Tiranë",41.3283458,19.8276039,https://maps.google.com/?cid=2915291476723861293&g_mp=Cidnb29nbGUubWFwcy5wbGFjZXMudjEuUGxhY2VzLlNlYXJjaFRleHQQAhgEIAA,food_store,"tea_store,coffee_shop,cafe,point_of_interest,food_store,store,food,establishment",OPERATIONAL,4.5,35,coffee roastery,Tirana
ChIJ7chMoKqXUBMRqfpXgUEIUh8,AL,Thomas Enkelana Coffee Company,"Rruga Nacionale Pogradec-Korce,km 3, Pogradec",40.8845866,20.6799616,https://maps.google.com/?cid=2256875440701962921&g_mp=Cidnb29nbGUubWFwcy5wbGFjZXMudjEuUGxhY2VzLlNlYXJjaFRleHQQAhgEIAA,coffee_roastery,"coffee_roastery,point_of_interest,food,establishment",OPERATIONAL,5,30,coffee roaster;coffee roastery,Tirana
ChIJ66UdyOh-hYARY827aA7ckhk,AL,Bellwether Coffee,"1710 Fourth St, Berkeley, CA 94710, USA",37.8712089,-122.30145040000001,https://maps.google.com/?cid=1842777151992745315&g_mp=Cidnb29nbGUubWFwcy5wbGFjZXMudjEuUGxhY2VzLlNlYXJjaFRleHQQAhgEIAA,coffee_roastery,"coffee_roastery,point_of_interest,food,establishment",OPERATIONAL,3.6,28,coffee roaster,Tirana
ChIJ92VNdFYwUBMRpE39FMBIowE,AL,Coffee 65,"8R73+FCV, Rruga Tish Daija, Tiranë",41.313731399999995,19.8035584,https://maps.google.com/?cid=118018005064830372&g_mp=Cidnb29nbGUubWFwcy5wbGFjZXMudjEuUGxhY2VzLlNlYXJjaFRleHQQAhgEIAA,cafe,"cafe,food,point_of_interest,establishment",OPERATIONAL,4.7,28,coffee roastery,Tirana
ChIJN5u4GkMxUBMRhUctO0bwx_M,AL,Coffee Station,"8RRM+XG, Rruga E Dibrës 413-375, Tiranë 1001",41.3423794,19.8339854,https://maps.google.com/?cid=17566273056013109125&g_mp=Cidnb29nbGUubWFwcy5wbGFjZXMudjEuUGxhY2VzLlNlYXJjaFRleHQQAhgEIAA,coffee_shop,"coffee_shop,cafe,food_store,store,point_of_interest,food,establishment",OPERATIONAL,4.7,23,coffee roaster,Tirana
ChIJy_2P6Q0vUBMRf-VOD919jwo,AL,Mulliri Vjetër - Coffee Company,"Rruga Industriale, Bërxullë 1001",41.371193,19.6865103,https://maps.google.com/?cid=760965250446976383&g_mp=Cidnb29nbGUubWFwcy5wbGFjZXMudjEuUGxhY2VzLlNlYXJjaFRleHQQAhgEIAA,coffee_roastery,"coffee_roastery,point_of_interest,food,establishment",OPERATIONAL,4,8,coffee roastery,Tirana
ChIJ7_fJWfMzUBMRFXxptNRwJ_4,AL,Kafe Turke,"rruga demokracia 1054 Bathore 12200 Tirane, Bathore",41.3741248,19.7857418,https://maps.google.com/?cid=18313730468587600917&g_mp=Cidnb29nbGUubWFwcy5wbGFjZXMudjEuUGxhY2VzLlNlYXJjaFRleHQQAhgEIAA,coffee_roastery,"coffee_roastery,point_of_interest,food,establishment",OPERATIONAL,5,5,coffee roastery,Tirana
ChIJ9asxxQQxUBMRf2Z_x41W2y4,AL,Caffe Drupa,"SH56 Rruga Nacionale Tirane-Kavaje Km 5 Vaqarr, Tiranë 1001",41.2930906,19.7280341,https://maps.google.com/?cid=3376387512581711487&g_mp=Cidnb29nbGUubWFwcy5wbGFjZXMudjEuUGxhY2VzLlNlYXJjaFRleHQQAhgEIAA,coffee_roastery,"coffee_roastery,point_of_interest,food,establishment",OPERATIONAL,4.8,4,coffee roastery,Tirana
ChIJTT9qgMFXzB0RRdt5cZD0hWE,AL,Green Coffee Supply,"Klein Friesland Farm, Vissershok Rd, Durbanville, Cape Town, 7551, South Africa",-33.8104509,18.6259499,https://maps.google.com/?cid=7027291694797806405&g_mp=Cidnb29nbGUubWFwcy5wbGFjZXMudjEuUGxhY2VzLlNlYXJjaFRleHQQAhgEIAA,wholesaler,"wholesaler,point_of_interest,food,establishment",OPERATIONAL,4.8,4,coffee roaster,Tirana
ChIJEWShHgFDUBMR25-gtfaomPo,AL,ART COFFEE FACTORY,"Lagja Emin Matraxhiu, Elbasan 3001",41.1160893,20.096491099999998,https://maps.google.com/?cid=18057368483504627675&g_mp=Cidnb29nbGUubWFwcy5wbGFjZXMudjEuUGxhY2VzLlNlYXJjaFRleHQQAhgEIAA,food_store,"coffee_roastery,confectionery,food_store,store,wholesaler,supplier,point_of_interest,food,establishment",OPERATIONAL,5,1,coffee roaster;coffee roastery,Tirana
ChIJKZs3FxIxUBMRPDwsvYvQ6NE,AL,Coffee Time,"8RM9+5W7, Rruga Çerçiz Topulli, Tiranë",41.3329009,19.819800400000002,https://maps.google.com/?cid=15125568647116635196&g_mp=Cidnb29nbGUubWFwcy5wbGFjZXMudjEuUGxhY2VzLlNlYXJjaFRleHQQAhgEIAA,cafe,"cafe,point_of_interest,food,establishment",OPERATIONAL,5,1,coffee roaster,Tirana
ChIJk7SjZHQvUBMRtKQo40TbomA,AL,Food Promotion,Rruga Picar,41.3750371,19.6746576,https://maps.google.com/?cid=6963369062783558836&g_mp=Cidnb29nbGUubWFwcy5wbGFjZXMudjEuUGxhY2VzLlNlYXJjaFRleHQQAhgEIAA,coffee_roastery,"coffee_roastery,point_of_interest,food,establishment",OPERATIONAL,5,1,coffee roastery,Tirana
ChIJCXQvOACtWhMRtT5lmBFgdLg,AL,Zonini-coffee way,"MJRJ+G3W, rruga e dukasit coban, Patos",40.691403199999996,19.6320381,https://maps.google.com/?cid=13291354028964658869&g_mp=Cidnb29nbGUubWFwcy5wbGFjZXMudjEuUGxhY2VzLlNlYXJjaFRleHQQAhgEIAA,coffee_roastery,"coffee_roastery,food,point_of_interest,establishment",OPERATIONAL,5,1,coffee roastery,Tirana
ChIJh9SDiEEzUBMR1-FldwBO7dE,AL,Il Primo Cafe,"Rruga Selishte,Bathore, Tirane 1029",41.376388899999995,19.7913824,https://maps.google.com/?cid=15126832487317496279&g_mp=Cidnb29nbGUubWFwcy5wbGFjZXMudjEuUGxhY2VzLlNlYXJjaFRleHQQAhgEIAA,coffee_roastery,"coffee_roastery,point_of_interest,food,establishment",OPERATIONAL,,,coffee roastery,Tirana
ChIJcTNeOywvUBMRClUIrG1LaSw,AL,Pascalino Shpk,"SH2 44, Kashar",41.363360500000006,19.7110346,https://maps.google.com/?cid=3200171944633193738&g_mp=Cidnb29nbGUubWFwcy5wbGFjZXMudjEuUGxhY2VzLlNlYXJjaFRleHQQAhgEIAA,coffee_roastery,"coffee_roastery,point_of_interest,food,establishment",OPERATIONAL,,,coffee roastery,Tirana
ChIJwbDyoByobUcRvdlHTwmOZ30,AT,GOTA Coffee experts,"Mariahilfer Str. 192, 1150 Wien",48.1914215,16.3269093,https://maps.google.com/?cid=9036347347978148285&g_mp=Cidnb29nbGUubWFwcy5wbGFjZXMudjEuUGxhY2VzLlNlYXJjaFRleHQQAhgEIAA,cafe,"cafe,point_of_interest,food,establishment",OPERATIONAL,4.5,2493,coffee roaster,Vienna
ChIJ3a8QIcEHbUcRr8y9lFyb1Hw,AT,CoffeePirates,"Spitalgasse 17, 1090 Wien",48.2173845,16.3511695,https://maps.google.com/?cid=8994985177700486319&g_mp=Cidnb29nbGUubWFwcy5wbGFjZXMudjEuUGxhY2VzLlNlYXJjaFRleHQQAhgEIAA,cafe,"cafe,point_of_interest,food,establishment",OPERATIONAL,4.6,2074,coffee roaster;coffee roastery,Vienna
ChIJk9VVrMmRdkcRNbOkfw2HAWc,AT,nur coffee Salzburg,"Bürgerspitalgasse 3, 5020 Salzburg",47.799889400000005,13.0401546,https://maps.google.com/?cid=7422362152929112885&g_mp=Cidnb29nbGUubWFwcy5wbGFjZXMudjEuUGxhY2VzLlNlYXJjaFRleHQQAhgEIAA,coffee_shop,"coffee_shop,cafe,coffee_stand,coffee_roastery,food_store,store,point_of_interest,food,establishment",OPERATIONAL,4.8,2048,coffee roaster;coffee roastery,Salzburg
ChIJ5wrI94mQdkcRhLTaW3tx0nc,AT,Kaffee-Alchemie Speciality Coffee -Since 2011-,"Rudolfskai 38, 5020 Salzburg",47.798956700000005,13.0494679,https://maps.google.com/?cid=8634088210258637956&g_mp=Cidnb29nbGUubWFwcy5wbGFjZXMudjEuUGxhY2VzLlNlYXJjaFRleHQQAhgEIAA,coffee_shop,"coffee_shop,cafe,food_store,store,point_of_interest,food,establishment",OPERATIONAL,4.7,1570,coffee roaster;coffee roastery,Salzburg
ChIJ70_Q-ZQdd0cRp2GANAAQD8g,AT,Bella Bean Coffee Roastery - Speciality Coffee,"Schloßpl. 2a, 5700 Zell am See",47.323096,12.797781899999999,https://maps.google.com/?cid=14415758525303120295&g_mp=Cidnb29nbGUubWFwcy5wbGFjZXMudjEuUGxhY2VzLlNlYXJjaFRleHQQAhgEIAA,coffee_shop,"coffee_shop,cafe,coffee_roastery,food_store,store,point_of_interest,food,establishment",OPERATIONAL,4.6,1369,coffee roaster;coffee roastery,Salzburg
ChIJpXYnaqMHbUcRz9sbooKarOA,AT,KAFFEIN home base,"01. Bezirk, Innere Stadt AT, Stoß im Himmel 3, 1010 Wien",48.212422200000006,16.3707477,https://maps.google.com/?cid=16189484646346251215&g_mp=Cidnb29nbGUubWFwcy5wbGFjZXMudjEuUGxhY2VzLlNlYXJjaFRleHQQAhgEIAA,coffee_shop,"coffee_shop,cafe,food_store,store,point_of_interest,food,establishment",OPERATIONAL,4.5,1323,coffee roaster,Vienna
ChIJs65PoimvbUcRydw481O7ziU,AT,RAUWOLF Rösthaus + Brewbar,"SCS Shop 126, 2334 Vösendorf",48.107672099999995,16.317643,https://maps.google.com/?cid=2724320793842998473&g_mp=Cidnb29nbGUubWFwcy5wbGFjZXMudjEuUGxhY2VzLlNlYXJjaFRleHQQAhgEIAA,coffee_roastery,"coffee_roastery,breakfast_restaurant,cafe,food_store,store,restaurant,point_of_interest,food,establishment",OPERATIONAL,4.3,1223,coffee roastery,Vienna
ChIJDbD-L7wHbUcRkOB0QT93fJg,AT,Jonas Reindl Coffee Roasters,"Währinger Str. 2-4, 1090 Wien",48.2149013,16.361845499999998,https://maps.google.com/?cid=10987788304441991312&g_mp=Cidnb29nbGUubWFwcy5wbGFjZXMudjEuUGxhY2VzLlNlYXJjaFRleHQQAhgEIAA,coffee_shop,"coffee_shop,coffee_roastery,cafe,food_store,store,wholesaler,supplier,point_of_interest,food,establishment",OPERATIONAL,4.5,1185,coffee roaster;coffee roastery;specialty coffee roaster,Vienna
ChIJmU3YGIwHbUcRn4dcNeZmgrg,AT,kaffemik,"Zollergasse 5, 1070 Wien",48.1991539,16.3509685,https://maps.google.com/?cid=13295302188874893215&g_mp=Cidnb29nbGUubWFwcy5wbGFjZXMudjEuUGxhY2VzLlNlYXJjaFRleHQQAhgEIAA,coffee_shop,"coffee_shop,coffee_roastery,cafe,food_store,store,point_of_interest,food,establishment",OPERATIONAL,4.7,1057,coffee roaster;coffee roastery;specialty coffee roaster,Vienna
ChIJj3uSQqORdkcRbAzQo21-3wY,AT,220GRAD Nonntal,"Nonntaler Hauptstraße 9A, 5020 Salzburg",47.795603299999996,13.0524807,https://maps.google.com/?cid=495253493398899820&g_mp=Cidnb29nbGUubWFwcy5wbGFjZXMudjEuUGxhY2VzLlNlYXJjaFRleHQQAhgEIAA,cafe,"cafe,coffee_shop,coffee_roastery,breakfast_restaurant,restaurant,point_of_interest,food_store,store,food,establishment",OPERATIONAL,4.7,979,coffee roaster;coffee roastery,Salzburg
ChIJd0ipwX41bkcRRIeBknne28s,AT,Ducks coffee shop,"Raubergasse 14, 8010 Graz",47.0679929,15.438815199999999,https://maps.google.com/?cid=14689579223329376068&g_mp=Cidnb29nbGUubWFwcy5wbGFjZXMudjEuUGxhY2VzLlNlYXJjaFRleHQQAhgEIAA,coffee_shop,"coffee_shop,cafe,food_store,store,point_of_interest,food,establishment",OPERATIONAL,4.6,933,coffee roaster;coffee roastery,Graz
ChIJdwl4Vb0HbUcRr0Qb21sY5sA,AT,Caffè Couture,"Herrengasse 14, 1010 Wien",48.2110449,16.3655975,https://maps.google.com/?cid=13899824082722702511&g_mp=Cidnb29nbGUubWFwcy5wbGFjZXMudjEuUGxhY2VzLlNlYXJjaFRleHQQAhgEIAA,coffee_roastery,"coffee_roastery,coffee_shop,cafe,food_store,store,wholesaler,supplier,point_of_interest,food,establishment",OPERATIONAL,4.6,913,coffee roaster;coffee roastery;specialty coffee roaster,Vienna
ChIJVZmDCc6RdkcRgqCJrwxH830,AT,Ratio Coffee Roasters,"Linzer G. 72A, 5020 Salzburg",47.804348999999995,13.048961,https://maps.google.com/?cid=9075675793891893378&g_mp=Cidnb29nbGUubWFwcy5wbGFjZXMudjEuUGxhY2VzLlNlYXJjaFRleHQQAhgEIAA,coffee_roastery,"coffee_roastery,coffee_shop,cafe,food_store,store,point_of_interest,food,establishment",OPERATIONAL,4.6,897,coffee roaster;coffee roastery;specialty coffee roaster,Graz
ChIJEZOmXZIHbUcRH0mI3udpHsI,AT,Café Comet,"Kirchengasse 44, 1070 Wien",48.2043633,16.3516193,https://maps.google.com/?cid=13987733937251174687&g_mp=Cidnb29nbGUubWFwcy5wbGFjZXMudjEuUGxhY2VzLlNlYXJjaFRleHQQAhgEIAA,coffee_shop,"coffee_shop,coffee_roastery,cafe,food_store,store,point_of_interest,food,establishment",OPERATIONAL,4.8,852,coffee roaster;coffee roastery,Vienna
ChIJP8nrNqAHbUcR-Qumq9G4JR8,AT,Cottage Roasters 1010,"Fleischmarkt 16, 1010 Wien",48.210643,16.3768924,https://maps.google.com/?cid=2244403199981521913&g_mp=Cidnb29nbGUubWFwcy5wbGFjZXMudjEuUGxhY2VzLlNlYXJjaFRleHQQAhgEIAA,coffee_shop,"coffee_shop,cafe,food_store,store,point_of_interest,food,establishment",OPERATIONAL,4.3,810,coffee roaster,Vienna
ChIJWdvcZYQHbUcRWPNfIvuj8wI,AT,Alt Wien Kaffee,"Schleifmühlgasse 23, 1040 Wien",48.198139999999995,16.36402,https://maps.google.com/?cid=212693906425377624&g_mp=Cidnb29nbGUubWFwcy5wbGFjZXMudjEuUGxhY2VzLlNlYXJjaFRleHQQAhgEIAA,coffee_shop,"coffee_shop,cafe,food_store,store,point_of_interest,food,establishment",OPERATIONAL,4.7,800,coffee roastery,Vienna
ChIJ0Qu4L4IHbUcRfDplVg1DT3Q,AT,Kaffeefabrik,"Favoritenstraße 4, 1040 Wien",48.1958817,16.3684099,https://maps.google.com/?cid=8380991156122892924&g_mp=Cidnb29nbGUubWFwcy5wbGFjZXMudjEuUGxhY2VzLlNlYXJjaFRleHQQAhgEIAA,coffee_shop,"coffee_shop,coffee_roastery,cafe,food_store,store,point_of_interest,food,establishment",OPERATIONAL,4.7,790,coffee roaster;coffee roastery;specialty coffee roaster,Vienna
ChIJ_UWyyRAHbUcR6CPSroIA8Og,AT,Viennese Coffee Roastery,"Prater 80/2, 1020 Wien",48.214477900000006,16.4031531,https://maps.google.com/?cid=16784916372488594408&g_mp=Cidnb29nbGUubWFwcy5wbGFjZXMudjEuUGxhY2VzLlNlYXJjaFRleHQQAhgEIAA,coffee_roastery,"coffee_roastery,coffee_shop,cafe,food_store,store,point_of_interest,food,establishment",OPERATIONAL,4.5,788,coffee roaster;coffee roastery,Vienna
ChIJqz_5DNmBcEcREw3mFVMLXvw,AT,Coffee Roaster Kaffeeteria,"Italiener Str. 15, 9500 Villach",46.61078,13.8438083,https://maps.google.com/?cid=18184984796846230803&g_mp=Cidnb29nbGUubWFwcy5wbGFjZXMudjEuUGxhY2VzLlNlYXJjaFRleHQQAhgEIAA,cafe,"cafe,coffee_roastery,bar,restaurant,point_of_interest,food,establishment",OPERATIONAL,4.8,778,coffee roaster;coffee roastery,Graz
ChIJg6qwRZgHbUcR-S5SjKjN-DA,AT,Jonas Reindl Coffee Roasters,"Westbahnstraße 13, 1070 Wien",48.201755,16.3454639,https://maps.google.com/?cid=3528796431837179641&g_mp=Cidnb29nbGUubWFwcy5wbGFjZXMudjEuUGxhY2VzLlNlYXJjaFRleHQQAhgEIAA,coffee_shop,"coffee_shop,coffee_roastery,cafe,food_store,store,point_of_interest,food,establishment",OPERATIONAL,4.6,743,coffee roaster;coffee roastery,Vienna
ChIJf9lpUQYHbUcRxIUq30Sftwg,AT,The Good Coffee Society,"Stumpergasse 64, 1060 Wien",48.1961349,16.3422226,https://maps.google.com/?cid=628145791192171972&g_mp=Cidnb29nbGUubWFwcy5wbGFjZXMudjEuUGxhY2VzLlNlYXJjaFRleHQQAhgEIAA,coffee_shop,"coffee_shop,cafe,cafeteria,food_store,store,point_of_interest,food,establishment",OPERATIONAL,4.8,704,coffee roaster;coffee roastery;specialty coffee roaster,Vienna
ChIJ5WUVq_UHbUcR0DiDhhQc_Aw,AT,kaffeefabrik mariahilf,"Otto-Bauer-Gasse 23, 1060 Wien",48.1967417,16.3477064,https://maps.google.com/?cid=935653697067890896&g_mp=Cidnb29nbGUubWFwcy5wbGFjZXMudjEuUGxhY2VzLlNlYXJjaFRleHQQAhgEIAA,coffee_shop,"coffee_shop,coffee_roastery,cafe,food_store,store,point_of_interest,food,establishment",OPERATIONAL,4.7,580,coffee roaster;coffee roastery,Vienna
ChIJB1_hJSiobUcRPgS-xluuoVE,AT,Coffee Junkie Pilgramgasse,"Pilgramgasse 3, 1050 Wien",48.1917055,16.356963099999998,https://maps.google.com/?cid=5882174297522177086&g_mp=Cidnb29nbGUubWFwcy5wbGFjZXMudjEuUGxhY2VzLlNlYXJjaFRleHQQAhgEIAA,coffee_shop,"coffee_shop,cafe,food_store,store,point_of_interest,food,establishment",OPERATIONAL,4.7,567,coffee roaster,Vienna
ChIJ-QgMn0AHbUcRaw7ZTjGs0TY,AT,Café LIEBEN WIR Coffee Concept Store,"Gonzagagasse 5, 1010 Wien",48.2134691,16.3728956,https://maps.google.com/?cid=3950127675956858475&g_mp=Cidnb29nbGUubWFwcy5wbGFjZXMudjEuUGxhY2VzLlNlYXJjaFRleHQQAhgEIAA,cafe,"cafe,gift_shop,coffee_shop,food_store,store,point_of_interest,food,establishment",OPERATIONAL,4.5,494,coffee roaster;coffee roastery,Vienna
ChIJ1x3GGkeRdkcR7GNl_Dt-pmc,AT,KAVA coffee roasters | STORE Salzburg,"Griesgasse 2a, 5020 Salzburg",47.800919699999994,13.040549299999999,https://maps.google.com/?cid=7468795828143219692&g_mp=Cidnb29nbGUubWFwcy5wbGFjZXMudjEuUGxhY2VzLlNlYXJjaFRleHQQAhgEIAA,coffee_roastery,"coffee_roastery,coffee_shop,cafe,point_of_interest,food_store,store,food,establishment",OPERATIONAL,4.9,480,coffee roastery;specialty coffee roaster,Graz
ChIJra_SHqIHbUcRiyviUdUU5jo,AT,Caffè a Casa,"Hoher Markt 8-9, 1010 Wien",48.21112060000001,16.372906699999998,https://maps.google.com/?cid=4244102605277637515&g_mp=Cidnb29nbGUubWFwcy5wbGFjZXMudjEuUGxhY2VzLlNlYXJjaFRleHQQAhgEIAA,coffee_shop,"coffee_shop,cafe,food_store,store,point_of_interest,food,establishment",OPERATIONAL,4.5,450,coffee roaster,Vienna
ChIJ230gXoUHbUcRe__ZrJnooUQ,AT,Akrap Espressobar,"Königsklostergasse 7, 1060 Wien",48.200521699999996,16.3600977,https://maps.google.com/?cid=4945489612557123451&g_mp=Cidnb29nbGUubWFwcy5wbGFjZXMudjEuUGxhY2VzLlNlYXJjaFRleHQQAhgEIAA,coffee_roastery,"coffee_roastery,coffee_shop,cafe,food_store,store,wholesaler,supplier,point_of_interest,food,establishment",OPERATIONAL,4.8,433,coffee roaster;coffee roastery;specialty coffee roaster,Vienna
ChIJNWjdJQQ1bkcR31hyUonP9YQ,AT,Beanery Specialty Coffee Graz,"Zinzendorfgasse 20, 8010 Graz",47.0755088,15.448350099999999,https://maps.google.com/?cid=9580791971001293023&g_mp=Cidnb29nbGUubWFwcy5wbGFjZXMudjEuUGxhY2VzLlNlYXJjaFRleHQQAhgEIAA,coffee_shop,"coffee_shop,cafe,food_store,store,point_of_interest,food,establishment",OPERATIONAL,4.8,427,coffee roaster;coffee roastery,Graz
ChIJi6VsfyE1bkcRVX2_eOQQZRk,AT,Paul & Bohne - Lendplatz,"Josefigasse 1, 8020 Graz",47.0737972,15.4323051,https://maps.google.com/?cid=1829887397060377941&g_mp=Cidnb29nbGUubWFwcy5wbGFjZXMudjEuUGxhY2VzLlNlYXJjaFRleHQQAhgEIAA,cafe,"cafe,coffee_roastery,coffee_shop,food_store,store,point_of_interest,food,establishment",OPERATIONAL,4.7,413,coffee roaster;coffee roastery,Graz
ChIJGaEh4B12B0ERfqpbzcKvYAg,AT,Coffeeshop Barista's Eggenbergerallee,"Eggenberger Allee 14, 8020 Graz",47.070239,15.406365500000001,https://maps.google.com/?cid=603675601271499390&g_mp=Cidnb29nbGUubWFwcy5wbGFjZXMudjEuUGxhY2VzLlNlYXJjaFRleHQQAhgEIAA,coffee_shop,"coffee_shop,cafe,food_store,store,point_of_interest,food,establishment",OPERATIONAL,4.5,394,coffee roaster,Graz
ChIJr8Upib0cd0cRW6YUtIuEgw4,AT,Teekorb & Tridor Zell am See speciality coffee regionale Kaffeerösterei Cafe Kaffee tea coffeeshop,"Areitstraße 5, 5700 Zell am See",47.297442,12.7907289,https://maps.google.com/?cid=1045825274036659803&g_mp=Cidnb29nbGUubWFwcy5wbGFjZXMudjEuUGxhY2VzLlNlYXJjaFRleHQQAhgEIAA,coffee_roastery,"coffee_roastery,tea_store,coffee_shop,cafe,gift_shop,wholesaler,point_of_interest,supplier,food_store,store,food,establishment",OPERATIONAL,4.8,393,coffee roaster;coffee roastery,Salzburg
ChIJk9QusDSRdkcRk0l0CtrfJrw,AT,"Idealist - brunch all day long, specialty coffee, pastries","Schallmooser Hauptstraße 44, 5020 Salzburg",47.806850999999995,13.0582516,https://maps.google.com/?cid=13557769855816714643&g_mp=Cidnb29nbGUubWFwcy5wbGFjZXMudjEuUGxhY2VzLlNlYXJjaFRleHQQAhgEIAA,coffee_shop,"coffee_shop,cafe,food_store,store,point_of_interest,food,establishment",OPERATIONAL,4.8,388,coffee roastery,Salzburg
ChIJOcwM4kEFb0cR9Fer1iwsSBI,AT,Maitz Kaffeerösterei,"Frutten 68A, 8354 St. Anna am Aigen",46.8150535,15.929089699999997,https://maps.google.com/?cid=1317351462097606644&g_mp=Cidnb29nbGUubWFwcy5wbGFjZXMudjEuUGxhY2VzLlNlYXJjaFRleHQQAhgEIAA,coffee_roastery,"coffee_roastery,cafe,food_store,store,point_of_interest,food,establishment",OPERATIONAL,4.9,384,coffee roastery,Graz
ChIJ3RhDPYMHbUcRblM4mMrBMzI,AT,Knockbox,"Treitlstraße 1, 1040 Wien",48.199801099999995,16.368171999999998,https://maps.google.com/?cid=3617448001590023022&g_mp=Cidnb29nbGUubWFwcy5wbGFjZXMudjEuUGxhY2VzLlNlYXJjaFRleHQQAhgEIAA,coffee_shop,"coffee_shop,cafe,food_store,store,restaurant,point_of_interest,food,establishment",OPERATIONAL,4.8,368,coffee roaster;coffee roastery,Vienna
ChIJmdSTie_LcUcR8Chpop6hgIg,AT,Jamila Coffee GmbH (Kaffeerösterrei mit Cafelounge),"Triester Str. 2, 8724 Spielberg",47.2101816,14.805119399999999,https://maps.google.com/?cid=9836039288878868720&g_mp=Cidnb29nbGUubWFwcy5wbGFjZXMudjEuUGxhY2VzLlNlYXJjaFRleHQQAhgEIAA,coffee_roastery,"coffee_roastery,cafe,deli,food_store,store,point_of_interest,food,establishment",OPERATIONAL,4.8,355,coffee roastery,Graz
ChIJPwlOmTJLbkcR3MfLLTTnQ44,AT,BLEND COFFEE Roasters,"Joanneumring 3, 8010 Graz",47.0674218,15.441218000000001,https://maps.google.com/?cid=10251291388118026204&g_mp=Cidnb29nbGUubWFwcy5wbGFjZXMudjEuUGxhY2VzLlNlYXJjaFRleHQQAhgEIAA,cafe,"cafe,point_of_interest,food,establishment",OPERATIONAL,4.6,346,coffee roaster;coffee roastery;specialty coffee roaster,Graz
ChIJn0c0lWFLbkcRmR5zqFjL9C4,AT,Coffeeshop Barista's St.Peter,"Petersgasse 106, 8010 Graz",47.0604224,15.4626465,https://maps.google.com/?cid=3383552801705762457&g_mp=Cidnb29nbGUubWFwcy5wbGFjZXMudjEuUGxhY2VzLlNlYXJjaFRleHQQAhgEIAA,coffee_shop,"coffee_shop,cafe,food_store,store,point_of_interest,food,establishment",OPERATIONAL,4.8,344,coffee roaster;coffee roastery,Graz
ChIJV8cqUn5KbkcRPTQ62c0ZiqU,AT,Coffeeshop Barista´s Music&Art,"Leonhardstraße 18, 8010 Graz",47.07206190000001,15.4505082,https://maps.google.com/?cid=11928374934947640381&g_mp=Cidnb29nbGUubWFwcy5wbGFjZXMudjEuUGxhY2VzLlNlYXJjaFRleHQQAhgEIAA,cafe,"cafe,coffee_shop,food_store,store,point_of_interest,food,establishment",OPERATIONAL,4.4,344,coffee roaster,Graz
ChIJnzdhwp8HbUcRD82IHg76Sjc,AT,tasteit Kaffeebohnen und Espressomaschinen,"Wollzeile 27, 1010 Wien",48.2081327,16.3774177,https://maps.google.com/?cid=3984271758911393039&g_mp=Cidnb29nbGUubWFwcy5wbGFjZXMudjEuUGxhY2VzLlNlYXJjaFRleHQQAhgEIAA,wholesaler,"coffee_roastery,food_store,manufacturer,store,wholesaler,supplier,point_of_interest,food,establishment",OPERATIONAL,4.5,336,coffee roaster;coffee roastery,Vienna
ChIJe86no3sHbUcR7VcNQJfbJWA,AT,Baristas United Coffee Shop,"Landstraßer Hauptstraße 34, 1030 Wien",48.2034567,16.389150400000002,https://maps.google.com/?cid=6928185044440537069&g_mp=Cidnb29nbGUubWFwcy5wbGFjZXMudjEuUGxhY2VzLlNlYXJjaFRleHQQAhgEIAA,coffee_shop,"coffee_shop,coffee_roastery,cafe,food_store,store,point_of_interest,food,establishment",OPERATIONAL,4.7,310,coffee roaster;coffee roastery;specialty coffee roaster,Vienna
ChIJC2EID4I1bkcR4ArCdETMCGk,AT,Nespresso Boutique Graz,"Hauptpl. 16, 8010 Graz",47.071307000000004,15.438972999999997,https://maps.google.com/?cid=7568523768184834784&g_mp=Cidnb29nbGUubWFwcy5wbGFjZXMudjEuUGxhY2VzLlNlYXJjaFRleHQQAhgEIAA,food_store,"coffee_roastery,coffee_shop,cafe,home_goods_store,clothing_store,food_store,store,wholesaler,supplier,point_of_interest,food,establishment",OPERATIONAL,4.4,305,coffee roastery,Graz
ChIJyZgtausHbUcReKA8afVloOk,AT,Kaffeemodul,"Josefstädter Str. 35, 1080 Wien",48.209606699999995,16.348482399999998,https://maps.google.com/?cid=16834567511817887864&g_mp=Cidnb29nbGUubWFwcy5wbGFjZXMudjEuUGxhY2VzLlNlYXJjaFRleHQQAhgEIAA,cafe,"cafe,coffee_shop,food_store,store,point_of_interest,food,establishment",OPERATIONAL,4.8,285,coffee roaster,Vienna
ChIJPXdfIJc1bkcReA4mM7HtRfI,AT,Café Frohsinn,"Geidorf AT, Theodor-Körner-Straße 60, 8010 Graz",47.084821399999996,15.431610599999999,https://maps.google.com/?cid=17457620875894722168&g_mp=Cidnb29nbGUubWFwcy5wbGFjZXMudjEuUGxhY2VzLlNlYXJjaFRleHQQAhgEIAA,coffee_shop,"coffee_roastery,coffee_shop,cafe,pastry_shop,cake_shop,bakery,korean_restaurant,dessert_shop,confectionery,food_store,manufacturer,store,wholesaler,restaurant,point_of_interest,food,establishment",OPERATIONAL,4.7,273,coffee roastery,Graz
ChIJyQ7_hOoHbUcRelBu4QbECeo,AT,Kleines Wiener Café // Toluka Specialty Coffee Roasters,"Kochgasse 18, 1080 Wien",48.2130857,16.3496295,https://maps.google.com/?cid=16864225813496483962&g_mp=Cidnb29nbGUubWFwcy5wbGFjZXMudjEuUGxhY2VzLlNlYXJjaFRleHQQAhgEIAA,cafe,"cafe,coffee_roastery,coffee_shop,food_store,store,point_of_interest,food,establishment",OPERATIONAL,4.9,252,coffee roaster;coffee roastery;specialty coffee roaster,Vienna
ChIJTV7Kh1cHbUcRCpbshdvATiA,AT,BERT COFFEE & MATCHA,"Fleischmarkt 20, 1010 Wien",48.2104115,16.3775279,https://maps.google.com/?cid=2328010106474370570&g_mp=Cidnb29nbGUubWFwcy5wbGFjZXMudjEuUGxhY2VzLlNlYXJjaFRleHQQAhgEIAA,coffee_shop,"coffee_shop,cafe,food_store,store,point_of_interest,food,establishment",OPERATIONAL,4.7,251,coffee roaster,Vienna
ChIJpZLOwGYHbUcRNieGmUU13_0,AT,Mocca Brasil Kaffeerösterei,"Rennweg 75, 1030 Wien",48.1928853,16.3929753,https://maps.google.com/?cid=18293398784446965558&g_mp=Cidnb29nbGUubWFwcy5wbGFjZXMudjEuUGxhY2VzLlNlYXJjaFRleHQQAhgEIAA,coffee_roastery,"coffee_roastery,coffee_shop,cafe,tea_store,food_store,store,service,point_of_interest,food,establishment",OPERATIONAL,4.9,231,coffee roaster;coffee roastery,Vienna
ChIJj0Yoz3EHbUcRONu4f5R3vUA,AT,Café Exchange,"Georg-Coch-Platz 2, 1010 Wien",48.21001510000001,16.380728899999998,https://maps.google.com/?cid=4665016268707388216&g_mp=Cidnb29nbGUubWFwcy5wbGFjZXMudjEuUGxhY2VzLlNlYXJjaFRleHQQAhgEIAA,cafe,"cafe,restaurant,point_of_interest,food,establishment",OPERATIONAL,4.7,227,coffee roaster;coffee roastery,Vienna
ChIJa-QFmD4HbUcRmSVcqBE3PXw,AT,Jonas Reindl Coffee Roasters,"Josefstädter Str. 67, 1080 Wien",48.21028,16.3449304,https://maps.google.com/?cid=8952372183260997017&g_mp=Cidnb29nbGUubWFwcy5wbGFjZXMudjEuUGxhY2VzLlNlYXJjaFRleHQQAhgEIAA,cafe,"cafe,point_of_interest,food,establishment",OPERATIONAL,4.6,214,coffee roaster;coffee roastery;specialty coffee roaster,Vienna
ChIJF6lL_oYHbUcRM20nq0CyP1A,AT,MARIN Espressobar.,"Schönbrunner Str. 14, 1050 Wien",48.1942247,16.3595549,https://maps.google.com/?cid=5782536437386145075&g_mp=Cidnb29nbGUubWFwcy5wbGFjZXMudjEuUGxhY2VzLlNlYXJjaFRleHQQAhgEIAA,food_store,"coffee_roastery,food_store,store,point_of_interest,food,establishment",OPERATIONAL,4.8,211,coffee roastery,Vienna
ChIJD3dbJn81bkcRvNFynpBHsp4,AT,Buna,"BUNA, Kaffeeladen, Joanneumring 16, 8010 Graz",47.0672527,15.4395764,https://maps.google.com/?cid=11435281090306298300&g_mp=Cidnb29nbGUubWFwcy5wbGFjZXMudjEuUGxhY2VzLlNlYXJjaFRleHQQAhgEIAA,coffee_roastery,"coffee_roastery,food_store,store,wholesaler,supplier,point_of_interest,food,establishment",OPERATIONAL,4.6,205,coffee roaster;coffee roastery;specialty coffee roaster,Graz
ChIJzYQHLTSnbUcRKpGmwe2lIDo,AT,Four Beans Café - Specialty Coffee | Matcha,"Nisselgasse 16/2a, 1140 Wien",48.1895921,16.3047195,https://maps.google.com/?cid=4188530094029312298&g_mp=Cidnb29nbGUubWFwcy5wbGFjZXMudjEuUGxhY2VzLlNlYXJjaFRleHQQAhgEIAA,cafe,"cafe,point_of_interest,food,establishment",OPERATIONAL,5,198,coffee roaster;coffee roastery;specialty coffee roaster,Vienna
ChIJ8cyoC-oHbUcRSOXUSnrD6wQ,AT,The Bean Explorer @Naschmarkt,"Naschmarkt, 1060 Wien",48.197100999999996,16.3603559,https://maps.google.com/?cid=354591925687608648&g_mp=Cidnb29nbGUubWFwcy5wbGFjZXMudjEuUGxhY2VzLlNlYXJjaFRleHQQAhgEIAA,coffee_shop,"coffee_shop,cafe,food_store,store,point_of_interest,food,establishment",OPERATIONAL,5,189,coffee roaster;coffee roastery;specialty coffee roaster,Vienna
ChIJm1RXZACpbUcRK45Y402ryA8,AT,Don Joaco | Coffeefarm | Coffeebike | Coffeeshop | Coffee Roasters,"Schwarzhorngasse 14, 1050 Wien",48.1871491,16.3529198,https://maps.google.com/?cid=1137347256926113323&g_mp=Cidnb29nbGUubWFwcy5wbGFjZXMudjEuUGxhY2VzLlNlYXJjaFRleHQQAhgEIAA,coffee_shop,"coffee_shop,coffee_roastery,cafe,food_store,store,point_of_interest,food,establishment",OPERATIONAL,5,188,coffee roaster;coffee roastery,Vienna
ChIJtR92XagHbUcRmTIK5XYGtj0,AT,BEANDEPENDENT,"Lessinggasse 19, 1020 Wien",48.2236244,16.3848605,https://maps.google.com/?cid=4446748789793501849&g_mp=Cidnb29nbGUubWFwcy5wbGFjZXMudjEuUGxhY2VzLlNlYXJjaFRleHQQAhgEIAA,coffee_shop,"coffee_shop,coffee_roastery,cafe,food_store,store,point_of_interest,food,establishment",OPERATIONAL,5,185,coffee roaster;coffee roastery,Vienna
ChIJuz18i4oHbUcR4NJxs7_vKPg,AT,Süssmund Kaffee Shop,"Rauhensteingasse 12, 1010 Wien",48.205964699999996,16.3722901,https://maps.google.com/?cid=17881805927102927584&g_mp=Cidnb29nbGUubWFwcy5wbGFjZXMudjEuUGxhY2VzLlNlYXJjaFRleHQQAhgEIAA,coffee_shop,"coffee_shop,coffee_roastery,cafe,food_store,store,point_of_interest,food,establishment",OPERATIONAL,4.8,183,coffee roaster;coffee roastery;specialty coffee roaster,Vienna
ChIJCf013W4HbUcRoWqQTEOoPFQ,AT,Beans Kaffeespezialitäten,"Landstraßer Hauptstraße 81, 1030 Wien",48.2000932,16.3936076,https://maps.google.com/?cid=6069911404789394081&g_mp=Cidnb29nbGUubWFwcy5wbGFjZXMudjEuUGxhY2VzLlNlYXJjaFRleHQQAhgEIAA,food_store,"food_store,store,point_of_interest,food,establishment",OPERATIONAL,4.7,178,coffee roaster,Vienna
ChIJpU3AAwAHbUcRWoFuDb6PHuo,AT,The Good Coffee Society Lab,"Liechtensteinstraße 46a, 1090 Wien",48.2216415,16.3599841,https://maps.google.com/?cid=16870079300608360794&g_mp=Cidnb29nbGUubWFwcy5wbGFjZXMudjEuUGxhY2VzLlNlYXJjaFRleHQQAhgEIAA,coffee_shop,"coffee_shop,cafe,food_store,store,point_of_interest,food,establishment",OPERATIONAL,4.6,160,coffee roaster;coffee roastery,Vienna
ChIJT3T7URYHbUcRmsh9E_34JUY,AT,Café Rooster,"Riemergasse 15, 1010 Wien",48.206617800000004,16.3764093,https://maps.google.com/?cid=5054719922630674586&g_mp=Cidnb29nbGUubWFwcy5wbGFjZXMudjEuUGxhY2VzLlNlYXJjaFRleHQQAhgEIAA,coffee_shop,"coffee_shop,cafe,food_store,store,point_of_interest,food,establishment",OPERATIONAL,4.9,151,coffee roaster;coffee roastery,Vienna
ChIJN62TvXg1bkcRgNqQJI_Kwok,AT,HEISSENBERGER Tee & Kaffee - H&H Tee und Kaffee Import GmbH & CO KG,"Hauptpl. 6, 8010 Graz",47.0709695,15.437738999999997,https://maps.google.com/?cid=9926719244820601472&g_mp=Cidnb29nbGUubWFwcy5wbGFjZXMudjEuUGxhY2VzLlNlYXJjaFRleHQQAhgEIAA,tea_house,"tea_house,coffee_roastery,coffee_shop,cafe,tea_store,food_store,store,point_of_interest,food,establishment",OPERATIONAL,4.3,139,coffee roaster;coffee roastery,Graz
ChIJHaZPdl4HbUcRA4q1DwKxHQk,AT,Süssmund Kaffee Pick-up & Office,"Zieglergasse 68/1, 1070 Wien",48.203956999999996,16.345271999999998,https://maps.google.com/?cid=656875743077566979&g_mp=Cidnb29nbGUubWFwcy5wbGFjZXMudjEuUGxhY2VzLlNlYXJjaFRleHQQAhgEIAA,coffee_roastery,"coffee_roastery,point_of_interest,food,establishment",OPERATIONAL,4.8,138,coffee roaster;coffee roastery,Vienna
ChIJZegphLAHbUcR6Kzx9WCP_GE,AT,Coffee & Friends JTP,"Julius-Tandler-Platz 10/1A, 1090 Wien",48.2252769,16.3608416,https://maps.google.com/?cid=7060675962415983848&g_mp=Cidnb29nbGUubWFwcy5wbGFjZXMudjEuUGxhY2VzLlNlYXJjaFRleHQQAhgEIAA,cafe,"cafe,point_of_interest,food,establishment",OPERATIONAL,4.8,131,coffee roastery,Vienna
ChIJu-y8oWqQdkcRpUT85CsyGM8,AT,220GRAD Kaffeerösterei,"Österreich, Maxglaner Hauptstraße 29, 5020 Salzburg",47.797121399999995,13.0224583,https://maps.google.com/?cid=14922732529398858917&g_mp=Cidnb29nbGUubWFwcy5wbGFjZXMudjEuUGxhY2VzLlNlYXJjaFRleHQQAhgEIAA,food_store,"coffee_roastery,food_store,store,point_of_interest,food,establishment",OPERATIONAL,4.7,125,coffee roaster;coffee roastery,Salzburg
ChIJw4lGn28HbUcRAamyTGQIo8A,AT,Kafana | Coffee & Roastery,"Heinestraße 35, 1020 Wien",48.2195219,16.3880816,https://maps.google.com/?cid=13880947703362529537&g_mp=Cidnb29nbGUubWFwcy5wbGFjZXMudjEuUGxhY2VzLlNlYXJjaFRleHQQAhgEIAA,cafe,"cafe,food,point_of_interest,establishment",OPERATIONAL,5,108,coffee roastery,Vienna
ChIJE5cLPABLbkcRuUkAc093CUs,AT,COR Coffee Bar,"Krenngasse 36, 8010 Graz",47.0676373,15.460069299999999,https://maps.google.com/?cid=5406984010750511545&g_mp=Cidnb29nbGUubWFwcy5wbGFjZXMudjEuUGxhY2VzLlNlYXJjaFRleHQQAhgEIAA,coffee_shop,"coffee_shop,cafe,food_store,store,point_of_interest,food,establishment",OPERATIONAL,4.9,101,coffee roaster;coffee roastery,Graz
ChIJRxcPjaGdcUcRuINgf66AuAY,AT,Das Rösthaus,"Hauptstraße 32, 8911 Admont",47.577408299999995,14.4603906,https://maps.google.com/?cid=484278446892024760&g_mp=Cidnb29nbGUubWFwcy5wbGFjZXMudjEuUGxhY2VzLlNlYXJjaFRleHQQAhgEIAA,coffee_roastery,"coffee_roastery,point_of_interest,food,establishment",OPERATIONAL,5,101,coffee roaster,Graz
ChIJbR980hY1bkcRpLCL9e4RKY4,AT,Paul & Bohne – Pauls Kaffeewelt,"Waagner-Biro-Straße 131, 8020 Graz",47.0821555,15.409188299999997,https://maps.google.com/?cid=10243738545450365092&g_mp=Cidnb29nbGUubWFwcy5wbGFjZXMudjEuUGxhY2VzLlNlYXJjaFRleHQQAhgEIAA,coffee_roastery,"coffee_roastery,coffee_shop,cafe,food_store,store,point_of_interest,food,establishment",OPERATIONAL,4.8,93,coffee roaster;coffee roastery,Graz
ChIJX36RAGdknUcRdsWBI3_K-X0,AT,unbound coffee roasters - Rösterei & Coffee Shop,"Valiergasse 61, 6020 Innsbruck, Austria",47.2656609,11.440803299999999,https://maps.google.com/?cid=9077509171347309942&g_mp=Cidnb29nbGUubWFwcy5wbGFjZXMudjEuUGxhY2VzLlNlYXJjaFRleHQQAhgEIAA,coffee_shop,"coffee_shop,coffee_roastery,cafe,tea_house,bakery,food_store,store,wholesaler,supplier,point_of_interest,food,establishment",OPERATIONAL,5,87,coffee roaster;coffee roastery,Munich
ChIJZUtQTP6pbUcRHyZmJ9xYprw,AT,6-7 COFFEE | Six Seven Coffee,"Reinprechtsdorfer Str. 25, 1050 Wien",48.1852673,16.3540057,https://maps.google.com/?cid=13593650227841476127&g_mp=Cidnb29nbGUubWFwcy5wbGFjZXMudjEuUGxhY2VzLlNlYXJjaFRleHQQAhgEIAA,food_store,"food_store,store,point_of_interest,food,establishment",OPERATIONAL,4.8,86,coffee roaster,Vienna
ChIJ26As-Ak1bkcRWFcYnb3qPoE,AT,J. Hornig,"Bahnhofstraße 78, 8401 Kalsdorf bei Graz",46.9659211,15.4658435,https://maps.google.com/?cid=9313139179554101080&g_mp=Cidnb29nbGUubWFwcy5wbGFjZXMudjEuUGxhY2VzLlNlYXJjaFRleHQQAhgEIAA,coffee_roastery,"coffee_roastery,supplier,point_of_interest,food,establishment",OPERATIONAL,4.7,86,coffee roaster;coffee roastery,Graz
ChIJf6Yu3HyQdkcRf12v6bh9M5k,AT,Kaffeerösterei - Cafe Salzburg: Röstzimmer 15,"Wolf-Dietrich-Straße 15, 5020 Salzburg",47.8051101,13.0476656,https://maps.google.com/?cid=11039305344763256191&g_mp=Cidnb29nbGUubWFwcy5wbGFjZXMudjEuUGxhY2VzLlNlYXJjaFRleHQQAhgEIAA,food_store,"coffee_roastery,food_store,wholesaler,store,point_of_interest,supplier,food,establishment",OPERATIONAL,4.2,79,coffee roaster;coffee roastery,Salzburg
ChIJiaPyZ-CbdkcRIgh_99EpTM4,AT,Rösterei Naturkaffee,"Biodorf-Weg 4, 5164 Seeham",47.9711563,13.0769981,https://maps.google.com/?cid=14865302451820365858&g_mp=Cidnb29nbGUubWFwcy5wbGFjZXMudjEuUGxhY2VzLlNlYXJjaFRleHQQAhgEIAA,coffee_roastery,"coffee_roastery,point_of_interest,food,establishment",OPERATIONAL,4.9,79,coffee roastery,Salzburg
ChIJ-QpSsDcHbUcRin6TAcK4fgQ,AT,Coffee Revolution,"Schulgasse 32, 1180 Wien",48.2250905,16.343717599999998,https://maps.google.com/?cid=323899366606864010&g_mp=Cidnb29nbGUubWFwcy5wbGFjZXMudjEuUGxhY2VzLlNlYXJjaFRleHQQAhgEIAA,food_store,"coffee_shop,cafe,food_store,store,wholesaler,service,point_of_interest,food,establishment",OPERATIONAL,5,76,coffee roaster,Vienna
ChIJ9cBBfHyQdkcRycebC3r6Rt8,AT,Richie's,"Hubert-Sattler-Gasse 10, 5020 Salzburg",47.8069468,13.0461595,https://maps.google.com/?cid=16088822120915388361&g_mp=Cidnb29nbGUubWFwcy5wbGFjZXMudjEuUGxhY2VzLlNlYXJjaFRleHQQAhgEIAA,coffee_shop,"coffee_shop,cafe,food_store,store,point_of_interest,food,establishment",OPERATIONAL,4.8,76,coffee roaster,Salzburg
ChIJwVa9EgAHbUcRvW9IYKlaeC0,AT,Jonas Reindl Coffee Roasters,"Landstraßer Hauptstraße 21, 1030 Wien",48.204592899999994,16.3884676,https://maps.google.com/?cid=3276468412423368637&g_mp=Cidnb29nbGUubWFwcy5wbGFjZXMudjEuUGxhY2VzLlNlYXJjaFRleHQQAhgEIAA,coffee_shop,"coffee_shop,cafe,food_store,store,point_of_interest,food,establishment",OPERATIONAL,4.6,72,coffee roaster;coffee roastery;specialty coffee roaster,Vienna
ChIJZyw3v0OadkcRqdEXSbj9bQo,AT,Segafredo Zanetti Austria GmbH,"Hallwanger Landesstraße 10, 5300 Hallwang bei Salzburg",47.8335574,13.0830503,https://maps.google.com/?cid=751535680782848425&g_mp=Cidnb29nbGUubWFwcy5wbGFjZXMudjEuUGxhY2VzLlNlYXJjaFRleHQQAhgEIAA,coffee_roastery,"coffee_roastery,point_of_interest,food,establishment",OPERATIONAL,4.7,65,coffee roastery,Salzburg
ChIJN-ZcoagHbUcRL4SuT-kxyQw,AT,Kaffätscherl - Specialty Coffee,"Siebensterngasse 25, 1070 Wien",48.2021598,16.3528396,https://maps.google.com/?cid=921322476907955247&g_mp=Cidnb29nbGUubWFwcy5wbGFjZXMudjEuUGxhY2VzLlNlYXJjaFRleHQQAhgEIAA,coffee_shop,"coffee_shop,cafe,food_store,store,point_of_interest,food,establishment",OPERATIONAL,5,64,specialty coffee roaster,Vienna
ChIJy6TYcBcVdEcRqapfoJKvwr4,AT,BECO Rösterei & Coffee to go,"Eislaufgasse 5, 4910 Ried im Innkreis",48.207781499999996,13.487093300000002,https://maps.google.com/?cid=13745742056978885289&g_mp=Cidnb29nbGUubWFwcy5wbGFjZXMudjEuUGxhY2VzLlNlYXJjaFRleHQQAhgEIAA,cafe,"cafe,coffee_shop,coffee_roastery,meal_takeaway,restaurant,point_of_interest,food_store,store,food,establishment",OPERATIONAL,5,61,coffee roaster,Salzburg
ChIJYdnvW714ckcRVH4jOMzSGfw,AT,Kaffeelix,"Werkstättenstraße 3a, 3100 St. Pölten",48.198838599999995,15.612804200000001,https://maps.google.com/?cid=18165782346532617812&g_mp=Cidnb29nbGUubWFwcy5wbGFjZXMudjEuUGxhY2VzLlNlYXJjaFRleHQQAhgEIAA,coffee_roastery,"coffee_roastery,point_of_interest,food,establishment",OPERATIONAL,4.9,51,coffee roaster,Graz
ChIJW8mk677ICUcRl15TBhAwY9I,AT,good coffee GmbH - konjabuna,"Österreicher Str. 95, 01279 Dresden-Leuben",51.0183975,13.8438222,https://maps.google.com/?cid=15160013616042958487&g_mp=Cidnb29nbGUubWFwcy5wbGFjZXMudjEuUGxhY2VzLlNlYXJjaFRleHQQAhgEIAA,coffee_roastery,"coffee_roastery,catering_service,food_delivery,event_venue,educational_institution,food_store,store,association_or_organization,service,point_of_interest,food,establishment",OPERATIONAL,5,51,coffee roaster;coffee roastery,Dresden
ChIJ02sMJimvbUcRQwyM8QxjPdI,AT,Röstraum,"Eisgrubengasse 2-6, 2334 Vösendorf",48.109365,16.3139619,https://maps.google.com/?cid=15149373628787461187&g_mp=Cidnb29nbGUubWFwcy5wbGFjZXMudjEuUGxhY2VzLlNlYXJjaFRleHQQAhgEIAA,coffee_roastery,"coffee_roastery,food,point_of_interest,establishment",OPERATIONAL,4.6,35,coffee roastery,Vienna
ChIJN6ZcJAA1bkcRGUvjn6bQXVE,AT,ROLLING BARISTA,"3C6P+P8, 8010 Graz",47.0619304,15.435892700000002,https://maps.google.com/?cid=5863071703971875609&g_mp=Cidnb29nbGUubWFwcy5wbGFjZXMudjEuUGxhY2VzLlNlYXJjaFRleHQQAhgEIAA,coffee_shop,"coffee_shop,cafe,food_store,store,point_of_interest,food,establishment",OPERATIONAL,4.9,28,coffee roaster;coffee roastery,Graz
ChIJWShp5-ChdkcRUhPsRSDdQ5s,AT,VB Kaffee e. U.,"Schweibern 5b, 4893 Schweibern",47.9235846,13.3362171,https://maps.google.com/?cid=11188029030000235346&g_mp=Cidnb29nbGUubWFwcy5wbGFjZXMudjEuUGxhY2VzLlNlYXJjaFRleHQQAhgEIAA,coffee_roastery,"coffee_roastery,food_store,store,wholesaler,point_of_interest,food,establishment",OPERATIONAL,5,27,coffee roastery,Salzburg
ChIJk6jVcBY1bkcRKRfpzq3pX-c,AT,"soulcoffee graz | coffee, community & events","Karmeliterpl. 8, 8010 Graz",47.073662399999996,15.4400465,https://maps.google.com/?cid=16672301278258861865&g_mp=Cidnb29nbGUubWFwcy5wbGFjZXMudjEuUGxhY2VzLlNlYXJjaFRleHQQAhgEIAA,coffee_shop,"coffee_shop,cafe,yoga_studio,fitness_center,gym,sports_complex,sports_school,food_store,store,sports_activity_location,health,point_of_interest,food,establishment",OPERATIONAL,5,27,coffee roaster,Graz
ChIJc7I78YCQdkcRjDxijkfZA4I,AT,Ebner Kaffee,"Samstraße 50, 5023 Salzburg",47.823697599999996,13.0670851,https://maps.google.com/?cid=9368570551215471756&g_mp=Cidnb29nbGUubWFwcy5wbGFjZXMudjEuUGxhY2VzLlNlYXJjaFRleHQQAhgEIAA,coffee_roastery,"coffee_roastery,point_of_interest,food,establishment",OPERATIONAL,4.3,25,coffee roastery,Salzburg
ChIJn6v8dFGUdkcRp5eH5fP13JQ,AT,Herr Werner Rösterei,"Albinaweg 13, 5411 Oberalm",47.6951907,13.0990767,https://maps.google.com/?cid=10726718840366405543&g_mp=Cidnb29nbGUubWFwcy5wbGFjZXMudjEuUGxhY2VzLlNlYXJjaFRleHQQAhgEIAA,coffee_roastery,"coffee_roastery,point_of_interest,food,establishment",OPERATIONAL,4.8,19,coffee roaster;coffee roastery,Salzburg
ChIJ33E_59cHbUcR5iocVhfqJ-A,AT,Coffee Atelier Vienna,"Werdertorgasse 16, 1010 Wien",48.2156136,16.3716589,https://maps.google.com/?cid=16152135974537407206&g_mp=Cidnb29nbGUubWFwcy5wbGFjZXMudjEuUGxhY2VzLlNlYXJjaFRleHQQAhgEIAA,cafe,"cafe,point_of_interest,food,establishment",OPERATIONAL,5,18,coffee roastery,Vienna
ChIJ2dfAHl2idkcRg8uo4nwCHQ0,AT,röstmanufaktur,"Kein Verkauf in Bergheim!! Alle Kaffees online oder in Thalgau, Karls-Haus des Kaffees erhältlich!, Handelszentrum 16, 5101 Bergheim bei Salzburg",47.8411635,13.0399481,https://maps.google.com/?cid=944914232219585411&g_mp=Cidnb29nbGUubWFwcy5wbGFjZXMudjEuUGxhY2VzLlNlYXJjaFRleHQQAhgEIAA,coffee_roastery,"coffee_roastery,point_of_interest,food,establishment",OPERATIONAL,4.9,17,coffee roaster;coffee roastery,Salzburg
ChIJW8oWsF0HbUcRLN1EYohC9pM,AT,Koffeinschmiede Kaffeerösterei,"Schimmelgasse 12, Eingang, Pauluspl. 9/2/1, 1030 Wien",48.192934799999996,16.4007201,https://maps.google.com/?cid=10661782321377893676&g_mp=Cidnb29nbGUubWFwcy5wbGFjZXMudjEuUGxhY2VzLlNlYXJjaFRleHQQAhgEIAA,coffee_roastery,"coffee_roastery,point_of_interest,food,establishment",OPERATIONAL,4.4,16,coffee roaster;coffee roastery,Vienna
ChIJRdicYQCVbkcR1dBbv2N_fTM,AT,Karofé,"Hauptstraße 8, 7503 Großpetersdorf",47.236804400000004,16.3213305,https://maps.google.com/?cid=3710261734412112085&g_mp=Cidnb29nbGUubWFwcy5wbGFjZXMudjEuUGxhY2VzLlNlYXJjaFRleHQQAhgEIAA,coffee_roastery,"coffee_roastery,coffee_shop,cafe,food_store,store,point_of_interest,food,establishment",OPERATIONAL,4.7,14,coffee roastery,Graz
ChIJKxGHsSMHbUcR-UEWrMv1A7Q,AT,Don Joaco Coffee Pop-Up 1020 (Coffeefarm - CoffeeBike -CoffeeRoasters),"Karmelitergasse 1, 1020 Wien",48.21662380000001,16.3786216,https://maps.google.com/?cid=12971481606871466489&g_mp=Cidnb29nbGUubWFwcy5wbGFjZXMudjEuUGxhY2VzLlNlYXJjaFRleHQQAhgEIAA,coffee_shop,"coffee_shop,cafe,coffee_roastery,pastry_shop,dessert_shop,bakery,confectionery,food_store,store,point_of_interest,food,establishment",OPERATIONAL,5,10,coffee roastery,Vienna
ChIJk7sleE65b0cRxjTN8eTgFbo,AT,Kaffeerösterei Strauss,"Leitersdorf 34, 8411 Leitersdorf",46.853698,15.431378899999997,https://maps.google.com/?cid=13408870739479442630&g_mp=Cidnb29nbGUubWFwcy5wbGFjZXMudjEuUGxhY2VzLlNlYXJjaFRleHQQAhgEIAA,coffee_roastery,"coffee_roastery,point_of_interest,food,establishment",OPERATIONAL,5,9,coffee roastery,Graz
ChIJl692bsrLb0cRds57YLRUcag,AT,Barista´s Kaffee GmbH,"Packer Str. 5, 8144 Premstätten",46.982500099999996,15.365936,https://maps.google.com/?cid=12137575604429770358&g_mp=Cidnb29nbGUubWFwcy5wbGFjZXMudjEuUGxhY2VzLlNlYXJjaFRleHQQAhgEIAA,coffee_roastery,"coffee_roastery,point_of_interest,food,establishment",OPERATIONAL,4.9,8,coffee roaster;coffee roastery,Graz
ChIJ37p8eD6PdkcR9vbRGlYAnlE,AT,COFFEE & BAAR | pop up by yazzoon,"Kasernenstraße 1, 5073 Himmelreich",47.792284900000006,12.9889551,https://maps.google.com/?cid=5881138533209601782&g_mp=Cidnb29nbGUubWFwcy5wbGFjZXMudjEuUGxhY2VzLlNlYXJjaFRleHQQAhgEIAA,coffee_shop,"coffee_shop,cafe,point_of_interest,food_store,store,food,establishment",OPERATIONAL,1.8,8,coffee roaster,Salzburg
ChIJEZKLDFNBdEcR4WTdWlBrJ30,AT,ORIGINAL HABESHAWIT COFFEE,"Reichersberg 2, 4981 Reichersberg",48.3364516,13.3593563,https://maps.google.com/?cid=9018294771698722017&g_mp=Cidnb29nbGUubWFwcy5wbGFjZXMudjEuUGxhY2VzLlNlYXJjaFRleHQQAhgEIAA,coffee_roastery,"coffee_roastery,point_of_interest,food,establishment",OPERATIONAL,4.9,7,coffee roaster;coffee roastery,Salzburg
ChIJAcgHPoNbbkcRKaM-9d1iSwk,AT,Steinkaffee,"Buchberg 30, 8223 Buchberg bei Herberstein",47.2192058,15.803735600000001,https://maps.google.com/?cid=669737675036468009&g_mp=Cidnb29nbGUubWFwcy5wbGFjZXMudjEuUGxhY2VzLlNlYXJjaFRleHQQAhgEIAA,coffee_roastery,"coffee_roastery,point_of_interest,food,establishment",OPERATIONAL,5,7,coffee roastery,Graz
ChIJn8ycOkO1b0cRNAkviP4a9_0,AT,Kaffeezwerg,"Mitterstraße 136, 8055 Graz",47.0162206,15.4303733,https://maps.google.com/?cid=18300125291352099124&g_mp=Cidnb29nbGUubWFwcy5wbGFjZXMudjEuUGxhY2VzLlNlYXJjaFRleHQQAhgEIAA,coffee_roastery,"coffee_roastery,point_of_interest,food,establishment",OPERATIONAL,4.7,6,coffee roastery,Graz
ChIJV4vspB7tc0cRKGnWGbmCv_k,AT,Roast Coast Coffee,"Wohnparkstraße 5a, 4641 Steinhaus bei Wels",48.1179622,14.0217081,https://maps.google.com/?cid=17996246367509834024&g_mp=Cidnb29nbGUubWFwcy5wbGFjZXMudjEuUGxhY2VzLlNlYXJjaFRleHQQAhgEIAA,coffee_roastery,"coffee_roastery,point_of_interest,food,establishment",OPERATIONAL,5,6,coffee roastery,Salzburg
ChIJ_Q9ECYdrnUcRZ7mVjzrR3cY,AT,Roast Media,"Rupertgasse 6, 5020 Salzburg",47.8068473,13.051134399999999,https://maps.google.com/?cid=14329839638810048871&g_mp=Cidnb29nbGUubWFwcy5wbGFjZXMudjEuUGxhY2VzLlNlYXJjaFRleHQQAhgEIAA,service,"point_of_interest,service,establishment",OPERATIONAL,5,5,coffee roaster,Salzburg
ChIJIQsNX4o1bkcRVh-sos21mmU,AT,Kaffeerösterei Reyhani,"Schönaugasse 49, 8010 Graz",47.0626866,15.4403422,https://maps.google.com/?cid=7321364039046274902&g_mp=Cidnb29nbGUubWFwcy5wbGFjZXMudjEuUGxhY2VzLlNlYXJjaFRleHQQAhgEIAA,coffee_roastery,"coffee_roastery,point_of_interest,food,establishment",OPERATIONAL,5,4,coffee roastery,Graz
ChIJJ_yqOjoJbUcRjmv5FTf1q9Y,AT,Cottage Roasters 1180,"Gersthofer Markt 11, 1180 Wien",48.231441000000004,16.3289237,https://maps.google.com/?cid=15468726962074774414&g_mp=Cidnb29nbGUubWFwcy5wbGFjZXMudjEuUGxhY2VzLlNlYXJjaFRleHQQAhgEIAA,coffee_roastery,"coffee_roastery,point_of_interest,food,establishment",OPERATIONAL,4.7,3,coffee roaster;coffee roastery,Vienna
ChIJqdle0Q4HbUcRpO6p2C_2TEU,AT,Kaffeestudio.at,"Carminweg 13, 1210 Wien",48.2553312,16.4210881,https://maps.google.com/?cid=4993636772205948580&g_mp=Cidnb29nbGUubWFwcy5wbGFjZXMudjEuUGxhY2VzLlNlYXJjaFRleHQQAhgEIAA,coffee_roastery,"coffee_roastery,point_of_interest,food,establishment",OPERATIONAL,5,3,coffee roastery,Vienna
ChIJ01K1mwQ1bkcRaOEklTcyTXE,AT,HEISSENBERGER Kaffeerösterei - H&H Tee und Kaffee Import GmbH & CO KG,"Rösterei HEISSENBERGER, Reininghausstraße 27/29, 8020 Graz",47.064035499999996,15.405541699999999,https://maps.google.com/?cid=8164236913799389544&g_mp=Cidnb29nbGUubWFwcy5wbGFjZXMudjEuUGxhY2VzLlNlYXJjaFRleHQQAhgEIAA,coffee_roastery,"coffee_roastery,tea_house,point_of_interest,food,establishment",OPERATIONAL,5,2,coffee roaster;coffee roastery,Graz
ChIJv7lfyObbc0cRpWVc2c9jBhQ,AT,C SOL Speciality Coffee Roastery,"Kirchenpl. 2, 4452 Ternberg",47.946199,14.3569619,https://maps.google.com/?cid=1442950474974913957&g_mp=Cidnb29nbGUubWFwcy5wbGFjZXMudjEuUGxhY2VzLlNlYXJjaFRleHQQAhgEIAA,coffee_roastery,"coffee_roastery,point_of_interest,food,establishment",OPERATIONAL,5,1,coffee roastery,Graz
ChIJYT6PPd6ZdkcRqqECT3BmbOA,AT,AFRO COFFEE,"Brunnbachweg 71, 5303 Thalgau",47.8444177,13.2290387,https://maps.google.com/?cid=16171412994528551338&g_mp=Cidnb29nbGUubWFwcy5wbGFjZXMudjEuUGxhY2VzLlNlYXJjaFRleHQQAhgEIAA,coffee_roastery,"coffee_roastery,point_of_interest,food,establishment",OPERATIONAL,,,coffee roaster;coffee roastery,Salzburg
ChIJkzH_HHqRdkcRmQTo_2iAs1I,AT,Coffeerence Office Salzburg,"Haydnstraße 12, 5020 Salzburg",47.8067699,13.0457146,https://maps.google.com/?cid=5959247920399647897&g_mp=Cidnb29nbGUubWFwcy5wbGFjZXMudjEuUGxhY2VzLlNlYXJjaFRleHQQAhgEIAA,coffee_roastery,"coffee_roastery,wholesaler,supplier,point_of_interest,food,establishment",OPERATIONAL,,,coffee roastery,Salzburg
ChIJGU417IORdkcR4euDmf1k-VI,AT,Da Salzburger / Office,"Bayernstraße 22, 5020 Salzburg",47.7998646,13.0262671,https://maps.google.com/?cid=5978921020676107233&g_mp=Cidnb29nbGUubWFwcy5wbGFjZXMudjEuUGxhY2VzLlNlYXJjaFRleHQQAhgEIAA,coffee_roastery,"coffee_roastery,wholesaler,supplier,point_of_interest,food,establishment",OPERATIONAL,,,coffee roastery,Salzburg
ChIJ2_ocAUBdbkcRHCnDScUlfVA,AT,DorfGenuss - BF Kaffeeling,"Stubenberg 205, 8223 Stubenberg am See",47.24529340000001,15.8006922,https://maps.google.com/?cid=5799833424399378716&g_mp=Cidnb29nbGUubWFwcy5wbGFjZXMudjEuUGxhY2VzLlNlYXJjaFRleHQQAhgEIAA,coffee_roastery,"coffee_roastery,point_of_interest,food,establishment",OPERATIONAL,,,coffee roastery,Graz
ChIJfWr6vHEPbUcR8AroTjAqIY4,AT,Goppion Kaffe GmbH,"Seilerstätte, 1010 Wien",48.2047911,16.3742219,https://maps.google.com/?cid=10241513414587845360&g_mp=Cidnb29nbGUubWFwcy5wbGFjZXMudjEuUGxhY2VzLlNlYXJjaFRleHQQAhgEIAA,coffee_roastery,"coffee_roastery,food,point_of_interest,establishment",OPERATIONAL,,,coffee roastery,Vienna
ChIJ-Uqt2RdLbkcR5DXbxS3rOtI,AT,nubeans coffee roasters,"Panzenbeckgasse 26, 8010 Graz",47.0958463,15.507442,https://maps.google.com/?cid=15148678878439618020&g_mp=Cidnb29nbGUubWFwcy5wbGFjZXMudjEuUGxhY2VzLlNlYXJjaFRleHQQAhgEIAA,coffee_roastery,"coffee_roastery,point_of_interest,food,establishment",OPERATIONAL,,,coffee roastery,Graz
ChIJu7J7lsnIWEcR767LtMFbr18,BA,Ministry of Ćejf,"71000, Kovači 26, Sarajevo 71000",43.8601743,18.432164,https://maps.google.com/?cid=6894830442047581935&g_mp=Cidnb29nbGUubWFwcy5wbGFjZXMudjEuUGxhY2VzLlNlYXJjaFRleHQQAhgEIAA,cafe,"cafe,point_of_interest,food,establishment",OPERATIONAL,4.6,1809,coffee roaster;coffee roastery,Sarajevo
ChIJ90wdlQ_JWEcRFLy9h8uhJgY,BA,Coffee Station Kovačići,"Zagrebačka 4a, Sarajevo 71000",43.8528382,18.4040955,https://maps.google.com/?cid=443219508870364180&g_mp=Cidnb29nbGUubWFwcy5wbGFjZXMudjEuUGxhY2VzLlNlYXJjaFRleHQQAhgEIAA,cafe,"cafe,point_of_interest,food,establishment",OPERATIONAL,4.6,1748,coffee roaster,Sarajevo
ChIJuRV8e35DSxMRfPhHZldaOiE,BA,Fabrika Coffee,"Braće Fejića 30, Mostar 88000, Bosnia and Herzegovina",43.3424982,17.8127076,https://maps.google.com/?cid=2394325483325487228&g_mp=Cidnb29nbGUubWFwcy5wbGFjZXMudjEuUGxhY2VzLlNlYXJjaFRleHQQAhgEIAA,coffee_shop,"coffee_shop,cafe,snack_bar,meal_takeaway,restaurant,point_of_interest,food_store,store,food,establishment",OPERATIONAL,4.7,1351,coffee roaster;specialty coffee roaster,Split
ChIJXaeKFI3JWEcRCDRCn0P0y5E,BA,Fabrika Coffee Sarajevo II,"Dalmatinska 2, Sarajevo 71000",43.859226,18.420565399999997,https://maps.google.com/?cid=10505759127043716104&g_mp=Cidnb29nbGUubWFwcy5wbGFjZXMudjEuUGxhY2VzLlNlYXJjaFRleHQQAhgEIAA,coffee_shop,"coffee_shop,cafe,food_store,store,point_of_interest,food,establishment",OPERATIONAL,4.6,935,coffee roaster;coffee roastery;specialty coffee roaster,Sarajevo
ChIJD9V7zdfJWEcRbU7tGvmycsA,BA,Kawa,"Dženetića čikma 16, Sarajevo 71000",43.8601913,18.4229986,https://maps.google.com/?cid=13867342985595539053&g_mp=Cidnb29nbGUubWFwcy5wbGFjZXMudjEuUGxhY2VzLlNlYXJjaFRleHQQAhgEIAA,cafe,"cafe,point_of_interest,food,establishment",OPERATIONAL,4.7,857,coffee roaster;specialty coffee roaster,Sarajevo
ChIJZz6-YQDJWEcRqS8w0aP8SsY,BA,Backyard Coffee,"Zelenih beretki 3, Sarajevo 71000",43.858003,18.4255113,https://maps.google.com/?cid=14288510548305784745&g_mp=Cidnb29nbGUubWFwcy5wbGFjZXMudjEuUGxhY2VzLlNlYXJjaFRleHQQAhgEIAA,coffee_shop,"coffee_shop,cafe,food_store,store,point_of_interest,food,establishment",OPERATIONAL,4.5,812,coffee roaster;coffee roastery,Sarajevo
ChIJW07WgFTJWEcRN-gE2VzwSSI,BA,FABRIKA COFFEE SARAJEVO,"Sarači 32, Sarajevo 71000",43.859469,18.429781,https://maps.google.com/?cid=2470770152158062647&g_mp=Cidnb29nbGUubWFwcy5wbGFjZXMudjEuUGxhY2VzLlNlYXJjaFRleHQQAhgEIAA,coffee_shop,"coffee_shop,cafe,food_store,store,point_of_interest,food,establishment",OPERATIONAL,4.6,775,coffee roaster;coffee roastery;specialty coffee roaster,Sarajevo
ChIJ5fgRIGjJWEcR8ncQFZoXTmk,BA,FUKA Specialty Coffee & Smart Food,"Ćemaluša 12, Sarajevo 71000",43.8586853,18.4225779,https://maps.google.com/?cid=7588028372711667698&g_mp=Cidnb29nbGUubWFwcy5wbGFjZXMudjEuUGxhY2VzLlNlYXJjaFRleHQQAhgEIAA,cafe,"cafe,point_of_interest,food,establishment",OPERATIONAL,4.2,751,specialty coffee roaster,Sarajevo
ChIJQ-m3MckDXkcRC8SxKbJ6YOE,BA,Fabrika Coffee,"Gavre Vučkovića 2, Banja Luka 78000, Bosnia and Herzegovina",44.7678922,17.1994172,https://maps.google.com/?cid=16240115161920291851&g_mp=Cidnb29nbGUubWFwcy5wbGFjZXMudjEuUGxhY2VzLlNlYXJjaFRleHQQAhgEIAA,coffee_shop,"coffee_shop,cafe,food_store,store,point_of_interest,food,establishment",OPERATIONAL,4.3,609,coffee roastery,Split
ChIJSVElw5fJWEcR_bnxVyC1Suw,BA,Ministry of Ćejf,"Hiseta 2, Sarajevo 71000",43.85565,18.409478,https://maps.google.com/?cid=17026620491746621949&g_mp=Cidnb29nbGUubWFwcy5wbGFjZXMudjEuUGxhY2VzLlNlYXJjaFRleHQQAhgEIAA,restaurant,"restaurant,cafe,point_of_interest,food,establishment",OPERATIONAL,4.3,509,coffee roaster,Sarajevo
ChIJc5SmmBTJWEcRb58cjmPnnX4,BA,Caribou Coffee,"Herceg Stjepana 2, Sarajevo 71000",43.8562237,18.4072173,https://maps.google.com/?cid=9123702834894511983&g_mp=Cidnb29nbGUubWFwcy5wbGFjZXMudjEuUGxhY2VzLlNlYXJjaFRleHQQAhgEIAA,coffee_shop,"coffee_shop,cafe,food_store,store,point_of_interest,food,establishment",OPERATIONAL,4.2,505,coffee roaster,Sarajevo
ChIJw3OPSFHJWEcRVtCtrrE5p_I,BA,Behut Coffee shop,"Kovači 20, Sarajevo 71000",43.860272099999996,18.432211100000004,https://maps.google.com/?cid=17485007513591861334&g_mp=Cidnb29nbGUubWFwcy5wbGFjZXMudjEuUGxhY2VzLlNlYXJjaFRleHQQAhgEIAA,coffee_shop,"coffee_shop,coffee_roastery,cafe,food_store,store,point_of_interest,food,establishment",OPERATIONAL,4.8,306,coffee roastery,Sarajevo
ChIJB2t13gDJWEcRhoZnSBXsMqo,BA,Fabrika Coffee Shop Sarajevo III,"Derviša Numića 1A, Sarajevo 71000",43.849063,18.3980468,https://maps.google.com/?cid=12264124311436494470&g_mp=Cidnb29nbGUubWFwcy5wbGFjZXMudjEuUGxhY2VzLlNlYXJjaFRleHQQAhgEIAA,cafe,"cafe,point_of_interest,food,establishment",OPERATIONAL,4.8,273,coffee roaster;coffee roastery;specialty coffee roaster,Sarajevo
ChIJl1zFo8jJWEcR7pY92NRh0nk,BA,NAPOLI COFFEE HOUSE,"Ćurčiluk veliki 23, Sarajevo 71000",43.858810999999996,18.4291068,https://maps.google.com/?cid=8778186190487394030&g_mp=Cidnb29nbGUubWFwcy5wbGFjZXMudjEuUGxhY2VzLlNlYXJjaFRleHQQAhgEIAA,coffee_shop,"coffee_shop,cafe,food_store,store,point_of_interest,food,establishment",OPERATIONAL,4.6,257,coffee roaster,Sarajevo
ChIJJdwKKxzJWEcRecGD7Vyg69E,BA,Franck Experience Store Sarajevo,"Strossmayerova br. 1, Sarajevo 71000",43.8583855,18.4256886,https://maps.google.com/?cid=15126360094436213113&g_mp=Cidnb29nbGUubWFwcy5wbGFjZXMudjEuUGxhY2VzLlNlYXJjaFRleHQQAhgEIAA,coffee_shop,"coffee_shop,cafe,food_store,store,point_of_interest,food,establishment",OPERATIONAL,4.2,250,coffee roaster,Sarajevo
ChIJbSXc52PJWEcRnfqydIoCcZo,BA,Minas Kafa,"Telali 19, Sarajevo 71000",43.859205800000005,18.4340515,https://maps.google.com/?cid=11128678947895835293&g_mp=Cidnb29nbGUubWFwcy5wbGFjZXMudjEuUGxhY2VzLlNlYXJjaFRleHQQAhgEIAA,cafe,"cafe,point_of_interest,food,establishment",OPERATIONAL,5,201,coffee roaster,Sarajevo
ChIJdxup0z3JWEcRzNGLjM0-BSE,BA,Tucana Kafa Minasa,"Bravadžiluk 17, Sarajevo 71000",43.8590156,18.4319795,https://maps.google.com/?cid=2379377030682366412&g_mp=Cidnb29nbGUubWFwcy5wbGFjZXMudjEuUGxhY2VzLlNlYXJjaFRleHQQAhgEIAA,coffee_roastery,"coffee_roastery,point_of_interest,food,establishment",OPERATIONAL,5,166,coffee roaster;coffee roastery;specialty coffee roaster,Sarajevo
ChIJ75mrnL_JWEcR0BPfF8mLxrI,BA,Fabrika coffee Sarajevo IV,"Alipašina 6C, Sarajevo 71000",43.8600582,18.4119691,https://maps.google.com/?cid=12882137479945065424&g_mp=Cidnb29nbGUubWFwcy5wbGFjZXMudjEuUGxhY2VzLlNlYXJjaFRleHQQAhgEIAA,coffee_shop,"coffee_shop,cafe,food_store,store,point_of_interest,food,establishment",OPERATIONAL,4.7,159,coffee roaster;coffee roastery;specialty coffee roaster,Sarajevo
ChIJIadJItpXf6YRhGfqc944psw,BA,Gypsy Coffee Lab,"Branilaca Sarajeva 19, Sarajevo 71000",43.857726,18.4205555,https://maps.google.com/?cid=14746536557949904772&g_mp=Cidnb29nbGUubWFwcy5wbGFjZXMudjEuUGxhY2VzLlNlYXJjaFRleHQQAhgEIAA,cafe,"cafe,point_of_interest,food,establishment",OPERATIONAL,4.9,103,specialty coffee roaster,Sarajevo
ChIJSQMFJAfJWEcRi6dYcInnzZk,BA,Sokak Coffee Shop,"Kovači 25, Sarajevo 71000",43.860385099999995,18.4321608,https://maps.google.com/?cid=11082768835510052747&g_mp=Cidnb29nbGUubWFwcy5wbGFjZXMudjEuUGxhY2VzLlNlYXJjaFRleHQQAhgEIAA,cafe,"cafe,point_of_interest,food,establishment",OPERATIONAL,4.9,100,coffee roaster;coffee roastery;specialty coffee roaster,Sarajevo
ChIJj0njLtktX0cRq3_CrGLSGGM,BA,NUR KAFFA,"BA, Mrakovo 71380",43.97067740000001,18.2769372,https://maps.google.com/?cid=7140688530442977195&g_mp=Cidnb29nbGUubWFwcy5wbGFjZXMudjEuUGxhY2VzLlNlYXJjaFRleHQQAhgEIAA,coffee_roastery,"coffee_roastery,point_of_interest,food,establishment",OPERATIONAL,4.2,35,coffee roastery,Sarajevo
ChIJwek8fMDJWEcRTJf2Z8bG_dk,BA,Pržionica Kafe 'Džemkof',"Kazazi 27, Sarajevo 71000",43.8593866,18.4297076,https://maps.google.com/?cid=15707929630788196172&g_mp=Cidnb29nbGUubWFwcy5wbGFjZXMudjEuUGxhY2VzLlNlYXJjaFRleHQQAhgEIAA,coffee_roastery,"coffee_roastery,point_of_interest,food,establishment",OPERATIONAL,4.7,33,coffee roastery,Sarajevo
ChIJIYt3SsjIWEcRIdC_UWDtB1Q,BA,Tucana Kehava Sehar,"Bravadžiluk 17, Sarajevo 71000",43.8590155,18.4319795,https://maps.google.com/?cid=6055069221967089697&g_mp=Cidnb29nbGUubWFwcy5wbGFjZXMudjEuUGxhY2VzLlNlYXJjaFRleHQQAhgEIAA,coffee_roastery,"coffee_roastery,point_of_interest,food,establishment",OPERATIONAL,4.6,17,coffee roastery,Sarajevo
ChIJX4iQUu7JWEcRj9UVOKTmz1A,BA,Mkafee,"618 BA, Humska, Sarajevo 71000",43.8615468,18.3812631,https://maps.google.com/?cid=5823126436203320719&g_mp=Cidnb29nbGUubWFwcy5wbGFjZXMudjEuUGxhY2VzLlNlYXJjaFRleHQQAhgEIAA,coffee_roastery,"coffee_roastery,point_of_interest,food,establishment",OPERATIONAL,4.4,7,coffee roastery,Sarajevo
ChIJm5BVBwDLWEcRZ9JdRQbsqRo,BA,Prima,"Blažujski drum 10, Sarajevo 71210",43.8305855,18.296417899999998,https://maps.google.com/?cid=1921326227727962727&g_mp=Cidnb29nbGUubWFwcy5wbGFjZXMudjEuUGxhY2VzLlNlYXJjaFRleHQQAhgEIAA,coffee_roastery,"coffee_roastery,point_of_interest,food,establishment",OPERATIONAL,5,1,coffee roastery,Sarajevo
ChIJDdVbJlvJWEcR5BDp29zWgsQ,BA,Welmonte Coffee,"Igmanska bb, Vrbanja 1, Sarajevo 71000",43.9031865,18.3692782,https://maps.google.com/?cid=14160116422476894436&g_mp=Cidnb29nbGUubWFwcy5wbGFjZXMudjEuUGxhY2VzLlNlYXJjaFRleHQQAhgEIAA,coffee_roastery,"coffee_roastery,point_of_interest,food,establishment",OPERATIONAL,,,coffee roastery;specialty coffee roaster,Sarajevo
ChIJPbXImofDw0cRbYSIgAiTZm4,BE,Izy Coffee,"Rue Auguste Orts 9, 1000 Bruxelles",50.8488268,4.3487775,https://maps.google.com/?cid=7955207456522011757&g_mp=Cidnb29nbGUubWFwcy5wbGFjZXMudjEuUGxhY2VzLlNlYXJjaFRleHQQAhgEIAA,coffee_shop,"coffee_shop,cafe,diner,food_store,store,restaurant,point_of_interest,food,establishment",OPERATIONAL,4.2,1889,coffee roaster;coffee roastery;specialty coffee roaster,Brussels
ChIJ0w53VXfEw0cRlp3Dsm8HvC4,BE,Kaffabar,"Pl. Rouppe 1, 1000 Bruxelles",50.843152800000006,4.3453611,https://maps.google.com/?cid=3367574797688216982&g_mp=Cidnb29nbGUubWFwcy5wbGFjZXMudjEuUGxhY2VzLlNlYXJjaFRleHQQAhgEIAA,coffee_shop,"coffee_shop,breakfast_restaurant,cafe,food_store,store,restaurant,point_of_interest,food,establishment",OPERATIONAL,4.7,1627,coffee roaster;coffee roastery,Brussels
ChIJeaHQeG_Fw0cRqnvYPuQe9Fo,BE,BOUCHE - Specialty Coffee,"Rue de Namur 4, 1000 Bruxelles",50.8416133,4.3596525,https://maps.google.com/?cid=6553897323386665898&g_mp=Cidnb29nbGUubWFwcy5wbGFjZXMudjEuUGxhY2VzLlNlYXJjaFRleHQQAhgEIAA,cafe,"cafe,point_of_interest,food,establishment",OPERATIONAL,4.6,1591,coffee roastery;specialty coffee roaster,Brussels
ChIJl9P9XIfDw0cRYlmXFtvmnoY,BE,Corica Grand Place,"Rue du Marché aux Poulets 49, 1000 Bruxelles",50.848450199999995,4.3510444,https://maps.google.com/?cid=9700444476053870946&g_mp=Cidnb29nbGUubWFwcy5wbGFjZXMudjEuUGxhY2VzLlNlYXJjaFRleHQQAhgEIAA,food_store,"coffee_shop,cafe,food_store,store,point_of_interest,food,establishment",OPERATIONAL,4.7,1468,coffee roaster;coffee roastery,Brussels
ChIJleDmRYnDw0cR9EQIf57vU1A,BE,MOK COFFEE,"Rue Antoine Dansaert 196, 1000 Bruxelles",50.852879300000005,4.3417987,https://maps.google.com/?cid=5788233410116338932&g_mp=Cidnb29nbGUubWFwcy5wbGFjZXMudjEuUGxhY2VzLlNlYXJjaFRleHQQAhgEIAA,coffee_shop,"coffee_shop,cafe,coffee_roastery,food_store,store,point_of_interest,food,establishment",OPERATIONAL,4.6,1372,coffee roaster;coffee roastery;specialty coffee roaster,Brussels
ChIJl_Tey-T2w0cRva2dvNTHwDg,BE,Caffenation,"Mechelsesteenweg 16, 2000 Antwerpen",51.2114802,4.407364200000001,https://maps.google.com/?cid=4089488178163854781&g_mp=Cidnb29nbGUubWFwcy5wbGFjZXMudjEuUGxhY2VzLlNlYXJjaFRleHQQAhgEIAA,coffee_shop,"coffee_shop,cafe,food_store,store,point_of_interest,food,establishment",OPERATIONAL,4.4,1276,coffee roaster;coffee roastery;specialty coffee roaster,Antwerp
ChIJXQ0n433Dw0cReQG33zzzFGM,BE,My Little Cup,"Rue de la Croix de Fer 53, 1000 Bruxelles",50.848051000000005,4.3649170999999996,https://maps.google.com/?cid=7139598752065978745&g_mp=Cidnb29nbGUubWFwcy5wbGFjZXMudjEuUGxhY2VzLlNlYXJjaFRleHQQAhgEIAA,cafe,"cafe,point_of_interest,food,establishment",OPERATIONAL,4.7,1256,coffee roaster;coffee roastery;specialty coffee roaster,Brussels
ChIJse03Mvb2w0cRu6nNqf43qGY,BE,Caffe Mundi,"Oude Beurs 24, 2000 Antwerpen",51.221800699999996,4.4008023,https://maps.google.com/?cid=7397223954866088379&g_mp=Cidnb29nbGUubWFwcy5wbGFjZXMudjEuUGxhY2VzLlNlYXJjaFRleHQQAhgEIAA,coffee_shop,"coffee_shop,cafe,food_store,store,point_of_interest,food,establishment",OPERATIONAL,4.6,1226,coffee roaster;coffee roastery;specialty coffee roaster,Antwerp
ChIJ_f3p_thgwUcRDXyodhfagUA,BE,Coffee Onan,"Parijsstraat 28, 3000 Leuven",50.8785781,4.6990592,https://maps.google.com/?cid=4648236084732918797&g_mp=Cidnb29nbGUubWFwcy5wbGFjZXMudjEuUGxhY2VzLlNlYXJjaFRleHQQAhgEIAA,coffee_roastery,"coffee_roastery,coffee_shop,cafe,tea_store,food_store,store,wholesaler,point_of_interest,food,establishment",OPERATIONAL,4.7,1207,coffee roaster;coffee roastery,Brussels
ChIJicq1gYDDw0cR3Dmn-ji9O_Q,BE,Aksum Coffee House,"Galerie du Roi 3, 1000 Bruxelles",50.847964600000005,4.3552379,https://maps.google.com/?cid=17598868021301426652&g_mp=Cidnb29nbGUubWFwcy5wbGFjZXMudjEuUGxhY2VzLlNlYXJjaFRleHQQAhgEIAA,coffee_shop,"coffee_shop,cafe,food_store,store,point_of_interest,food,establishment",OPERATIONAL,3.6,1163,coffee roaster;coffee roastery,Brussels
ChIJkckQnOv2w0cRa9NWubfT8pQ,BE,Butchers Coffee,"Generaal Eisenhowerlei 19, 2140 Antwerpen",51.2164759,4.436050100000001,https://maps.google.com/?cid=10732873648019264363&g_mp=Cidnb29nbGUubWFwcy5wbGFjZXMudjEuUGxhY2VzLlNlYXJjaFRleHQQAhgEIAA,restaurant,"restaurant,coffee_shop,breakfast_restaurant,cafe,food_store,wholesaler,store,point_of_interest,food,establishment",OPERATIONAL,4.4,1133,coffee roaster;coffee roastery,Antwerp
ChIJDWsxuEFxw0cRghWjc0_HbP4,BE,Café Labath,"Oude Houtlei 1, 9000 Gent",51.054367799999994,3.7167552,https://maps.google.com/?cid=18333247327174858114&g_mp=Cidnb29nbGUubWFwcy5wbGFjZXMudjEuUGxhY2VzLlNlYXJjaFRleHQQAhgEIAA,coffee_shop,"coffee_shop,breakfast_restaurant,cafe,food_store,store,restaurant,point_of_interest,food,establishment",OPERATIONAL,4.4,1109,coffee roaster,Ghent
ChIJSQ1B8JFhwUcRxNao2qSt9kI,BE,madmum Coffee Roasters & Bar,"Tiensestraat 38, 3000 Leuven",50.8779579,4.7035298999999995,https://maps.google.com/?cid=4825234974328805060&g_mp=Cidnb29nbGUubWFwcy5wbGFjZXMudjEuUGxhY2VzLlNlYXJjaFRleHQQAhgEIAA,coffee_shop,"coffee_shop,coffee_roastery,cafe,food_store,store,point_of_interest,food,establishment",OPERATIONAL,4.3,972,coffee roaster;coffee roastery,Brussels
ChIJUbRoytZgwUcRUPMjambAoBQ,BE,Noir Coffeebar,"Naamsestraat 49, 3000 Leuven",50.876698499999996,4.7005916,https://maps.google.com/?cid=1486399423132201808&g_mp=Cidnb29nbGUubWFwcy5wbGFjZXMudjEuUGxhY2VzLlNlYXJjaFRleHQQAhgEIAA,coffee_shop,"coffee_shop,coffee_roastery,cafe,food_store,store,point_of_interest,food,establishment",OPERATIONAL,4.7,961,coffee roaster;coffee roastery,Brussels
ChIJ33wQM_T2w0cR0o2jLzoX8oM,BE,Kolonel coffee specialty roastery & bar,"Montignystraat 51, 2018 Antwerpen",51.2037291,4.3921849,https://maps.google.com/?cid=9507687302007328210&g_mp=Cidnb29nbGUubWFwcy5wbGFjZXMudjEuUGxhY2VzLlNlYXJjaFRleHQQAhgEIAA,coffee_roastery,"coffee_roastery,breakfast_restaurant,coffee_shop,cafe,food_store,store,restaurant,point_of_interest,food,establishment",OPERATIONAL,4.5,906,coffee roaster;coffee roastery;specialty coffee roaster,Antwerp
ChIJaZ_stozEw0cRf17ikvAKt3g,BE,Belga & Co,"Rue du Bailli 7A, 1000 Bruxelles",50.827104999999996,4.3629127,https://maps.google.com/?cid=8698433233662140031&g_mp=Cidnb29nbGUubWFwcy5wbGFjZXMudjEuUGxhY2VzLlNlYXJjaFRleHQQAhgEIAA,cafe,"cafe,coffee_shop,food_store,store,point_of_interest,food,establishment",OPERATIONAL,4.3,903,coffee roaster,Brussels
ChIJcZDM30Zxw0cRJlLzW8YhzQk,BE,Mokabon,"Donkersteeg 35, 9000 Gent",51.0548237,3.7226188,https://maps.google.com/?cid=706257852396950054&g_mp=Cidnb29nbGUubWFwcy5wbGFjZXMudjEuUGxhY2VzLlNlYXJjaFRleHQQAhgEIAA,coffee_shop,"coffee_shop,coffee_roastery,cafe,food_store,store,wholesaler,supplier,point_of_interest,food,establishment",OPERATIONAL,4.5,892,coffee roaster;coffee roastery;specialty coffee roaster,Ghent
ChIJwf3VBlj2w0cRsKy04m-nh8w,BE,Normo,"Minderbroedersrui 30, 2000 Antwerpen",51.222438999999994,4.4041985,https://maps.google.com/?cid=14737932404579937456&g_mp=Cidnb29nbGUubWFwcy5wbGFjZXMudjEuUGxhY2VzLlNlYXJjaFRleHQQAhgEIAA,coffee_shop,"coffee_shop,cafe,food_store,store,point_of_interest,food,establishment",OPERATIONAL,4.6,870,coffee roaster;coffee roastery;specialty coffee roaster,Antwerp
ChIJAReWSXjEw0cRgvlWmaIUvkA,BE,Yuka Coffee Bar,"Bd Anspach 166, 1000 Bruxelles",50.8459122,4.3474677999999995,https://maps.google.com/?cid=4665188952592284034&g_mp=Cidnb29nbGUubWFwcy5wbGFjZXMudjEuUGxhY2VzLlNlYXJjaFRleHQQAhgEIAA,coffee_shop,"coffee_shop,cafe,food_store,store,point_of_interest,food,establishment",OPERATIONAL,4.7,846,coffee roaster;coffee roastery,Brussels
ChIJPR6yyW3Dw0cRMFxVGJ3DKYM,BE,WINOK - Specialty Coffee Bar & Roastery,"Av. Louis Bertrand 48, 1030 Schaerbeek",50.863862399999995,4.3761905,https://maps.google.com/?cid=9451300372499225648&g_mp=Cidnb29nbGUubWFwcy5wbGFjZXMudjEuUGxhY2VzLlNlYXJjaFRleHQQAhgEIAA,coffee_shop,"coffee_shop,brunch_restaurant,cafe,pub,bar,food_store,store,restaurant,point_of_interest,food,establishment",OPERATIONAL,4.5,816,coffee roastery,Brussels
ChIJEX3KV6N2w0cRxs1srnnHOfw,BE,Full Circle Coffee Bar and Roastery - Zuid,"Zuidstationstraat 5, 9000 Gent",51.048965300000006,3.7332395000000003,https://maps.google.com/?cid=18174777096661683654&g_mp=Cidnb29nbGUubWFwcy5wbGFjZXMudjEuUGxhY2VzLlNlYXJjaFRleHQQAhgEIAA,coffee_shop,"coffee_shop,cafe,pastry_shop,bakery,dessert_shop,confectionery,food_store,store,point_of_interest,food,establishment",OPERATIONAL,4.4,794,coffee roaster;coffee roastery;specialty coffee roaster,Ghent
ChIJ_____05xw0cRCrl0O0_5wik,BE,OR Coffee Lab,"Sint-Pietersnieuwstraat 126 A, 9000 Gent",51.0472422,3.7270646000000003,https://maps.google.com/?cid=3009241619732150538&g_mp=Cidnb29nbGUubWFwcy5wbGFjZXMudjEuUGxhY2VzLlNlYXJjaFRleHQQAhgEIAA,coffee_shop,"coffee_shop,brunch_restaurant,breakfast_restaurant,cafe,vegan_restaurant,vegetarian_restaurant,food_store,store,restaurant,point_of_interest,food,establishment",OPERATIONAL,4.4,767,coffee roaster;coffee roastery;specialty coffee roaster,Ghent
ChIJYcX7JBNxw0cR5v8Au6T0JQI,BE,Goya coffee Gent,"Verlorenkost 5, 9000 Gent",51.046383299999995,3.7216682999999997,https://maps.google.com/?cid=154798750563368934&g_mp=Cidnb29nbGUubWFwcy5wbGFjZXMudjEuUGxhY2VzLlNlYXJjaFRleHQQAhgEIAA,coffee_shop,"coffee_shop,cafe,food_store,store,point_of_interest,food,establishment",OPERATIONAL,4.8,711,coffee roaster;coffee roastery;specialty coffee roaster,Ghent
ChIJDxOMw_f2w0cRoVnKxEhU0Zc,BE,Tartoer - Coffee Bar,"Korte Koepoortstraat 2, 2000 Antwerpen",51.22147950000001,4.4023659,https://maps.google.com/?cid=10939617641375619489&g_mp=Cidnb29nbGUubWFwcy5wbGFjZXMudjEuUGxhY2VzLlNlYXJjaFRleHQQAhgEIAA,coffee_shop,"coffee_shop,breakfast_restaurant,cafe,tea_house,bakery,food_store,store,restaurant,point_of_interest,food,establishment",OPERATIONAL,4.5,695,coffee roaster,Antwerp
ChIJfXNyq0hxw0cRO6waqycW3I4,BE,Peaberry Coffeebar,"Limburgstraat 36, 9000 Gent",51.05223600000001,3.7275433000000002,https://maps.google.com/?cid=10294127207892298811&g_mp=Cidnb29nbGUubWFwcy5wbGFjZXMudjEuUGxhY2VzLlNlYXJjaFRleHQQAhgEIAA,coffee_shop,"coffee_shop,cafe,food_store,store,point_of_interest,food,establishment",OPERATIONAL,4.6,661,coffee roaster;coffee roastery;specialty coffee roaster,Ghent
ChIJTRDM_dNgwUcR3KMSzhp1ys0,BE,MOK COFFEE,"Diestsestraat 165, 3000 Leuven",50.881474,4.7096405,https://maps.google.com/?cid=14828793481057706972&g_mp=Cidnb29nbGUubWFwcy5wbGFjZXMudjEuUGxhY2VzLlNlYXJjaFRleHQQAhgEIAA,coffee_shop,"coffee_shop,coffee_roastery,cafe,food_store,store,point_of_interest,food,establishment",OPERATIONAL,4.5,647,coffee roaster;coffee roastery;specialty coffee roaster,Brussels
ChIJOXwNLh_3w0cR0buVsM-3FbI,BE,Caffènation Roastery and Bar PAKT,"Lamorinierestraat 161, 2018 Antwerpen",51.202503799999995,4.4217882,https://maps.google.com/?cid=12832364815910812625&g_mp=Cidnb29nbGUubWFwcy5wbGFjZXMudjEuUGxhY2VzLlNlYXJjaFRleHQQAhgEIAA,coffee_shop,"coffee_shop,cafe,liquor_store,food_store,store,point_of_interest,food,establishment",OPERATIONAL,4.6,596,coffee roaster;coffee roastery;specialty coffee roaster,Antwerp
ChIJ2V7rDEZxw0cRG3UG-0JfG-8,BE,Koffeine,"Lange Kruisstraat 6, 9000 Gent",51.052744,3.725758,https://maps.google.com/?cid=17229469540719949083&g_mp=Cidnb29nbGUubWFwcy5wbGFjZXMudjEuUGxhY2VzLlNlYXJjaFRleHQQAhgEIAA,coffee_shop,"coffee_shop,cafe,food_store,store,point_of_interest,food,establishment",OPERATIONAL,4.6,588,coffee roaster;coffee roastery;specialty coffee roaster,Ghent
ChIJrRTF-Fb2w0cRAvEhkXnHFJY,BE,Cuperus Horsey - Koffiebar,"Paardenmarkt 28, 2000 Antwerpen",51.2249815,4.4088240999999995,https://maps.google.com/?cid=10814487930163294466&g_mp=Cidnb29nbGUubWFwcy5wbGFjZXMudjEuUGxhY2VzLlNlYXJjaFRleHQQAhgEIAA,coffee_shop,"coffee_shop,cafe,tea_house,food_store,store,restaurant,point_of_interest,food,establishment",OPERATIONAL,4.4,579,coffee roaster;coffee roastery,Antwerp
ChIJXecTf6r3w0cRgnea7NQcVoM,BE,Viggo's,"De Coninckplein 21, 2060 Antwerpen",51.221806799999996,4.4203865,https://maps.google.com/?cid=9463783367793866626&g_mp=Cidnb29nbGUubWFwcy5wbGFjZXMudjEuUGxhY2VzLlNlYXJjaFRleHQQAhgEIAA,coffee_shop,"coffee_shop,cafe,food_store,store,point_of_interest,food,establishment",OPERATIONAL,4.6,576,coffee roaster;coffee roastery,Antwerp
ChIJ9VQ-vHT3w0cRz_rCur2Rgdg,BE,ToiToiToi Coffee x Culture / Antwerpen,"Lange Koepoortstraat 42, 2000 Antwerpen",51.222539999999995,4.4022216,https://maps.google.com/?cid=15600910828256295631&g_mp=Cidnb29nbGUubWFwcy5wbGFjZXMudjEuUGxhY2VzLlNlYXJjaFRleHQQAhgEIAA,coffee_shop,"coffee_shop,gift_shop,cafe,live_music_venue,event_venue,bar,food_store,store,wholesaler,restaurant,point_of_interest,food,establishment",OPERATIONAL,4.7,559,coffee roaster;coffee roastery,Antwerp
ChIJe9Hv4qn3w0cRr3mUmEuFtD8,BE,Koffie Dealers,"Paardenmarkt 117, 2000 Antwerpen",51.2247568,4.4141261,https://maps.google.com/?cid=4590440479926286767&g_mp=Cidnb29nbGUubWFwcy5wbGFjZXMudjEuUGxhY2VzLlNlYXJjaFRleHQQAhgEIAA,coffee_shop,"coffee_shop,cafe,bar,food_store,wholesaler,store,point_of_interest,food,establishment",OPERATIONAL,4.9,543,coffee roaster;coffee roastery;specialty coffee roaster,Brussels
ChIJ162HHElxw0cR1SLD55NspuM,BE,Bidon Coffee&Bicycle,"Bisdomkaai 25, 9000 Gent",51.053903,3.7306987,https://maps.google.com/?cid=16403918075247928021&g_mp=Cidnb29nbGUubWFwcy5wbGFjZXMudjEuUGxhY2VzLlNlYXJjaFRleHQQAhgEIAA,coffee_shop,"coffee_shop,breakfast_restaurant,cafe,pub,bicycle_store,sporting_goods_store,bar,food_store,manufacturer,store,restaurant,point_of_interest,food,establishment",OPERATIONAL,4.1,519,coffee roaster,Ghent
ChIJXXGJBAnFw0cR5rXfFhsyux4,BE,Taylor's Café,"Rue Haute 228, 1000 Bruxelles",50.837044899999995,4.3487594,https://maps.google.com/?cid=2214418733711996390&g_mp=Cidnb29nbGUubWFwcy5wbGFjZXMudjEuUGxhY2VzLlNlYXJjaFRleHQQAhgEIAA,coffee_shop,"coffee_shop,cafe,food_store,store,point_of_interest,food,establishment",OPERATIONAL,4.7,471,coffee roaster,Brussels
ChIJF8d9mdtxw0cRaxI__7Nbi4E,BE,WAY Specialty coffee bar,"Jakobijnenstraat 7, 9000 Gent",51.052139,3.7198819999999992,https://maps.google.com/?cid=9334655481295082091&g_mp=Cidnb29nbGUubWFwcy5wbGFjZXMudjEuUGxhY2VzLlNlYXJjaFRleHQQAhgEIAA,bakery,"bakery,food_store,store,point_of_interest,food,establishment",OPERATIONAL,4.6,431,coffee roaster;coffee roastery;specialty coffee roaster,Ghent
ChIJDQouB3D3w0cRK2SrmwGaLfc,BE,Kolonel Coffee Roasters - North,"Ankerrui 15, 2000 Antwerpen",51.22743800000001,4.411472799999999,https://maps.google.com/?cid=17811061433017525291&g_mp=Cidnb29nbGUubWFwcy5wbGFjZXMudjEuUGxhY2VzLlNlYXJjaFRleHQQAhgEIAA,coffee_shop,"coffee_shop,coffee_roastery,breakfast_restaurant,cafe,bar,food_store,store,restaurant,point_of_interest,food,establishment",OPERATIONAL,4.4,414,coffee roaster;coffee roastery;specialty coffee roaster,Brussels
ChIJsxc9Ow_Fw0cRj0NmZL2WSl0,BE,CAFÉ COLOMBIA 🇨🇴,"Av. Maréchal Foch 89, 1030 Schaerbeek",50.870851699999996,4.3752992,https://maps.google.com/?cid=6722351133981295503&g_mp=Cidnb29nbGUubWFwcy5wbGFjZXMudjEuUGxhY2VzLlNlYXJjaFRleHQQAhgEIAA,food_store,"cafe,cafeteria,dessert_shop,confectionery,food_store,wholesaler,store,point_of_interest,food,establishment",OPERATIONAL,4.8,386,coffee roaster;coffee roastery;specialty coffee roaster,Brussels
ChIJ482RzeFxw0cRRjUZx-0fBF0,BE,WAY - Specialty Coffee Shop,"Voldersstraat 58, 9000 Gent",51.0523525,3.7233597000000005,https://maps.google.com/?cid=6702517251542168902&g_mp=Cidnb29nbGUubWFwcy5wbGFjZXMudjEuUGxhY2VzLlNlYXJjaFRleHQQAhgEIAA,food_store,"food_store,store,point_of_interest,food,establishment",OPERATIONAL,4.6,382,coffee roaster;coffee roastery;specialty coffee roaster,Antwerp
ChIJWZjtaSZRw0cRKtouvLTXhE8,BE,DEES Specialty Coffee | BAR & ROASTERY | BRUGGE |,"Hoogstraat 33, 8000 Brugge",51.2099298,3.2300152,https://maps.google.com/?cid=5729941797173385770&g_mp=Cidnb29nbGUubWFwcy5wbGFjZXMudjEuUGxhY2VzLlNlYXJjaFRleHQQAhgEIAA,coffee_roastery,"coffee_roastery,coffee_shop,cafe,food_store,store,point_of_interest,food,establishment",OPERATIONAL,4.7,381,coffee roaster;coffee roastery;specialty coffee roaster,Ghent
ChIJYRDZ-C7Dw0cRcz64R1MGDrw,BE,DRACHE Specialty Coffee Bar,"Quai au Bois à Brûler 11, 1000 Bruxelles",50.8516068,4.3487029999999995,https://maps.google.com/?cid=13550775283559710323&g_mp=Cidnb29nbGUubWFwcy5wbGFjZXMudjEuUGxhY2VzLlNlYXJjaFRleHQQAhgEIAA,coffee_shop,"coffee_shop,cafe,food_store,store,point_of_interest,food,establishment",OPERATIONAL,4.5,378,coffee roaster;coffee roastery;specialty coffee roaster,Brussels
ChIJs_l6Omv3w0cRvxu4S_hqL-U,BE,Rush Rush Coffee,"Lange Altaarstraat 29, 2018 Antwerpen",51.20675,4.4326478,https://maps.google.com/?cid=16514535973245688767&g_mp=Cidnb29nbGUubWFwcy5wbGFjZXMudjEuUGxhY2VzLlNlYXJjaFRleHQQAhgEIAA,coffee_shop,"coffee_shop,cafe,food_store,store,point_of_interest,food,establishment",OPERATIONAL,4.4,376,coffee roaster;coffee roastery;specialty coffee roaster,Antwerp
ChIJndUC7-b3w0cRTHWDtKEJx24,BE,ANDY ROASTERS,"Amerikalei 82, 2000 Antwerpen",51.207700599999995,4.3976581999999995,https://maps.google.com/?cid=7982359454660392268&g_mp=Cidnb29nbGUubWFwcy5wbGFjZXMudjEuUGxhY2VzLlNlYXJjaFRleHQQAhgEIAA,coffee_shop,"coffee_shop,cafe,food_store,store,point_of_interest,food,establishment",OPERATIONAL,4.7,369,coffee roaster;coffee roastery;specialty coffee roaster,Antwerp
ChIJ59-zXEd_wUcRDWI21IbE_VM,BE,HIGH FIVE specialty coffee roastery,"Pl. des Wallons 51, 1348 Ottignies-Louvain-la-Neuve",50.6684006,4.6172309,https://maps.google.com/?cid=6052209557620810253&g_mp=Cidnb29nbGUubWFwcy5wbGFjZXMudjEuUGxhY2VzLlNlYXJjaFRleHQQAhgEIAA,cafe,"cafe,brunch_restaurant,coffee_roastery,coffee_shop,bar,food_store,store,restaurant,point_of_interest,food,establishment",OPERATIONAL,4.7,359,coffee roaster;coffee roastery;specialty coffee roaster,Brussels
ChIJx9gCp51IwUcRQM3zjyAY1yU,BE,Coffee roasters Mokapi 1881,"Eindhoutseweg 41, 2431 Laakdal",51.0792663,4.9858101,https://maps.google.com/?cid=2726674627529264448&g_mp=Cidnb29nbGUubWFwcy5wbGFjZXMudjEuUGxhY2VzLlNlYXJjaFRleHQQAhgEIAA,coffee_roastery,"coffee_roastery,coffee_shop,cafe,gift_shop,food_store,store,point_of_interest,food,establishment",OPERATIONAL,4.8,334,coffee roaster,Antwerp
ChIJc_AZG09xw0cRmCw_BQnhEzI,BE,Vandekerckhove & Bar,"Brabantdam 55, 9000 Gent",51.050316699999996,3.7292555999999997,https://maps.google.com/?cid=3608475155312880792&g_mp=Cidnb29nbGUubWFwcy5wbGFjZXMudjEuUGxhY2VzLlNlYXJjaFRleHQQAhgEIAA,coffee_roastery,"coffee_roastery,coffee_shop,cafe,food_store,store,point_of_interest,food,establishment",OPERATIONAL,4.7,334,coffee roaster;coffee roastery;specialty coffee roaster,Ghent
ChIJm3Ll2_T3w0cRe2YKBLrYuwQ,BE,Mr. Pickles,"Lange Koepoortstraat 9, 2000 Antwerpen",51.2232461,4.402885700000001,https://maps.google.com/?cid=341104490239911547&g_mp=Cidnb29nbGUubWFwcy5wbGFjZXMudjEuUGxhY2VzLlNlYXJjaFRleHQQAhgEIAA,coffee_shop,"coffee_shop,cafe,food_store,store,point_of_interest,food,establishment",OPERATIONAL,4.8,328,coffee roastery,Antwerp
ChIJ_f5Hg1r2w0cR6fj5h1YXdcw,BE,Black & Yellow Coffee bar,"Nassaustraat 7, 2000 Antwerpen",51.2308551,4.4056788,https://maps.google.com/?cid=14732707416428378345&g_mp=Cidnb29nbGUubWFwcy5wbGFjZXMudjEuUGxhY2VzLlNlYXJjaFRleHQQAhgEIAA,coffee_shop,"coffee_shop,cafe,food_store,store,point_of_interest,food,establishment",OPERATIONAL,4.6,325,coffee roaster;coffee roastery,Antwerp
ChIJWRO53lTbw0cRnZh0qVU4kFw,BE,L'artisanal | Cafés & Thés,"Av. Georges Henri 365, 1200 Woluwe-Saint-Lambert",50.8429329,4.409070799999999,https://maps.google.com/?cid=6669892988702070941&g_mp=Cidnb29nbGUubWFwcy5wbGFjZXMudjEuUGxhY2VzLlNlYXJjaFRleHQQAhgEIAA,food_store,"tea_store,coffee_stand,food_store,store,point_of_interest,food,establishment",OPERATIONAL,4.8,319,coffee roaster;coffee roastery;specialty coffee roaster,Brussels
ChIJCZekZgD3w0cREx0j_JpHpYg,BE,Ray's Specialty Coffee,"Handschoenmarkt 13, 2000 Antwerpen",51.220681400000004,4.3999103999999996,https://maps.google.com/?cid=9846354891296152851&g_mp=Cidnb29nbGUubWFwcy5wbGFjZXMudjEuUGxhY2VzLlNlYXJjaFRleHQQAhgEIAA,coffee_shop,"coffee_shop,cafe,food_store,store,point_of_interest,food,establishment",OPERATIONAL,4.6,306,coffee roaster;coffee roastery;specialty coffee roaster,Antwerp
ChIJO6mSnSLFw0cRZy94F2WTAp0,BE,RARE CAFÉ,"Rue des Riches Claires 17, 1000 Bruxelles",50.846910799999996,4.3471926,https://maps.google.com/?cid=11313767276302839655&g_mp=Cidnb29nbGUubWFwcy5wbGFjZXMudjEuUGxhY2VzLlNlYXJjaFRleHQQAhgEIAA,coffee_shop,"coffee_shop,cafe,food_store,store,point_of_interest,food,establishment",OPERATIONAL,4.7,293,coffee roaster,Brussels
ChIJIb1r4Ddxw0cRKotDC2i2uXw,BE,Meadow | Brunch & Waffles,"Donkersteeg 7, 9000 Gent",51.0545699,3.7233727,https://maps.google.com/?cid=8987415089376365354&g_mp=Cidnb29nbGUubWFwcy5wbGFjZXMudjEuUGxhY2VzLlNlYXJjaFRleHQQAhgEIAA,coffee_shop,"coffee_shop,brunch_restaurant,cafe,dessert_shop,confectionery,food_store,store,restaurant,point_of_interest,food,establishment",OPERATIONAL,4.8,280,coffee roaster;coffee roastery;specialty coffee roaster,Ghent
ChIJuxqAC_n3w0cR4PG_qs6t_6A,BE,Melbourne Coffee Berchem,"Burgemeester edgar Ryckaertsplein 1/04, 2600 Berchem",51.2002829,4.4326131,https://maps.google.com/?cid=11601182268269261280&g_mp=Cidnb29nbGUubWFwcy5wbGFjZXMudjEuUGxhY2VzLlNlYXJjaFRleHQQAhgEIAA,coffee_shop,"coffee_shop,cafe,food_store,store,point_of_interest,food,establishment",OPERATIONAL,4.7,259,coffee roaster;coffee roastery;specialty coffee roaster,Antwerp
ChIJM9iUUM_Fw0cR0ToiKDYHIL4,BE,Wide Awake Coffee Espresso Bar,"Rue Lesbroussart 34, 1050 Ixelles",50.827621799999996,4.3694137,https://maps.google.com/?cid=13699957995644009169&g_mp=Cidnb29nbGUubWFwcy5wbGFjZXMudjEuUGxhY2VzLlNlYXJjaFRleHQQAhgEIAA,coffee_shop,"coffee_shop,cafe,food_store,store,point_of_interest,food,establishment",OPERATIONAL,4.8,258,coffee roastery,Brussels
ChIJATQQ6uvFw0cRhACkZ4mCwCo,BE,Café Colombia Specialty Coffee Roaster UCCLE 🇨🇴,"Chau. de Waterloo 1184, 1180 Uccle",50.795342,4.3738073,https://maps.google.com/?cid=3080605671782350980&g_mp=Cidnb29nbGUubWFwcy5wbGFjZXMudjEuUGxhY2VzLlNlYXJjaFRleHQQAhgEIAA,food_store,"coffee_shop,cafe,coffee_stand,dessert_shop,confectionery,food_store,wholesaler,store,restaurant,point_of_interest,food,establishment",OPERATIONAL,4.9,247,coffee roaster;coffee roastery;specialty coffee roaster,Brussels
ChIJvbUB_Vn2w0cRGx0WLW_kv7M,BE,Maona,"Van Schoonbekeplein 23, 2000 Antwerpen",51.227163499999996,4.4054908,https://maps.google.com/?cid=12952322219489762587&g_mp=Cidnb29nbGUubWFwcy5wbGFjZXMudjEuUGxhY2VzLlNlYXJjaFRleHQQAhgEIAA,coffee_shop,"coffee_shop,cafe,food_store,store,point_of_interest,food,establishment",OPERATIONAL,4.5,231,coffee roastery,Antwerp
ChIJ_29iOvb2w0cRZdGtQPMhkgc,BE,Cross Roast Experience Store,"Wisselstraat 7, 2000 Antwerpen",51.221691199999995,4.400615999999999,https://maps.google.com/?cid=545535833511154021&g_mp=Cidnb29nbGUubWFwcy5wbGFjZXMudjEuUGxhY2VzLlNlYXJjaFRleHQQAhgEIAA,food_store,"tea_store,food_store,store,point_of_interest,food,establishment",OPERATIONAL,4.9,230,coffee roaster;coffee roastery;specialty coffee roaster,Brussels
ChIJ63W4m0vFw0cRjfyo_XxL84c,BE,Terres de Café Sablon,"Place du Grand Sablon 49, 1000 Bruxelles",50.8416986,4.3538163999999995,https://maps.google.com/?cid=9796256614664699021&g_mp=Cidnb29nbGUubWFwcy5wbGFjZXMudjEuUGxhY2VzLlNlYXJjaFRleHQQAhgEIAA,coffee_shop,"coffee_shop,cafe,food_store,store,point_of_interest,food,establishment",OPERATIONAL,4.8,227,coffee roastery,Brussels
ChIJkftin4fDw0cReEWqYCPrzoA,BE,Santos Palace Shop Speciality coffee and tea,"Rue du Marché aux Poulets 3, Rue Paul Devaux 13, 1000 Bruxelles",50.8493443,4.3491938,https://maps.google.com/?cid=9281614419235325304&g_mp=Cidnb29nbGUubWFwcy5wbGFjZXMudjEuUGxhY2VzLlNlYXJjaFRleHQQAhgEIAA,food_store,"coffee_shop,cafe,tea_store,home_goods_store,food_store,store,wholesaler,point_of_interest,food,establishment",OPERATIONAL,4.5,225,coffee roaster,Brussels
ChIJ-dn-KABxw0cRpw1cQHpgrDU,BE,Auracoffee,"Ketelpoort 1, 9000 Gent",51.0488195,3.7211526000000004,https://maps.google.com/?cid=3867572258186464679&g_mp=Cidnb29nbGUubWFwcy5wbGFjZXMudjEuUGxhY2VzLlNlYXJjaFRleHQQAhgEIAA,coffee_shop,"coffee_shop,cafe,food_store,store,point_of_interest,food,establishment",OPERATIONAL,4.4,198,coffee roaster;coffee roastery,Ghent
ChIJiy088Dxzw0cReo6LOJJwt_U,BE,Full Circle Coffee - Astrid,"Kon. Astridlaan 218, 9000 Gent",51.036635499999996,3.7128908000000003,https://maps.google.com/?cid=17705744233346600570&g_mp=Cidnb29nbGUubWFwcy5wbGFjZXMudjEuUGxhY2VzLlNlYXJjaFRleHQQAhgEIAA,coffee_shop,"coffee_shop,cafe,food_store,store,point_of_interest,food,establishment",OPERATIONAL,4.3,193,coffee roaster;coffee roastery,Ghent
ChIJkejmGWMfwkcRys_TzyIcTEU,BE,Alchemists Coffee - Coffee Lab,"Rue de la Crêche n°21, 1050 Ixelles",50.833999899999995,4.367961,https://maps.google.com/?cid=4993397022688268234&g_mp=Cidnb29nbGUubWFwcy5wbGFjZXMudjEuUGxhY2VzLlNlYXJjaFRleHQQAhgEIAA,food_store,"food_store,store,point_of_interest,food,establishment",OPERATIONAL,5,179,coffee roaster;specialty coffee roaster,Brussels
ChIJeemSL6dxw0cR0qkWX1W5iHE,BE,terug - SPECIALTY COFFEE,"Jan Frans Willemsstraat 1, 9000 Gent",51.0387021,3.727335,https://maps.google.com/?cid=8180992499437185490&g_mp=Cidnb29nbGUubWFwcy5wbGFjZXMudjEuUGxhY2VzLlNlYXJjaFRleHQQAhgEIAA,coffee_shop,"coffee_shop,cafe,food_store,store,point_of_interest,food,establishment",OPERATIONAL,4.9,179,specialty coffee roaster,Ghent
ChIJuzx-60Vxw0cRkSpV_eHnYmY,BE,Koffiebranderij São Paulo BV,"Koestraat 24, 9000 Gent",51.0510909,3.7256621,https://maps.google.com/?cid=7377714097390168721&g_mp=Cidnb29nbGUubWFwcy5wbGFjZXMudjEuUGxhY2VzLlNlYXJjaFRleHQQAhgEIAA,food_store,"food_store,store,point_of_interest,food,establishment",OPERATIONAL,4.8,171,coffee roaster;coffee roastery,Ghent
ChIJ8VfOZ8XFw0cRDOuYdNTx_LI,BE,Mayabro Coffee Roasters,"Av. des Villas 3, 1060 Saint-Gilles",50.825162399999996,4.3434186,https://maps.google.com/?cid=12897449327673797388&g_mp=Cidnb29nbGUubWFwcy5wbGFjZXMudjEuUGxhY2VzLlNlYXJjaFRleHQQAhgEIAA,coffee_shop,"coffee_shop,cafe,food_store,store,point_of_interest,food,establishment",OPERATIONAL,4.6,164,coffee roaster;coffee roastery;specialty coffee roaster,Brussels
ChIJDU_JA0Rxw0cRX9ry59ZseM0,BE,Javana,"Hoornstraat 7, 9000 Gent",51.052130999999996,3.7213380999999996,https://maps.google.com/?cid=14805703445250759263&g_mp=Cidnb29nbGUubWFwcy5wbGFjZXMudjEuUGxhY2VzLlNlYXJjaFRleHQQAhgEIAA,food_store,"tea_store,coffee_shop,coffee_roastery,tea_house,cafe,point_of_interest,food_store,store,food,establishment",OPERATIONAL,4.1,161,coffee roastery,Ghent
ChIJU9JYXIfDw0cRn-dcE0bGhNg,BE,CORICA Comptoir Oriental des Cafés,"Rue du Marché aux Poulets 49, 1000 Bruxelles",50.8484689,4.351064,https://maps.google.com/?cid=15601813013393106847&g_mp=Cidnb29nbGUubWFwcy5wbGFjZXMudjEuUGxhY2VzLlNlYXJjaFRleHQQAhgEIAA,coffee_shop,"coffee_shop,cafe,food_store,store,point_of_interest,food,establishment",OPERATIONAL,4.7,158,coffee roaster;coffee roastery,Brussels
ChIJ73Ua4zJRwkcRlkNPpp5DCxU,BE,Jolicoeur coffee roasters,"Rue d'Enghien 3, 7000 Mons",50.454284099999995,3.9515575,https://maps.google.com/?cid=1516380048214410134&g_mp=Cidnb29nbGUubWFwcy5wbGFjZXMudjEuUGxhY2VzLlNlYXJjaFRleHQQAhgEIAA,coffee_shop,"coffee_shop,cafe,food_store,store,point_of_interest,food,establishment",OPERATIONAL,5,155,coffee roaster,Brussels
ChIJWys2KAP3w0cRTg_QxlBPSjw,BE,Tartoer Ossenmarkt,"Ossenmarkt 23, 2000 Antwerpen",51.221615199999995,4.4134527,https://maps.google.com/?cid=4344371998903766862&g_mp=Cidnb29nbGUubWFwcy5wbGFjZXMudjEuUGxhY2VzLlNlYXJjaFRleHQQAhgEIAA,coffee_shop,"coffee_shop,cafe,food_store,store,point_of_interest,food,establishment",OPERATIONAL,4.4,155,coffee roaster;specialty coffee roaster,Antwerp
ChIJidyz-zbfwkcRCsSbGOdRl8c,BE,Elephant coffee,"Grand'Place 30, 7500 Tournai, Belgium",50.6069416,3.3863428,https://maps.google.com/?cid=14382053988023125002&g_mp=Cidnb29nbGUubWFwcy5wbGFjZXMudjEuUGxhY2VzLlNlYXJjaFRleHQQAhgEIAA,coffee_shop,"coffee_shop,cafe,food_store,store,restaurant,point_of_interest,food,establishment",OPERATIONAL,4.9,140,coffee roaster,Lille
ChIJn-3hE_pxw0cRZwAP5uU2iNg,BE,De Dikke Ziel,"Slachthuisstraat 68, 9000 Gent",51.052769999999995,3.7377290000000003,https://maps.google.com/?cid=15602781270060236903&g_mp=Cidnb29nbGUubWFwcy5wbGFjZXMudjEuUGxhY2VzLlNlYXJjaFRleHQQAhgEIAA,coffee_shop,"coffee_shop,cafe,meal_takeaway,home_goods_store,food_store,store,restaurant,point_of_interest,food,establishment",OPERATIONAL,4.9,137,coffee roaster;specialty coffee roaster,Ghent
ChIJORYKPWbEw0cRPj09_t64f4M,BE,Cafés De Pauw,"Chau. de Waterloo 39, 1060 Bruxelles",50.831189599999995,4.3444753,https://maps.google.com/?cid=9475495408898489662&g_mp=Cidnb29nbGUubWFwcy5wbGFjZXMudjEuUGxhY2VzLlNlYXJjaFRleHQQAhgEIAA,food_store,"coffee_roastery,tea_store,food_store,store,point_of_interest,food,establishment",OPERATIONAL,4.8,131,coffee roastery,Brussels
ChIJV_g-jon3w0cRXQR5GMrQv0o,BE,Caffénation goes Koco,"Volkstraat 2, 2000 Antwerpen",51.2119549,4.3966953,https://maps.google.com/?cid=5386253245770957917&g_mp=Cidnb29nbGUubWFwcy5wbGFjZXMudjEuUGxhY2VzLlNlYXJjaFRleHQQAhgEIAA,cafe,"cafe,point_of_interest,food,establishment",OPERATIONAL,4.5,120,coffee roaster;coffee roastery;specialty coffee roaster,Antwerp
ChIJH6-e2XZ3w0cR0B0n6EvET14,BE,WAY Specialty Coffee Bakery,"Brusselsesteenweg 4, 9050 Gent",51.041121,3.7405461,https://maps.google.com/?cid=6795866193021836752&g_mp=Cidnb29nbGUubWFwcy5wbGFjZXMudjEuUGxhY2VzLlNlYXJjaFRleHQQAhgEIAA,bakery,"bakery,coffee_shop,cafe,food_store,store,point_of_interest,food,establishment",OPERATIONAL,4.6,100,coffee roaster;coffee roastery;specialty coffee roaster,Ghent
ChIJ09iTI4f3w0cR0OO9G8OYrUM,BE,Koffie De Vlijt - Winkel,"Gallifortlei 275, 2100 Antwerpen",51.2262871,4.4660816,https://maps.google.com/?cid=4876721935263589328&g_mp=Cidnb29nbGUubWFwcy5wbGFjZXMudjEuUGxhY2VzLlNlYXJjaFRleHQQAhgEIAA,coffee_roastery,"coffee_roastery,tea_store,food_store,store,point_of_interest,food,establishment",OPERATIONAL,4.7,81,coffee roastery,Antwerp
ChIJLS3E_4-oxkcRJgUHNHZPbLk,BE,Taeymans Coffee Roasters ☕,"Meerseweg 80 B, 2322 Hoogstraten",51.4274696,4.7568953,https://maps.google.com/?cid=13361141563599029542&g_mp=Cidnb29nbGUubWFwcy5wbGFjZXMudjEuUGxhY2VzLlNlYXJjaFRleHQQAhgEIAA,wholesaler,"coffee_roastery,food_store,wholesaler,store,point_of_interest,supplier,food,establishment",OPERATIONAL,4.8,80,coffee roaster,Antwerp
ChIJc4BXzuwNw0cR83g_QuRnL8k,BE,Ooja Koffiebranderij | Conceptstore & Koffiebar,"Nijverheidsstraat 69a, 9890 Gavere",50.9208435,3.6810522,https://maps.google.com/?cid=14496919955590576371&g_mp=Cidnb29nbGUubWFwcy5wbGFjZXMudjEuUGxhY2VzLlNlYXJjaFRleHQQAhgEIAA,coffee_roastery,"coffee_roastery,coffee_shop,cafe,point_of_interest,food_store,store,food,establishment",OPERATIONAL,4.9,76,coffee roastery,Ghent
ChIJWWmPj8H3w0cRYClQl4ScrIg,BE,Mister Barish Beans & Machines,"Oudaan 4, 2000 Antwerpen",51.2156543,4.4024757,https://maps.google.com/?cid=9848418578440661344&g_mp=Cidnb29nbGUubWFwcy5wbGFjZXMudjEuUGxhY2VzLlNlYXJjaFRleHQQAhgEIAA,coffee_roastery,"coffee_roastery,food_store,wholesaler,store,point_of_interest,supplier,food,establishment",OPERATIONAL,4.4,68,coffee roaster;coffee roastery,Antwerp
ChIJASZtomT0w0cRhowHWjQk6Mo,BE,coffeeRoots,"Kasteleinsstraat 19, 9150 Beveren-Kruibeke-Zwijndrecht",51.1930329,4.3109245,https://maps.google.com/?cid=14620975997525658758&g_mp=Cidnb29nbGUubWFwcy5wbGFjZXMudjEuUGxhY2VzLlNlYXJjaFRleHQQAhgEIAA,coffee_roastery,"coffee_roastery,point_of_interest,food,establishment",OPERATIONAL,4.3,67,coffee roaster;coffee roastery,Antwerp
ChIJu9SV-SE7w0cRJH8MYjhVFeI,BE,Wilmandas Coffee,"Lange-Steenstraat 13a, 8500 Kortrijk, Belgium",50.8264613,3.2676137000000005,https://maps.google.com/?cid=16291020927734152996&g_mp=Cidnb29nbGUubWFwcy5wbGFjZXMudjEuUGxhY2VzLlNlYXJjaFRleHQQAhgEIAA,food_store,"coffee_shop,coffee_roastery,cafe,point_of_interest,food_store,store,food,establishment",OPERATIONAL,5,65,coffee roastery,Lille
ChIJWUYgup3zw0cREqIOd9LYZe4,BE,ROSS Specialty Coffee Shop,"Edmond Gorrebeeckstraat 13, 9150 Beveren-Kruibeke-Zwijndrecht",51.1698321,4.3100005999999995,https://maps.google.com/?cid=17178374752126804498&g_mp=Cidnb29nbGUubWFwcy5wbGFjZXMudjEuUGxhY2VzLlNlYXJjaFRleHQQAhgEIAA,coffee_roastery,"coffee_roastery,catering_service,tea_store,food_delivery,food_store,store,wholesaler,supplier,service,point_of_interest,food,establishment",OPERATIONAL,4.7,61,coffee roastery,Antwerp
ChIJb4yK8tN3w0cRXN-TjEVa34o,BE,Bakkie Gent,"Ledebergplein, 9050 Gent",51.037369,3.7415371,https://maps.google.com/?cid=10006816151798275932&g_mp=Cidnb29nbGUubWFwcy5wbGFjZXMudjEuUGxhY2VzLlNlYXJjaFRleHQQAhgEIAA,coffee_shop,"coffee_shop,cafe,point_of_interest,food_store,store,food,establishment",OPERATIONAL,5,54,coffee roastery,Ghent
ChIJ1Ri0evLXw0cRJh8ZsDEWdWw,BE,"la p'tite cerise ""Specialty Coffee Roaster""","Av. de Mérode 87, 1330 Rixensart",50.7117133,4.5212143,https://maps.google.com/?cid=7815177131035008806&g_mp=Cidnb29nbGUubWFwcy5wbGFjZXMudjEuUGxhY2VzLlNlYXJjaFRleHQQAhgEIAA,food_store,"coffee_shop,cafe,tea_store,grocery_store,food_store,store,point_of_interest,food,establishment",OPERATIONAL,4.8,51,coffee roaster;specialty coffee roaster,Brussels
ChIJBeWNHatxw0cR3UZew5fnqQk,BE,"Koffiebar El Barista - Gent | Specialty Coffee, Pastries & Waffles","Schouwburgstraat 8, 9000 Gent",51.049885499999995,3.7219254999999998,https://maps.google.com/?cid=696342256409265885&g_mp=Cidnb29nbGUubWFwcy5wbGFjZXMudjEuUGxhY2VzLlNlYXJjaFRleHQQAhgEIAA,coffee_shop,"coffee_shop,cafe,food_store,store,point_of_interest,food,establishment",OPERATIONAL,4.8,45,coffee roaster;coffee roastery;specialty coffee roaster,Ghent
ChIJd-s9sFrDw0cRJPiyMff7WaM,BE,Koffiebranderij Van Dael,"Rue Marie-Christine 134, 1020 Bruxelles",50.8755861,4.3530883,https://maps.google.com/?cid=11770716140218808356&g_mp=Cidnb29nbGUubWFwcy5wbGFjZXMudjEuUGxhY2VzLlNlYXJjaFRleHQQAhgEIAA,food_store,"food_store,store,point_of_interest,food,establishment",OPERATIONAL,4.9,45,coffee roaster;specialty coffee roaster,Brussels
ChIJTff9r2cww0cRKc8f5wyach8,BE,Grootmoeders Koffie,"Kleine Ieperstraat 11, 8560 Wevelgem, Belgium",50.835162100000005,3.1967811,https://maps.google.com/?cid=2266042942728687401&g_mp=Cidnb29nbGUubWFwcy5wbGFjZXMudjEuUGxhY2VzLlNlYXJjaFRleHQQAhgEIAA,coffee_roastery,"coffee_roastery,tea_store,food_store,store,wholesaler,supplier,point_of_interest,food,establishment",OPERATIONAL,4.7,43,coffee roastery,Lille
ChIJs0g1-kZxw0cRHlnsbQIqaNo,BE,Koffies De Draak,"Kerkstraat 108, 9050 Gent",51.0448561,3.7514575999999997,https://maps.google.com/?cid=15737875087768705310&g_mp=Cidnb29nbGUubWFwcy5wbGFjZXMudjEuUGxhY2VzLlNlYXJjaFRleHQQAhgEIAA,coffee_roastery,"coffee_roastery,tea_store,wholesaler,point_of_interest,food_store,store,food,establishment",OPERATIONAL,4.5,39,coffee roastery,Ghent
ChIJ6xIrexjqw0cRdNAhgiA7hy0,BE,Style Coffee,"Dooren 109, 1785 Merchtem",50.951308999999995,4.244999,https://maps.google.com/?cid=3280655864370942068&g_mp=Cidnb29nbGUubWFwcy5wbGFjZXMudjEuUGxhY2VzLlNlYXJjaFRleHQQAhgEIAA,coffee_roastery,"coffee_roastery,point_of_interest,food,establishment",OPERATIONAL,4.9,39,coffee roastery,Brussels
ChIJKa65N72fw0cRCdvEkZr2vfY,BE,OR Coffee Roasters,"Dorpsstraat 31, 9230 Wetteren",50.9708238,3.8651899000000003,https://maps.google.com/?cid=17779638047659580169&g_mp=Cidnb29nbGUubWFwcy5wbGFjZXMudjEuUGxhY2VzLlNlYXJjaFRleHQQAhgEIAA,coffee_roastery,"coffee_roastery,point_of_interest,food,establishment",OPERATIONAL,4.9,34,coffee roaster;coffee roastery;specialty coffee roaster,Brussels
ChIJbW_s34jDw0cRPdsa3njHMyg,BE,Cafe L'atmosphère,"Rue Antoine Dansaert 143, 1000 Bruxelles",50.852231599999996,4.3437127,https://maps.google.com/?cid=2896878307265665853&g_mp=Cidnb29nbGUubWFwcy5wbGFjZXMudjEuUGxhY2VzLlNlYXJjaFRleHQQAhgEIAA,cafe,"cafe,point_of_interest,food,establishment",OPERATIONAL,4.3,31,coffee roastery,Brussels
ChIJnwBxPADlw0cRQXAUgsU1Qdg,BE,Kaffefabrik,"Haverwerf 1, 2800 Mechelen",51.026052799999995,4.475990599999999,https://maps.google.com/?cid=15582795308085833793&g_mp=Cidnb29nbGUubWFwcy5wbGFjZXMudjEuUGxhY2VzLlNlYXJjaFRleHQQAhgEIAA,coffee_roastery,"coffee_roastery,point_of_interest,food,establishment",OPERATIONAL,4.8,31,coffee roastery,Brussels
ChIJue0qeMI1w0cRiBvs6Z2XPG8,BE,Koffiemakers - Specialty coffee roasters,"Ooststraat 15, 8800 Roeselare",50.945844099999995,3.124851,https://maps.google.com/?cid=8015448141302864776&g_mp=Cidnb29nbGUubWFwcy5wbGFjZXMudjEuUGxhY2VzLlNlYXJjaFRleHQQAhgEIAA,coffee_roastery,"coffee_roastery,point_of_interest,food,establishment",OPERATIONAL,4.9,30,coffee roaster;coffee roastery,Ghent
ChIJayL76ejRw0cRZd-dPdYTkuk,BE,La Baie Coffee Roasters,"Chau. de Bruxelles 161, 1410 Waterloo",50.7172096,4.3982164,https://maps.google.com/?cid=16830536568314650469&g_mp=Cidnb29nbGUubWFwcy5wbGFjZXMudjEuUGxhY2VzLlNlYXJjaFRleHQQAhgEIAA,coffee_shop,"coffee_shop,cafe,food_store,store,point_of_interest,food,establishment",OPERATIONAL,4.4,27,coffee roaster;coffee roastery;specialty coffee roaster,Brussels
ChIJ-wxcabslw0cRxgE75MX-RcQ,BE,STORME Coffee Roasters,"Rue du Plavitout 166, 7700 Mouscron",50.7501642,3.2422267999999996,https://maps.google.com/?cid=14142990330717995462&g_mp=Cidnb29nbGUubWFwcy5wbGFjZXMudjEuUGxhY2VzLlNlYXJjaFRleHQQAhgEIAA,food_store,"food_store,store,wholesaler,point_of_interest,food,establishment",OPERATIONAL,4.8,26,coffee roaster;coffee roastery;specialty coffee roaster,Ghent
ChIJUR-7ZUv2w0cR6vrDcv7JbGE,BE,St-Michel,"Asiadok-Oostkaai 28/A, 2030 Antwerpen",51.2371584,4.418048199999999,https://maps.google.com/?cid=7020208013848083178&g_mp=Cidnb29nbGUubWFwcy5wbGFjZXMudjEuUGxhY2VzLlNlYXJjaFRleHQQAhgEIAA,coffee_roastery,"coffee_roastery,point_of_interest,food,establishment",OPERATIONAL,4.5,26,coffee roastery,Antwerp
ChIJfaGpM-rPw0cRV7zy3NFTLf4,BE,Gust Coffee Roasters,"A. Vaucampslaan 28/Unit 8, 1654 Beersel",50.752945499999996,4.2623822,https://maps.google.com/?cid=18315387420405840983&g_mp=Cidnb29nbGUubWFwcy5wbGFjZXMudjEuUGxhY2VzLlNlYXJjaFRleHQQAhgEIAA,coffee_roastery,"coffee_roastery,food_store,wholesaler,store,point_of_interest,supplier,food,establishment",OPERATIONAL,5,23,coffee roaster;coffee roastery;specialty coffee roaster,Brussels
ChIJI8Vg0v4Sw0cRAll4iIEgRZI,BE,Buizerd & Saars ambachtelijke koffiebranderij,"Neerrechemstraat 11A, 9770 Kr",50.919028,3.5790186,https://maps.google.com/?cid=10539866243642972418&g_mp=Cidnb29nbGUubWFwcy5wbGFjZXMudjEuUGxhY2VzLlNlYXJjaFRleHQQAhgEIAA,coffee_roastery,"coffee_roastery,point_of_interest,food,establishment",OPERATIONAL,5,21,coffee roastery,Ghent
