place_id,market,name,addr,lat,lng,maps_url,primary_type,types,business_status,rating,user_rating_count,found_via_query,found_via_region
ChIJ4fPSJ3wTXz4RdsdOVXsUriI,HK,Roasters Specialty Coffee House JBR & NFT Gallery,Amwaj - Marsa Dubai - Jumeirah Beach Residence - Dubai - United Arab Emirates,25.0742649,55.130948499999995,https://maps.google.com/?cid=2498957363181963126&g_mp=Cidnb29nbGUubWFwcy5wbGFjZXMudjEuUGxhY2VzLlNlYXJjaFRleHQQAhgEIAA,coffee_shop,"coffee_shop,cafe,food_store,store,food,point_of_interest,establishment",OPERATIONAL,4.9,4756,specialty coffee roaster,HK_SaiKung
ChIJ_5lZxVwABDQR5n9qhZtGvQQ,HK,Bakehouse,灣仔大王東街14號,22.2758732,114.17138759999999,https://maps.google.com/?cid=341506780522250214&g_mp=Cidnb29nbGUubWFwcy5wbGFjZXMudjEuUGxhY2VzLlNlYXJjaFRleHQQAhgEIAA,bakery,"bakery,coffee_shop,breakfast_restaurant,cafe,brunch_restaurant,pastry_shop,dessert_shop,confectionery,food_store,store,restaurant,point_of_interest,food,establishment",OPERATIONAL,4.4,3202,咖啡烘焙室,HK_Central
ChIJQboZtNhfXz4RFvKQyydmFDg,HK,Roasters Specialty Coffee House Al Wasl,Villa 11 - 484a Al Wasl Rd - Jumeirah - Jumeira Second - Dubai - United Arab Emirates,25.196437,55.2460455,https://maps.google.com/?cid=4040967086763209238&g_mp=Cidnb29nbGUubWFwcy5wbGFjZXMudjEuUGxhY2VzLlNlYXJjaFRleHQQAhgEIAA,coffee_shop,"coffee_shop,cafe,food_store,store,point_of_interest,food,establishment",OPERATIONAL,4.8,3035,specialty coffee roaster,HK_YuenLong
ChIJBQQXwrUBBDQRuF7yIgthafA,HK,Bakehouse,尖沙咀漢口道44號,22.2978445,114.1711359,https://maps.google.com/?cid=17323484142116167352&g_mp=Cidnb29nbGUubWFwcy5wbGFjZXMudjEuUGxhY2VzLlNlYXJjaFRleHQQAhgEIAA,bakery,"bakery,coffee_shop,cafe,pastry_shop,dessert_shop,confectionery,food_store,store,point_of_interest,food,establishment",OPERATIONAL,4.4,2683,咖啡烘焙室,HK_Central
ChIJKWtr4KEBBDQR409tdnXjioU,HK,Bakehouse,中環士丹頓街5號,22.2817302,114.153144,https://maps.google.com/?cid=9622753647468040163&g_mp=Cidnb29nbGUubWFwcy5wbGFjZXMudjEuUGxhY2VzLlNlYXJjaFRleHQQAhgEIAA,bakery,"bakery,coffee_shop,cafe,pastry_shop,dessert_shop,confectionery,food_store,store,point_of_interest,food,establishment",OPERATIONAL,4.5,2296,咖啡烘焙,HK_Central
ChIJAQAhpH4ABDQRJ9C5gcbz0II,HK,Halfway Coffee,"26號 Upper Lascar Row, Sheung Wan",22.2846615,114.14977239999999,https://maps.google.com/?cid=9426302053991960615&g_mp=Cidnb29nbGUubWFwcy5wbGFjZXMudjEuUGxhY2VzLlNlYXJjaFRleHQQAhgEIAA,coffee_shop,"coffee_shop,cafe,food_store,store,point_of_interest,food,establishment",OPERATIONAL,4.5,1453,coffee roaster;coffee roastery;specialty coffee roaster,HK_Central
ChIJ0Q_xB_IABDQRO6vXIr2gBPE,HK,Urban Coffee Roaster (Tsim Sha Tsui),"7 Bristol Ave, Tsim Sha Tsui",22.2973689,114.17289339999999,https://maps.google.com/?cid=17367182797241297723&g_mp=Cidnb29nbGUubWFwcy5wbGFjZXMudjEuUGxhY2VzLlNlYXJjaFRleHQQAhgEIAA,coffee_shop,"coffee_shop,cafe,food_store,store,point_of_interest,food,establishment",OPERATIONAL,4.2,1344,coffee roaster;coffee roastery;specialty coffee roaster;咖啡烘焙,HK_Central
ChIJ5WsaZesABDQR0OdTgK69v9M,HK,Studio Caffeine,"284 Temple St, Jordan",22.3039427,114.1697562,https://maps.google.com/?cid=15258122619729471440&g_mp=Cidnb29nbGUubWFwcy5wbGFjZXMudjEuUGxhY2VzLlNlYXJjaFRleHQQAhgEIAA,coffee_shop,"coffee_shop,cafe,point_of_interest,food_store,store,food,establishment",OPERATIONAL,4.2,1338,coffee roastery,HK_SheungWan
ChIJN5rXM3_5AzQRvwI877_AxGM,HK,"Tasse Coffee 咖啡教育中心 SCA Premier Training Campus (Q-Grader, SCA, City & Guilds, Latte Art, TQUK, IBM 咖啡課程、手沖及拉花班、團體及NGO活動合作)","葵涌大連排道6E號, TLP132, 6e, 6樓E室",22.3597487,114.132184,https://maps.google.com/?cid=7189082835775128255&g_mp=Cidnb29nbGUubWFwcy5wbGFjZXMudjEuUGxhY2VzLlNlYXJjaFRleHQQAhgEIAA,educational_institution,"coffee_roastery,wholesaler,educational_institution,point_of_interest,supplier,food,establishment",OPERATIONAL,5,1314,咖啡烘焙;咖啡烘焙室;coffee roastery,HK_Central
ChIJb7BMHO4ABDQRdd8G_JKTARY,HK,N1 Cafe,"Tsim Sha Tsui, Mody Rd, 34號G鋪",22.2971506,114.17466069999999,https://maps.google.com/?cid=1585710803313942389&g_mp=Cidnb29nbGUubWFwcy5wbGFjZXMudjEuUGxhY2VzLlNlYXJjaFRleHQQAhgEIAA,cafe,"cafe,point_of_interest,food,establishment",OPERATIONAL,4.2,1302,coffee roaster;咖啡烘焙室,HK_TsimShaTsui
ChIJ3VtwXnsABDQRi0eCtkOsA98,HK,Cupping Room (Central),"1/F, Hilltop Plaza, 49 Hollywood Rd, Central",22.282664399999998,114.1533882,https://maps.google.com/?cid=16069877302212839307&g_mp=Cidnb29nbGUubWFwcy5wbGFjZXMudjEuUGxhY2VzLlNlYXJjaFRleHQQAhgEIAA,coffee_shop,"coffee_shop,cafe,food_store,store,point_of_interest,food,establishment",OPERATIONAL,4,1124,coffee roaster;coffee roastery;specialty coffee roaster,HK_Central
ChIJETA22cUBBDQRKF5fq2vxhDY,HK,Bakehouse,銅鑼灣啓超道16號,22.279408399999998,114.1840529,https://maps.google.com/?cid=3928530219712863784&g_mp=Cidnb29nbGUubWFwcy5wbGFjZXMudjEuUGxhY2VzLlNlYXJjaFRleHQQAhgEIAA,bakery,"bakery,coffee_shop,cafe,pastry_shop,dessert_shop,confectionery,food_store,store,point_of_interest,food,establishment",OPERATIONAL,4.4,1031,咖啡烘焙,HK_CausewayBay
ChIJ78BkB70FBDQRP-ddLYuwhGs,HK,Little Cove Espresso,"Siu Yat Building Block A, Shop 1+2, G/F, Sai Kung Town Villa Block A, Sai Kung Hoi Pong Square, Sai Kung",22.3809644,114.27339529999999,https://maps.google.com/?cid=7747511370792167231&g_mp=Cidnb29nbGUubWFwcy5wbGFjZXMudjEuUGxhY2VzLlNlYXJjaFRleHQQAhgEIAA,coffee_shop,"coffee_shop,cafe,food_store,store,food,point_of_interest,establishment",OPERATIONAL,4.3,967,咖啡烘焙;咖啡烘焙室,HK_SaiKung
ChIJj781aYH_AzQR07J8UAj7Brs,HK,NOC (Sai Ying Pun),"321 Des Voeux Rd W, Sai Ying Pun",22.287696699999998,114.13930309999999,https://maps.google.com/?cid=13476734948081447635&g_mp=Cidnb29nbGUubWFwcy5wbGFjZXMudjEuUGxhY2VzLlNlYXJjaFRleHQQAhgEIAA,coffee_shop,"coffee_shop,brunch_restaurant,coffee_roastery,cafe,food_store,store,restaurant,point_of_interest,food,establishment",OPERATIONAL,4.2,886,coffee roaster;coffee roastery;specialty coffee roaster;咖啡烘焙;咖啡烘焙室,HK_Central
ChIJ96yQBmZS_xMRpDpztPAG_3o,HK,Accro Coffee,元朗元朗安寧路162-164號地下D舖,22.446167,114.0225749,https://maps.google.com/?cid=8862810222577793700&g_mp=Cidnb29nbGUubWFwcy5wbGFjZXMudjEuUGxhY2VzLlNlYXJjaFRleHQQAhgEIAA,cafe,"cafe,coffee_roastery,coffee_shop,food_store,store,point_of_interest,food,establishment",OPERATIONAL,4.4,874,coffee roaster;咖啡烘焙室;coffee roastery;specialty coffee roaster,HK_TuenMun
ChIJ31T-ZcYABDQRtavCaCmfsd4,HK,Knockbox Coffee Company,"23號 Hak Po St, Mong Kok",22.3176204,114.17255829999999,https://maps.google.com/?cid=16046781947497851829&g_mp=Cidnb29nbGUubWFwcy5wbGFjZXMudjEuUGxhY2VzLlNlYXJjaFRleHQQAhgEIAA,cafe,"cafe,point_of_interest,food,establishment",OPERATIONAL,4.3,847,coffee roaster;specialty coffee roaster,HK_TsimShaTsui
ChIJz3I7OewABDQRKfpX9szTycI,HK,Espresso Alchemy,"Shop 113B, 1/F, Mira Place 1, 132 Nathan Rd, Tsim Sha Tsui",22.3008171,114.17219949999999,https://maps.google.com/?cid=14035982590936611369&g_mp=Cidnb29nbGUubWFwcy5wbGFjZXMudjEuUGxhY2VzLlNlYXJjaFRleHQQAhgEIAA,cafe,"cafe,point_of_interest,food,establishment",OPERATIONAL,4.2,829,coffee roastery;咖啡烘焙室,HK_TsimShaTsui
ChIJIzJjY38ABDQRs_dWJUslc-A,HK,Winstons Coffee - Sai Ying Pun,"Shop 4, G/F Rich Court, 213 Queen's Rd W, Sai Ying Pun",22.287039999999998,114.14427200000002,https://maps.google.com/?cid=16173311691496814515&g_mp=Cidnb29nbGUubWFwcy5wbGFjZXMudjEuUGxhY2VzLlNlYXJjaFRleHQQAhgEIAA,coffee_shop,"coffee_shop,cafe,food_store,store,point_of_interest,food,establishment",OPERATIONAL,4.4,812,coffee roaster;specialty coffee roaster;咖啡烘焙室,HK_Central
ChIJxwGwYFUBBDQRV9stt6s6X3A,HK,Halfway Coffee (Hoi On Cafe),"G/F, 17 Connaught Rd W, Sai Ying Pun",22.287759599999998,114.1494458,https://maps.google.com/?cid=8097255164222495575&g_mp=Cidnb29nbGUubWFwcy5wbGFjZXMudjEuUGxhY2VzLlNlYXJjaFRleHQQAhgEIAA,coffee_shop,"coffee_shop,cafe,food_store,store,point_of_interest,food,establishment",OPERATIONAL,4.2,805,coffee roaster;coffee roastery,HK_Central
ChIJAQAcUR_7AzQRJ24Gpy_SHac,HK,BYOB Coffee Roaster,"Tuen Mun, Tsing To Path, 5號紅橋 文翔大廈 地下 2ACD",22.4010294,113.9779004,https://maps.google.com/?cid=12042012080766086695&g_mp=Cidnb29nbGUubWFwcy5wbGFjZXMudjEuUGxhY2VzLlNlYXJjaFRleHQQAhgEIAA,restaurant,"restaurant,food_store,store,point_of_interest,food,establishment",OPERATIONAL,4.4,802,coffee roaster;coffee roastery;specialty coffee roaster;咖啡烘焙;咖啡烘焙室,HK_ShamShuiPo
ChIJ8QWaCkQBBDQRY5tcpyfLPJ4,HK,Marouf Coffee,"Shop 3, Ground Floor, 8 Observatory Rd, Tsim Sha Tsui",22.301102399999998,114.1756731,https://maps.google.com/?cid=11402211727767280483&g_mp=Cidnb29nbGUubWFwcy5wbGFjZXMudjEuUGxhY2VzLlNlYXJjaFRleHQQAhgEIAA,coffee_shop,"coffee_shop,cafe,food_store,store,point_of_interest,food,establishment",OPERATIONAL,4.6,585,咖啡烘焙,HK_TsimShaTsui
ChIJH0Ys5GIABDQREsy45O6P9hg,HK,% Arabica (IFC),"Shop 1050, Level 1, IFC Mall, 8 Finance St, Central",22.2862513,114.157693,https://maps.google.com/?cid=1798783357383396370&g_mp=Cidnb29nbGUubWFwcy5wbGFjZXMudjEuUGxhY2VzLlNlYXJjaFRleHQQAhgEIAA,coffee_shop,"coffee_shop,cafe,point_of_interest,food_store,store,food,establishment",OPERATIONAL,4.1,562,咖啡烘焙;咖啡烘焙室,HK_Central
ChIJNQHY2C0BBDQRBQ266RPeWDc,HK,Blue Bottle Coffee (Lyndhurst Terrace),"38-42 Lyndhurst Terrace, Central",22.2824198,114.15415189999999,https://maps.google.com/?cid=3988181647143603461&g_mp=Cidnb29nbGUubWFwcy5wbGFjZXMudjEuUGxhY2VzLlNlYXJjaFRleHQQAhgEIAA,coffee_shop,"coffee_shop,cafe,food_store,store,point_of_interest,food,establishment",OPERATIONAL,4.2,550,coffee roastery,HK_Central
ChIJzRpFvzYBBDQR6RYlrhLKJLQ,HK,n.o.t. Specialty Coffee (Hysan Place),"HK Hong Kong Island 9/F, 500 Hennessy Rd, Causeway Bay",22.2798226,114.1837972,https://maps.google.com/?cid=12980722207568500457&g_mp=Cidnb29nbGUubWFwcy5wbGFjZXMudjEuUGxhY2VzLlNlYXJjaFRleHQQAhgEIAA,coffee_shop,"coffee_shop,cafe,food_store,store,point_of_interest,food,establishment",OPERATIONAL,3.8,542,specialty coffee roaster,HK_Central
ChIJ00hAXb0FBDQRC_DdgoX6e5Q,HK,Sai Kung Cafe & Bakery,"G/F, 6-7 Kam Po Court, 2 Hoi Pong Square, Sai Kung, Sai Kung",22.381203799999998,114.2731611,https://maps.google.com/?cid=10699420791081922571&g_mp=Cidnb29nbGUubWFwcy5wbGFjZXMudjEuUGxhY2VzLlNlYXJjaFRleHQQAhgEIAA,bakery,"bakery,food_store,store,food,point_of_interest,establishment",OPERATIONAL,3.7,534,咖啡烘焙,HK_SaiKung
ChIJ03naqkUBBDQRwOCZd0UbUVk,HK,The Hunt Coffee & Roastery,"Shop A&B, KOHO,, 75 Hung To Rd, Kwun Tong",22.3087993,114.2240834,https://maps.google.com/?cid=6435955327662416064&g_mp=Cidnb29nbGUubWFwcy5wbGFjZXMudjEuUGxhY2VzLlNlYXJjaFRleHQQAhgEIAA,western_restaurant,"western_restaurant,restaurant,point_of_interest,food,establishment",OPERATIONAL,4,533,coffee roastery;specialty coffee roaster,HK_MongKok
ChIJicXbDw73AzQRGYvZDzSyF24,HK,CoHee Studio,錦田錦田市街152號,22.4404745,114.0612807,https://maps.google.com/?cid=7933005205310376729&g_mp=Cidnb29nbGUubWFwcy5wbGFjZXMudjEuUGxhY2VzLlNlYXJjaFRleHQQAhgEIAA,coffee_shop,"coffee_shop,cafe,food_store,store,point_of_interest,food,establishment",OPERATIONAL,4.3,516,咖啡烘焙室,HK_YuenLong
ChIJ4-6wtZgBBDQRkUhC8o89pPw,HK,Chart Coffee (Central Market),"Shop 218, 2/F, 93 Queen's Road Central, Central",22.283943999999998,114.1555478,https://maps.google.com/?cid=18204743282192435345&g_mp=Cidnb29nbGUubWFwcy5wbGFjZXMudjEuUGxhY2VzLlNlYXJjaFRleHQQAhgEIAA,coffee_shop,"coffee_shop,cafe,food_store,store,point_of_interest,food,establishment",OPERATIONAL,4.7,506,coffee roaster;coffee roastery;specialty coffee roaster,HK_Central
ChIJxSWqCPUBBDQR8gdYC_CAPfg,HK,Espresso Alchemy (海港城店),"Shop G104, G/F, Gateway Arcade, Harbour City, 25 Canton Rd, Tsim Sha Tsui",22.299510899999998,114.16792919999999,https://maps.google.com/?cid=17887595063456303090&g_mp=Cidnb29nbGUubWFwcy5wbGFjZXMudjEuUGxhY2VzLlNlYXJjaFRleHQQAhgEIAA,coffee_shop,"coffee_shop,cafe,food_store,store,point_of_interest,food,establishment",OPERATIONAL,4.5,501,咖啡烘焙;咖啡烘焙室,HK_TsimShaTsui
ChIJWwKCvHsABDQRuS8cvcaIUDg,HK,Hazel & Hershey Coffee Roasters,"Shop 3, 69 Peel St, Central",22.282152800000002,114.1519694,https://maps.google.com/?cid=4057893651418460089&g_mp=Cidnb29nbGUubWFwcy5wbGFjZXMudjEuUGxhY2VzLlNlYXJjaFRleHQQAhgEIAA,food_store,"coffee_roastery,coffee_shop,cafe,food_store,store,wholesaler,point_of_interest,food,establishment",OPERATIONAL,4.2,499,coffee roaster;coffee roastery;specialty coffee roaster;咖啡烘焙,HK_Central
ChIJLw_XI3wABDQR7Q3TGPc6qsQ,HK,Barista Jam,"G/F, 97 Jervois St, Sheung Wan",22.285622,114.150544,https://maps.google.com/?cid=14171204010422504941&g_mp=Cidnb29nbGUubWFwcy5wbGFjZXMudjEuUGxhY2VzLlNlYXJjaFRleHQQAhgEIAA,cafe,"cafe,point_of_interest,food,establishment",OPERATIONAL,4.3,492,coffee roaster;coffee roastery;specialty coffee roaster,HK_Central
ChIJxUqEpLgABDQR7iLEmV1RKGQ,HK,Halfway Coffee (Mong Kok),"地舖, 4-6 Soy Street, Soy St, Mong Kok",22.3159879,114.16710049999999,https://maps.google.com/?cid=7217107865314796270&g_mp=Cidnb29nbGUubWFwcy5wbGFjZXMudjEuUGxhY2VzLlNlYXJjaFRleHQQAhgEIAA,coffee_shop,"coffee_shop,cafe,food_store,store,point_of_interest,food,establishment",OPERATIONAL,4.5,492,coffee roaster;coffee roastery;咖啡烘焙室,HK_MongKok
ChIJL4HriLkABDQR6KzcrPHk_uM,HK,Craft Coffee Roaster (Tai Kok Tsui),"Shop G16, G/F, West 9 Zone, 38 Cherry St, Tai Kok Tsui",22.3187647,114.1618233,https://maps.google.com/?cid=16428820217332542696&g_mp=Cidnb29nbGUubWFwcy5wbGFjZXMudjEuUGxhY2VzLlNlYXJjaFRleHQQAhgEIAA,coffee_shop,"coffee_shop,cafe,food_store,store,point_of_interest,food,establishment",OPERATIONAL,4.4,480,coffee roaster;coffee roastery;specialty coffee roaster;咖啡烘焙室,HK_Central
ChIJRQbZg1wBBDQRrB1j69E5d7g,HK,Urban Coffee Roaster CWB,"6 Cleveland St, Causeway Bay",22.2822189,114.1858098,https://maps.google.com/?cid=13292156398967397804&g_mp=Cidnb29nbGUubWFwcy5wbGFjZXMudjEuUGxhY2VzLlNlYXJjaFRleHQQAhgEIAA,cafe,"cafe,restaurant,point_of_interest,food,establishment",OPERATIONAL,4.1,432,coffee roaster;coffee roastery;specialty coffee roaster,HK_Central
ChIJDYuaXF0BBDQRFUHJbmRXxTw,HK,Reaction Coffee Roasters (Tsim Sha Tsui),"Tsim Sha Tsui, Mody Rd, 32-48號地下A店",22.2971398,114.1750278,https://maps.google.com/?cid=4379002301554704661&g_mp=Cidnb29nbGUubWFwcy5wbGFjZXMudjEuUGxhY2VzLlNlYXJjaFRleHQQAhgEIAA,coffee_shop,"coffee_shop,cafe,food_store,store,point_of_interest,food,establishment",OPERATIONAL,4.2,430,coffee roaster;coffee roastery;specialty coffee roaster;咖啡烘焙;咖啡烘焙室,HK_Central
ChIJI2tcYq4DBDQR2teGAWSqh1M,HK,Urban Coffee Roaster,"Tseung Kwan O, Tong Yin St, 29號藍塘傲商場地下12舗",22.3015591,114.2579667,https://maps.google.com/?cid=6018966773503023066&g_mp=Cidnb29nbGUubWFwcy5wbGFjZXMudjEuUGxhY2VzLlNlYXJjaFRleHQQAhgEIAA,cafe,"cafe,point_of_interest,food,establishment",OPERATIONAL,4,430,coffee roaster;coffee roastery;specialty coffee roaster,HK_Central
ChIJR5x3iPIABDQRyRlvsnMBH8g,HK,Barista Caffe,"3/F, 18號 Ashley Rd, Tsim Sha Tsui",22.2971462,114.17071159999999,https://maps.google.com/?cid=14420246128290109897&g_mp=Cidnb29nbGUubWFwcy5wbGFjZXMudjEuUGxhY2VzLlNlYXJjaFRleHQQAhgEIAA,coffee_shop,"coffee_shop,cafe,food_store,store,point_of_interest,food,establishment",OPERATIONAL,4.2,428,coffee roaster;specialty coffee roaster;coffee roastery;咖啡烘焙,HK_Central
ChIJqeX691YABDQRHTpiAEANlHA,HK,18 Grams Speciality Coffee,"Causeway Bay, Cannon St, 15-27號Hoi To Court",22.281562899999997,114.18354149999999,https://maps.google.com/?cid=8112123397336611357&g_mp=Cidnb29nbGUubWFwcy5wbGFjZXMudjEuUGxhY2VzLlNlYXJjaFRleHQQAhgEIAA,cafe,"cafe,coffee_shop,australian_restaurant,food_store,store,restaurant,point_of_interest,food,establishment",OPERATIONAL,4.1,396,specialty coffee roaster,HK_Central
ChIJORQBWkcBBDQReS6U_BOp0Vw,HK,Blue Bottle Coffee Wan Chai,"15 St Francis St, Wan Chai",22.2760081,114.1691362,https://maps.google.com/?cid=6688312824928939641&g_mp=Cidnb29nbGUubWFwcy5wbGFjZXMudjEuUGxhY2VzLlNlYXJjaFRleHQQAhgEIAA,coffee_shop,"coffee_shop,cafe,point_of_interest,food_store,store,food,establishment",OPERATIONAL,4.2,390,coffee roaster,HK_WanChai
ChIJtyL2liIBBDQRgDPU3kxFLHo,HK,Urban Coffee Roaster SOHO,"35 Hollywood Rd, Central",22.2822198,114.15355729999999,https://maps.google.com/?cid=8803487568060756864&g_mp=Cidnb29nbGUubWFwcy5wbGFjZXMudjEuUGxhY2VzLlNlYXJjaFRleHQQAhgEIAA,coffee_shop,"coffee_shop,cafe,food_store,store,point_of_interest,food,establishment",OPERATIONAL,4.5,388,coffee roaster;coffee roastery;specialty coffee roaster,HK_Central
ChIJE6Of0YwBBDQRL1dqfjfy_B4,HK,ARTISTA PERFETTO (Causeway Bay),"Shop 2, G/F, 3A Sharp St W, Causeway Bay",22.2776703,114.18027909999999,https://maps.google.com/?cid=2232925835426944815&g_mp=Cidnb29nbGUubWFwcy5wbGFjZXMudjEuUGxhY2VzLlNlYXJjaFRleHQQAhgEIAA,coffee_shop,"coffee_shop,cafe,food_store,store,point_of_interest,food,establishment",OPERATIONAL,4.6,386,specialty coffee roaster;coffee roastery,HK_Central
ChIJ__9vgyL7AzQR5161h_NjIEw,HK,Hidden Coffee & Roaster (Tuen Mun),"Tuen Mun, Castle Peak Rd - San Hui, 97號6號鋪",22.3972798,113.9771135,https://maps.google.com/?cid=5485494243742277351&g_mp=Cidnb29nbGUubWFwcy5wbGFjZXMudjEuUGxhY2VzLlNlYXJjaFRleHQQAhgEIAA,cafe,"cafe,point_of_interest,food_store,store,food,establishment",OPERATIONAL,4.5,384,coffee roaster;coffee roastery;specialty coffee roaster;咖啡烘焙;咖啡烘焙室,HK_TuenMun
ChIJ767pUbwBBDQRv-Hrc9s2PhU,HK,Black Coffee,"Mong Kok, Kwong Wa St, 3號地下3號鋪",22.3163596,114.17286779999999,https://maps.google.com/?cid=1530721239523123647&g_mp=Cidnb29nbGUubWFwcy5wbGFjZXMudjEuUGxhY2VzLlNlYXJjaFRleHQQAhgEIAA,food_store,"food_store,store,point_of_interest,food,establishment",OPERATIONAL,4.4,368,coffee roaster;coffee roastery,HK_MongKok
ChIJ5Uq2HkkBBDQRzng_WiLIGEY,HK,% Arabica (Monster Mansion),"Shop 3, Yick Fat Building Nos. 1048-1056 King's Road, Nos. 2, 32 Yau Man St, Quarry Bay",22.2839515,114.21255389999999,https://maps.google.com/?cid=5051007031964563662&g_mp=Cidnb29nbGUubWFwcy5wbGFjZXMudjEuUGxhY2VzLlNlYXJjaFRleHQQAhgEIAA,coffee_shop,"coffee_shop,cafe,food_store,store,point_of_interest,food,establishment",OPERATIONAL,4.3,362,coffee roaster;coffee roastery,HK_IslandEast
ChIJuVLAz8YABDQRapekfUoobiw,HK,BYO自助烘焙 (Bake Your Own) 旺角店,旺角登打士街56號1405室,22.3151075,114.17129150000001,https://maps.google.com/?cid=3201540685507630954&g_mp=Cidnb29nbGUubWFwcy5wbGFjZXMudjEuUGxhY2VzLlNlYXJjaFRleHQQAhgEIAA,educational_institution,"coworking_space,educational_institution,point_of_interest,establishment",OPERATIONAL,4.3,349,咖啡烘焙室,HK_Central
ChIJJQdpYHwABDQR7GMvOVbYkWg,HK,Coco Espresso (Jervois Street),上環蘇杭街13-15號,22.285214699999997,114.1523998,https://maps.google.com/?cid=7535041516405744620&g_mp=Cidnb29nbGUubWFwcy5wbGFjZXMudjEuUGxhY2VzLlNlYXJjaFRleHQQAhgEIAA,coffee_shop,"coffee_shop,cafe,food_store,store,point_of_interest,food,establishment",OPERATIONAL,4.3,333,咖啡烘焙室,HK_Central
ChIJB2OY69kBBDQR8GXKuvWJLJ0,HK,Coffee Slave,觀塘鴻圖道43號鴻達工業大廈地下2a,22.3120491,114.22117100000001,https://maps.google.com/?cid=11325578851423774192&g_mp=Cidnb29nbGUubWFwcy5wbGFjZXMudjEuUGxhY2VzLlNlYXJjaFRleHQQAhgEIAA,cafe,"cafe,point_of_interest,food,establishment",OPERATIONAL,4.4,330,coffee roaster;coffee roastery;咖啡烘焙;咖啡烘焙室,HK_KwunTong
ChIJ-1ZCeMIBBDQROEmJbuubBbI,HK,Tuned Coffee & Roastery,"Mong Kok, Sai Yee St, 163-163a號地下B舖",22.3225236,114.17085449999999,https://maps.google.com/?cid=12827830549108836664&g_mp=Cidnb29nbGUubWFwcy5wbGFjZXMudjEuUGxhY2VzLlNlYXJjaFRleHQQAhgEIAA,food_store,"cafe,dessert_shop,confectionery,food_store,store,restaurant,point_of_interest,food,establishment",OPERATIONAL,4.3,329,coffee roastery,HK_Central
ChIJ__LevsIHBDQRFsoDguzjo80,HK,享樂烘焙 (新蒲崗),"地下E舖, Midas Plaza, 3號 Tai Yau St, San Po Kong",22.338353599999998,114.19901229999999,https://maps.google.com/?cid=14817937803912137238&g_mp=Cidnb29nbGUubWFwcy5wbGFjZXMudjEuUGxhY2VzLlNlYXJjaFRleHQQAhgEIAA,bakery,"bakery,food_store,store,point_of_interest,food,establishment",OPERATIONAL,4.2,321,咖啡烘焙室,HK_ShamShuiPo
ChIJVSJxt8AABDQRwM2HMbS1-UU,HK,二德惠烘焙DlY專門店 (油麻地店) | Twins Baking Supplies (Yau Ma Tei),旺角油麻地 號 安 業 商業 大廈 1 字 樓 On Yip Building 395-397 Shanghai Street,22.31402,114.168988,https://maps.google.com/?cid=5042261043347705280&g_mp=Cidnb29nbGUubWFwcy5wbGFjZXMudjEuUGxhY2VzLlNlYXJjaFRleHQQAhgEIAA,store,"store,point_of_interest,food,establishment",OPERATIONAL,4.1,311,咖啡烘焙,HK_YauMaTei
ChIJ2Tp6vK4BBDQRuQYZATmTsZg,HK,Cupping Room (Harbour City),"Shop 309, Level 3, Ocean Centre, Harbour City, 5 Canton Rd, Tsim Sha Tsui",22.2963456,114.1683446,https://maps.google.com/?cid=11002737237683668665&g_mp=Cidnb29nbGUubWFwcy5wbGFjZXMudjEuUGxhY2VzLlNlYXJjaFRleHQQAhgEIAA,coffee_shop,"coffee_shop,cafe,cake_shop,bakery,ice_cream_shop,dessert_shop,confectionery,food_store,manufacturer,store,wholesaler,restaurant,point_of_interest,food,establishment",OPERATIONAL,3.4,310,coffee roaster;coffee roastery,HK_Central
ChIJm2DZWCr_AzQRw3Ly0bPF7bQ,HK,Two-and-a-Half Street,"1 David Ln, Sai Ying Pun",22.2859452,114.142024,https://maps.google.com/?cid=13037293872419599043&g_mp=Cidnb29nbGUubWFwcy5wbGFjZXMudjEuUGxhY2VzLlNlYXJjaFRleHQQAhgEIAA,coffee_shop,"coffee_shop,cafe,food_store,store,point_of_interest,food,establishment",OPERATIONAL,4.7,310,coffee roaster,HK_SheungWan
ChIJZ1mYWnsABDQRZVzADKf58yE,HK,Coco Espresso,"Central, Stanley St, 50號地下D舖",22.282784499999998,114.1550599,https://maps.google.com/?cid=2446573518461099109&g_mp=Cidnb29nbGUubWFwcy5wbGFjZXMudjEuUGxhY2VzLlNlYXJjaFRleHQQAhgEIAA,coffee_shop,"coffee_shop,cafe,food_store,store,restaurant,point_of_interest,food,establishment",OPERATIONAL,4.4,304,coffee roastery,HK_Central
ChIJRw13nkoBBDQRVE47-PDQsoU,HK,Blossom,"8 號 Nam Kok Rd, Kowloon City",22.328350999999998,114.189943,https://maps.google.com/?cid=9633992286274276948&g_mp=Cidnb29nbGUubWFwcy5wbGFjZXMudjEuUGxhY2VzLlNlYXJjaFRleHQQAhgEIAA,coffee_shop,"coffee_shop,cafe,food_store,store,point_of_interest,food,establishment",OPERATIONAL,4,301,coffee roaster,HK_ShamShuiPo
ChIJl3M1N2YBBDQRsJ8Em0557Ik,HK,NINETYs (Causeway Bay),"Shop 116, 1/F, Lee Garden Two, 28 Yun Ping Rd, Causeway Bay",22.278998899999998,114.18490299999999,https://maps.google.com/?cid=9938451856215023536&g_mp=Cidnb29nbGUubWFwcy5wbGFjZXMudjEuUGxhY2VzLlNlYXJjaFRleHQQAhgEIAA,coffee_shop,"coffee_shop,cafe,food_store,store,point_of_interest,food,establishment",OPERATIONAL,3.8,301,coffee roaster;coffee roastery;specialty coffee roaster,HK_Central
ChIJf6XPBn0BBDQR4dmSwnQoAk8,HK,Caflex by the coffeeology,"G/F, 15A Matheson St, Causeway Bay",22.277604,114.182445,https://maps.google.com/?cid=5693157360895449569&g_mp=Cidnb29nbGUubWFwcy5wbGFjZXMudjEuUGxhY2VzLlNlYXJjaFRleHQQAhgEIAA,cafe,"cafe,point_of_interest,food,establishment",OPERATIONAL,3.9,298,coffee roaster,HK_CausewayBay
ChIJRZfmPC8BBDQRB-wqATir1TQ,HK,E N,"Shop B on LG/F, Wah Shin House, 6-10 Shin Hing St, Central",22.284036699999998,114.1520628,https://maps.google.com/?cid=3807137317037730823&g_mp=Cidnb29nbGUubWFwcy5wbGFjZXMudjEuUGxhY2VzLlNlYXJjaFRleHQQAhgEIAA,coffee_shop,"coffee_shop,cafe,point_of_interest,food_store,store,food,establishment",OPERATIONAL,4.3,296,coffee roastery,HK_SheungWan
ChIJzaw-NCUBBDQRdQLre1f2tjg,HK,Quality Life Coffee,沙田石門安麗街18號達利廣埸15樓13室(請先聯絡,22.3889086,114.2074148,https://maps.google.com/?cid=4086724567486890613&g_mp=Cidnb29nbGUubWFwcy5wbGFjZXMudjEuUGxhY2VzLlNlYXJjaFRleHQQAhgEIAA,coffee_roastery,"coffee_roastery,wholesaler,point_of_interest,food,establishment",OPERATIONAL,4.9,296,咖啡烘焙;咖啡烘焙室;coffee roastery;specialty coffee roaster,HK_Central
ChIJtQ0qpvgHBDQR5KLX-s1dDYY,HK,Bakehouse,"Shop 247, Level 2, New Town Plaza I, Sha Tin",22.381439399999998,114.1884875,https://maps.google.com/?cid=9659479915037696740&g_mp=Cidnb29nbGUubWFwcy5wbGFjZXMudjEuUGxhY2VzLlNlYXJjaFRleHQQAhgEIAA,bakery,"bakery,brunch_restaurant,breakfast_restaurant,coffee_shop,cafe,pastry_shop,dessert_shop,confectionery,food_store,store,restaurant,point_of_interest,food,establishment",OPERATIONAL,4,291,咖啡烘焙,HK_ShaTin
ChIJ-5k_iRcBBDQRt_Qq7PEXFJA,HK,Zero One Coffee & Roastery,"SHOP50F G/F, World Trust Tower, 50 Stanley St, Central",22.282781000000004,114.15505940000001,https://maps.google.com/?cid=10381949368812631223&g_mp=Cidnb29nbGUubWFwcy5wbGFjZXMudjEuUGxhY2VzLlNlYXJjaFRleHQQAhgEIAA,cafe,"cafe,point_of_interest,food,establishment",OPERATIONAL,4.5,291,coffee roaster;coffee roastery;specialty coffee roaster;咖啡烘焙,HK_Central
ChIJ_2ZuQ6wBBDQR_ps4kONpL9Y,HK,Cloud Nine Specialty Coffee,"G/F, Shop, 33 Morrison Hill Rd, Wan Chai",22.2770224,114.1804497,https://maps.google.com/?cid=15433670874120100862&g_mp=Cidnb29nbGUubWFwcy5wbGFjZXMudjEuUGxhY2VzLlNlYXJjaFRleHQQAhgEIAA,cafe,"cafe,point_of_interest,food,establishment",OPERATIONAL,4.5,289,specialty coffee roaster;咖啡烘焙室,HK_Central
ChIJWfA6ij_7AzQRE_JNG78Z2N8,HK,Sun Hui Cafe,"Tuen Mun, San Hui Path, 新墟村2台33號地下",22.400570899999998,113.97896999999999,https://maps.google.com/?cid=16129670374014972435&g_mp=Cidnb29nbGUubWFwcy5wbGFjZXMudjEuUGxhY2VzLlNlYXJjaFRleHQQAhgEIAA,coffee_shop,"coffee_shop,cafe,point_of_interest,food_store,store,food,establishment",OPERATIONAL,4.4,289,coffee roaster;咖啡烘焙,HK_TuenMun
ChIJ3YyB2FAABDQRaS2mctq_41Q,HK,BYO自助烘焙 (BAKE YOUR OWN) - 尖沙咀店,尖沙咀彌敦道132號美麗華廣場一期4樓407,22.301375099999998,114.17196799999999,https://maps.google.com/?cid=6116943663846534505&g_mp=Cidnb29nbGUubWFwcy5wbGFjZXMudjEuUGxhY2VzLlNlYXJjaFRleHQQAhgEIAA,educational_institution,"educational_institution,point_of_interest,establishment",OPERATIONAL,4.3,283,咖啡烘焙室,HK_Central
ChIJe7SuJ_MABDQRk4zLbV0JDLs,HK,sensory ZERO [ Lane Crawford | COFFEE x BEER ],"Lane Crawford, Ground Floor, 3 Canton Rd, Tsim Sha Tsui",22.294926699999998,114.168578,https://maps.google.com/?cid=13478158081691716755&g_mp=Cidnb29nbGUubWFwcy5wbGFjZXMudjEuUGxhY2VzLlNlYXJjaFRleHQQAhgEIAA,coffee_shop,"coffee_shop,coffee_roastery,cafe,bar,food_store,store,restaurant,point_of_interest,food,establishment",OPERATIONAL,4.2,278,咖啡烘焙;咖啡烘焙室,HK_TsimShaTsui
ChIJHYOerQgHBDQR2eF-z85kBO8,HK,PLATFORM 平台商行,"沙田 大圍, 上徑口村15號地下",22.3639789,114.1742426,https://maps.google.com/?cid=17223001714378858969&g_mp=Cidnb29nbGUubWFwcy5wbGFjZXMudjEuUGxhY2VzLlNlYXJjaFRleHQQAhgEIAA,coffee_shop,"coffee_shop,cafe,food_store,store,point_of_interest,food,establishment",OPERATIONAL,4.3,276,咖啡烘焙室,HK_ShaTin
ChIJEdtpr3ABBDQRAN1ERPidxMo,HK,Uncle Ben Coffee,"Shop 7 G/F Fu Lee Loy Mansion 9-27 King Wah Road Fortress Hill, North Point",22.2883872,114.1917118,https://maps.google.com/?cid=14610976780719545600&g_mp=Cidnb29nbGUubWFwcy5wbGFjZXMudjEuUGxhY2VzLlNlYXJjaFRleHQQAhgEIAA,coffee_shop,"coffee_shop,cafe,point_of_interest,food_store,store,food,establishment",OPERATIONAL,4.7,273,specialty coffee roaster,HK_WanChai
ChIJk5jN-z4BBDQR56A_P9ufg-Q,HK,Common Man Coffee Roasters - Hong Kong,"Ground Floor G26 - G28, K11 Art Mall, 18 Hanoi Rd, Tsim Sha Tsui",22.297429899999997,114.17375369999999,https://maps.google.com/?cid=16466180426604454119&g_mp=Cidnb29nbGUubWFwcy5wbGFjZXMudjEuUGxhY2VzLlNlYXJjaFRleHQQAhgEIAA,cafe,"cafe,breakfast_restaurant,coffee_shop,food_store,store,restaurant,point_of_interest,food,establishment",OPERATIONAL,4.1,272,coffee roaster;coffee roastery;specialty coffee roaster,HK_Central
ChIJaeZzGzEBBDQR6fYHKMB8lKc,HK,H.Coffee & Shop | The Corner @ wanchai 灣仔樓上咖啡,灣仔駱克道158號祥友大廈一樓 (入口於柯布連道,22.2780059,114.1734987,https://maps.google.com/?cid=12075413665634318057&g_mp=Cidnb29nbGUubWFwcy5wbGFjZXMudjEuUGxhY2VzLlNlYXJjaFRleHQQAhgEIAA,food_store,"dessert_restaurant,western_restaurant,cafe,restaurant,point_of_interest,food_store,store,food,establishment",OPERATIONAL,4.3,268,咖啡烘焙室,HK_WanChai
ChIJlWynbST_AzQRTNdSq5crxV0,HK,Hemma,西營盤第二街2號第二街2號,22.286039499999998,114.14344980000001,https://maps.google.com/?cid=6756854746353686348&g_mp=Cidnb29nbGUubWFwcy5wbGFjZXMudjEuUGxhY2VzLlNlYXJjaFRleHQQAhgEIAA,coffee_shop,"coffee_shop,cafe,point_of_interest,food_store,store,food,establishment",OPERATIONAL,3.4,268,咖啡烘焙室,HK_SheungWan
ChIJvfSHqSRH_xMR9JNRQtwHwJs,HK,Maison Kayser,灣仔皇后大道東248號,22.2745428,114.17351339999999,https://maps.google.com/?cid=11222978913994118132&g_mp=Cidnb29nbGUubWFwcy5wbGFjZXMudjEuUGxhY2VzLlNlYXJjaFRleHQQAhgEIAA,bakery,"bakery,coffee_shop,cafe,pastry_shop,dessert_shop,confectionery,food_store,store,point_of_interest,food,establishment",OPERATIONAL,4,268,咖啡烘焙,HK_WanChai
ChIJ__8MvoD_AzQRXWzYuhB2Mqc,HK,Detour (Sai Ying Pun),"G/F, Shop, A, 35-37 First St, Sai Ying Pun",22.2866195,114.1427858,https://maps.google.com/?cid=12047821767395798109&g_mp=Cidnb29nbGUubWFwcy5wbGFjZXMudjEuUGxhY2VzLlNlYXJjaFRleHQQAhgEIAA,coffee_shop,"coffee_shop,wine_bar,cafe,bar,food_store,store,point_of_interest,food,establishment",OPERATIONAL,4.4,245,咖啡烘焙,HK_SheungWan
ChIJq-cX8lP_AzQRcQjgm0vssn0,HK,Hashtag Coffee,"Sai Ying Pun, High St, 99號, Silver Court, B 地下對面",22.2852803,114.1404032,https://maps.google.com/?cid=9057561610077341809&g_mp=Cidnb29nbGUubWFwcy5wbGFjZXMudjEuUGxhY2VzLlNlYXJjaFRleHQQAhgEIAA,cafe,"cafe,point_of_interest,food,establishment",OPERATIONAL,4.7,245,coffee roaster;咖啡烘焙室,HK_Central
ChIJrW2sJ475AzQRzfoc_Awab4Q,HK,KOKO Coffee Roasters,"Tsuen Wan, Pak Tin Par St, 45號六廠G09南豐紗廠",22.3750707,114.1101695,https://maps.google.com/?cid=9542874778493057741&g_mp=Cidnb29nbGUubWFwcy5wbGFjZXMudjEuUGxhY2VzLlNlYXJjaFRleHQQAhgEIAA,cafe,"cafe,point_of_interest,food,establishment",OPERATIONAL,3.9,244,coffee roaster;coffee roastery;咖啡烘焙,HK_MongKok
ChIJTSX1bOD_AzQRIbYHTfXMfYU,HK,FINEPRINT,西營盤第二街10號,22.2860274,114.143121,https://maps.google.com/?cid=9619069733064652321&g_mp=Cidnb29nbGUubWFwcy5wbGFjZXMudjEuUGxhY2VzLlNlYXJjaFRleHQQAhgEIAA,cafe,"cafe,point_of_interest,food,establishment",OPERATIONAL,4.3,237,咖啡烘焙,HK_SheungWan
ChIJebInrh0JBDQRDhGwPudBQlk,HK,BOUNDLESS by REACTION (Tai Po),"Tai Po, Ting Kok Rd, 15號地下C舖",22.4520883,114.16514959999999,https://maps.google.com/?cid=6431775679283466510&g_mp=Cidnb29nbGUubWFwcy5wbGFjZXMudjEuUGxhY2VzLlNlYXJjaFRleHQQAhgEIAA,coffee_shop,"coffee_shop,cafe,food_store,store,point_of_interest,food,establishment",OPERATIONAL,4,235,coffee roaster;咖啡烘焙;咖啡烘焙室,HK_TaiPo
ChIJF9xDNR4BBDQRAigxgkvrOLA,HK,Cupping Room (West Kowloon),"Museum Café 1, LG/F, Hong Kong Palace Museum West Kowloon Cultural District, 8 Museum Dr, Yau Ma Tei",22.3019326,114.15467280000001,https://maps.google.com/?cid=12698157858910447618&g_mp=Cidnb29nbGUubWFwcy5wbGFjZXMudjEuUGxhY2VzLlNlYXJjaFRleHQQAhgEIAA,coffee_shop,"coffee_shop,cafe,food_store,store,point_of_interest,food,establishment",OPERATIONAL,3.9,227,coffee roaster;coffee roastery;specialty coffee roaster,HK_Central
ChIJGxz6TMcABDQR6Ad4cvesSlY,HK,Reaction Coffee Roasters (Happy Valley),"Shop B & C G, F, 67 Sing Woo Rd, Happy Valley",22.267918299999998,114.18687179999999,https://maps.google.com/?cid=6217972414315759592&g_mp=Cidnb29nbGUubWFwcy5wbGFjZXMudjEuUGxhY2VzLlNlYXJjaFRleHQQAhgEIAA,coffee_shop,"coffee_shop,cafe,food_store,store,point_of_interest,food,establishment",OPERATIONAL,4.3,227,coffee roaster;coffee roastery;specialty coffee roaster,HK_Central
ChIJq6pqNbn4AzQRuNB3716yQgU,HK,Lofe Plus,"Leung Tin Village No.54, San Sau St, 屯門良田村",22.399203999999997,113.9776576,https://maps.google.com/?cid=379061439466819768&g_mp=Cidnb29nbGUubWFwcy5wbGFjZXMudjEuUGxhY2VzLlNlYXJjaFRleHQQAhgEIAA,cafe,"cafe,coffee_roastery,concert_hall,live_music_venue,auditorium,event_venue,point_of_interest,food,establishment",OPERATIONAL,4.3,226,coffee roaster;coffee roastery;咖啡烘焙;咖啡烘焙室,HK_TuenMun
ChIJ5dt6aQr6AzQRZiX3VDPkUnI,HK,Brava Java Coffee,"Shop 118, G/F, Manhattan Plaza Block C, 23 Sai Ching St, Yuen Long",22.4415345,114.0290798,https://maps.google.com/?cid=8237897577534006630&g_mp=Cidnb29nbGUubWFwcy5wbGFjZXMudjEuUGxhY2VzLlNlYXJjaFRleHQQAhgEIAA,coffee_shop,"coffee_shop,cafe,food_store,store,point_of_interest,food,establishment",OPERATIONAL,4.5,218,coffee roaster;咖啡烘焙;咖啡烘焙室,HK_YuenLong
ChIJkf-g5UUGBDQRVZIIJtiSzik,HK,Reactors Coffee,"City One - Shatin, Ngan Shing St, 2號HK New Territories Shop G92 Fortune City One",22.3865753,114.2044464,https://maps.google.com/?cid=3012506657806127701&g_mp=Cidnb29nbGUubWFwcy5wbGFjZXMudjEuUGxhY2VzLlNlYXJjaFRleHQQAhgEIAA,cafe,"cafe,point_of_interest,food,establishment",OPERATIONAL,4,217,coffee roaster;coffee roastery;咖啡烘焙室,HK_SaiKung
ChIJ-0vnIA0BBDQRO4qgVcrHb6M,HK,Soft Thunder Bakery and Coffee,"Shop B, G/F, 31 Queen's Rd E, Wan Chai",22.276809,114.1686271,https://maps.google.com/?cid=11776851222431042107&g_mp=Cidnb29nbGUubWFwcy5wbGFjZXMudjEuUGxhY2VzLlNlYXJjaFRleHQQAhgEIAA,coffee_shop,"coffee_shop,cafe,bakery,food_store,store,point_of_interest,food,establishment",OPERATIONAL,4.3,215,咖啡烘焙,HK_WanChai
ChIJLYG88SEBBDQRK9W7mH16gus,HK,Cofflow,"2c Wong Chuk St, Sham Shui Po",22.3268363,114.16393439999999,https://maps.google.com/?cid=16970261025737397547&g_mp=Cidnb29nbGUubWFwcy5wbGFjZXMudjEuUGxhY2VzLlNlYXJjaFRleHQQAhgEIAA,coffee_shop,"coffee_shop,cafe,food_store,store,point_of_interest,food,establishment",OPERATIONAL,4.4,214,coffee roaster;咖啡烘焙室;coffee roastery,HK_MongKok
ChIJkS-JaQEABDQRb92SoYP6sXE,HK,Black Cherry Coffee,"Aberdeen, Shek Pai Wan Rd, Silver Mansion, 6 號 舖",22.2493654,114.14876419999999,https://maps.google.com/?cid=8192604640422059375&g_mp=Cidnb29nbGUubWFwcy5wbGFjZXMudjEuUGxhY2VzLlNlYXJjaFRleHQQAhgEIAA,cafe,"cafe,point_of_interest,food,establishment",OPERATIONAL,4.8,213,coffee roastery,HK_Aberdeen
ChIJA9DnOmcABDQRakj-o_M7a0k,HK,iBakery Gallery Café 愛烘焙餐廳,金鐘添馬公園添馬茶座,22.2810641,114.16577869999999,https://maps.google.com/?cid=5290388104891222122&g_mp=Cidnb29nbGUubWFwcy5wbGFjZXMudjEuUGxhY2VzLlNlYXJjaFRleHQQAhgEIAA,restaurant,"restaurant,point_of_interest,food,establishment",OPERATIONAL,4.1,212,咖啡烘焙;咖啡烘焙室,HK_Central
ChIJG5tqtwQFBDQRa5ZP_EUK9cI,HK,Hushush Ice Cream Coffee,"G/F, 2 Sai Kung Hoi Pong Square, Sai Kung",22.3810784,114.2731923,https://maps.google.com/?cid=14048145908354225771&g_mp=Cidnb29nbGUubWFwcy5wbGFjZXMudjEuUGxhY2VzLlNlYXJjaFRleHQQAhgEIAA,coffee_shop,"coffee_shop,bagel_shop,ice_cream_shop,cafe,dessert_shop,confectionery,bakery,point_of_interest,food_store,store,food,establishment",OPERATIONAL,4.4,208,coffee roaster;coffee roastery,HK_SaiKung
ChIJkeGWuFwBBDQRp31-IWSLH44,HK,AP Coffee,"Shop 3 and Shop 4 of Coasto, 1 Wai Fung St, Ap Lei Chau",22.244434299999998,114.1565611,https://maps.google.com/?cid=10241057339838725543&g_mp=Cidnb29nbGUubWFwcy5wbGFjZXMudjEuUGxhY2VzLlNlYXJjaFRleHQQAhgEIAA,cafe,"cafe,food,point_of_interest,establishment",OPERATIONAL,4.3,205,咖啡烘焙,HK_Aberdeen
ChIJZ69FU1EABDQRSTVt5gA3x9Q,HK,n.o.t. Specialty Coffee (Lee Gardens),"Causeway Bay, Hysen Ave33號Shop 212Lee Garden One",22.2784388,114.1847145,https://maps.google.com/?cid=15332283933411587401&g_mp=Cidnb29nbGUubWFwcy5wbGFjZXMudjEuUGxhY2VzLlNlYXJjaFRleHQQAhgEIAA,coffee_shop,"coffee_shop,cafe,food_store,store,point_of_interest,food,establishment",OPERATIONAL,3.8,202,specialty coffee roaster;咖啡烘焙室,HK_Central
ChIJndnhnrkBBDQRb4hO-R2Cj_I,HK,Beans cafe,"Shop no. 7, Level 4A, Langham Place, 8 Argyle St, Mong Kok",22.318211599999998,114.16867429999999,https://maps.google.com/?cid=17478331744096520303&g_mp=Cidnb29nbGUubWFwcy5wbGFjZXMudjEuUGxhY2VzLlNlYXJjaFRleHQQAhgEIAA,coffee_shop,"coffee_shop,cafe,food_store,store,point_of_interest,food,establishment",OPERATIONAL,4.7,200,咖啡烘焙,HK_MongKok
ChIJRUJAdfEABDQRa4dI1Ee26lI,HK,Blooms Coffee,"Shop 327, 3/F, 18 Salisbury Rd, Tsim Sha Tsui",22.2934362,114.1739346,https://maps.google.com/?cid=5974788275280840555&g_mp=Cidnb29nbGUubWFwcy5wbGFjZXMudjEuUGxhY2VzLlNlYXJjaFRleHQQAhgEIAA,coffee_shop,"coffee_shop,cafe,food_store,store,point_of_interest,food,establishment",OPERATIONAL,3.6,200,coffee roastery,HK_TsimShaTsui
ChIJ3WqEv9QBBDQRyjW_HrC82Zw,HK,Kactus Koffee,油麻地文英街47號,22.30735,114.1654305,https://maps.google.com/?cid=11302272204479083978&g_mp=Cidnb29nbGUubWFwcy5wbGFjZXMudjEuUGxhY2VzLlNlYXJjaFRleHQQAhgEIAA,cafe,"cafe,point_of_interest,food,establishment",OPERATIONAL,3.9,200,咖啡烘焙;咖啡烘焙室,HK_YauMaTei
ChIJOx494gIBBDQRYKl4-8isUc0,HK,窮撚啡 klf coffee,"Shop A1, G/F, 4 Swatow St, Wan Chai",22.275406099999998,114.17165209999999,https://maps.google.com/?cid=14794796230101215584&g_mp=Cidnb29nbGUubWFwcy5wbGFjZXMudjEuUGxhY2VzLlNlYXJjaFRleHQQAhgEIAA,cafe,"cafe,point_of_interest,food,establishment",OPERATIONAL,4.7,198,coffee roaster;咖啡烘焙,HK_WanChai
ChIJ4-KM_jABBDQRyb_0UvLx1OE,HK,Zombie Specialty Coffee,"Jordan, Kwun Chung St, 9-13號Shop 1",22.3036691,114.1686036,https://maps.google.com/?cid=16272897376672595913&g_mp=Cidnb29nbGUubWFwcy5wbGFjZXMudjEuUGxhY2VzLlNlYXJjaFRleHQQAhgEIAA,food_store,"food_store,store,restaurant,point_of_interest,food,establishment",OPERATIONAL,4.6,195,specialty coffee roaster;coffee roastery;咖啡烘焙,HK_Central
ChIJy8DU_r0BBDQRQ5fvuwyTMEc,HK,project c,"29 Hysan Ave, Causeway Bay",22.2781679,114.1841371,https://maps.google.com/?cid=5129761658476926787&g_mp=Cidnb29nbGUubWFwcy5wbGFjZXMudjEuUGxhY2VzLlNlYXJjaFRleHQQAhgEIAA,coffee_shop,"coffee_shop,cafe,food_store,store,point_of_interest,food,establishment",OPERATIONAL,4.1,194,specialty coffee roaster;coffee roastery,HK_Central
ChIJRTlC3BX7AzQR2z6Nk6KCQgU,HK,White Goats Coffee Shop,"地舖, 置樂, Wah Lok Mansion, 104號 Tsing Ho Square, Tuen Mun",22.3886491,113.9792878,https://maps.google.com/?cid=379008953424363227&g_mp=Cidnb29nbGUubWFwcy5wbGFjZXMudjEuUGxhY2VzLlNlYXJjaFRleHQQAhgEIAA,cafe,"cafe,point_of_interest,food,establishment",OPERATIONAL,4.4,193,coffee roaster;coffee roastery;咖啡烘焙;咖啡烘焙室,HK_TuenMun
ChIJiyeC7GMBBDQRHitmFIKXpDU,HK,OMA Specialty Coffee,"G/F, 9 Wun Sha St, Tai Hang",22.2790245,114.1926017,https://maps.google.com/?cid=3865380965134510878&g_mp=Cidnb29nbGUubWFwcy5wbGFjZXMudjEuUGxhY2VzLlNlYXJjaFRleHQQAhgEIAA,cafe,"cafe,point_of_interest,food,establishment",OPERATIONAL,4.2,192,specialty coffee roaster;coffee roastery;咖啡烘焙,HK_Central
ChIJLxmyaAABBDQRrg5Rm9VbmRc,HK,in:joi cafe & coffee,灣仔皇后大道東恆山中心,22.275268099999998,114.1713032,https://maps.google.com/?cid=1700491307301015214&g_mp=Cidnb29nbGUubWFwcy5wbGFjZXMudjEuUGxhY2VzLlNlYXJjaFRleHQQAhgEIAA,coffee_shop,"coffee_shop,cafe,food_store,store,point_of_interest,food,establishment",OPERATIONAL,4.4,190,咖啡烘焙,HK_WanChai
ChIJfYDbTqUBBDQRw26t3UPFSCY,HK,A Basic Coffee Production,"G/F , 3 Ming Yan Lane, Tai Wong St E, Wan Chai",22.2756612,114.1713504,https://maps.google.com/?cid=2758671667037040323&g_mp=Cidnb29nbGUubWFwcy5wbGFjZXMudjEuUGxhY2VzLlNlYXJjaFRleHQQAhgEIAA,coffee_shop,"coffee_shop,cafe,food_store,store,point_of_interest,food,establishment",OPERATIONAL,4.5,188,coffee roaster;coffee roastery;specialty coffee roaster,HK_Central
ChIJp3P4H0IBBDQRaYDCGpsmxbc,HK,Loop Kulture,深水埗鴨寮街90號,22.328379700000003,114.16452299999999,https://maps.google.com/?cid=13242032726963552361&g_mp=Cidnb29nbGUubWFwcy5wbGFjZXMudjEuUGxhY2VzLlNlYXJjaFRleHQQAhgEIAA,coffee_shop,"coffee_shop,cafe,food_store,store,point_of_interest,food,establishment",OPERATIONAL,4.1,187,咖啡烘焙室,HK_ShamShuiPo
ChIJz9VHByHxAzQRaNAsHGtY-eo,HK,Overlap Coffee,"元朗鳳翔路1-5L號SHOP2, G/F",22.444091,114.03250899999999,https://maps.google.com/?cid=16931661491133534312&g_mp=Cidnb29nbGUubWFwcy5wbGFjZXMudjEuUGxhY2VzLlNlYXJjaFRleHQQAhgEIAA,coffee_shop,"coffee_shop,cafe,food_store,store,point_of_interest,food,establishment",OPERATIONAL,4.3,186,coffee roaster;coffee roastery;specialty coffee roaster,HK_YuenLong
ChIJScx4_n4BBDQRxsmYE7bZrWY,HK,hara kako (Sheung Wan),"Shop B, 77-91 Queen's Rd W, Sheung Wan",22.2865258,114.14709140000001,https://maps.google.com/?cid=7398809138875648454&g_mp=Cidnb29nbGUubWFwcy5wbGFjZXMudjEuUGxhY2VzLlNlYXJjaFRleHQQAhgEIAA,coffee_shop,"coffee_shop,cafe,food_store,store,point_of_interest,food,establishment",OPERATIONAL,4.3,186,coffee roaster,HK_SheungWan
ChIJ1xoX-TIBBDQRbGF1C1_R4Yg,HK,【烘焙DIY】Home.焙小日子旺角店,旺角太子道西193號moko新世紀廣場 5樓 502號鋪,22.323,114.17198099999999,https://maps.google.com/?cid=9863394865062437228&g_mp=Cidnb29nbGUubWFwcy5wbGFjZXMudjEuUGxhY2VzLlNlYXJjaFRleHQQAhgEIAA,dessert_shop,"dessert_shop,confectionery,food_store,store,point_of_interest,food,establishment",OPERATIONAL,4.8,185,咖啡烘焙室,HK_Central
ChIJcb6F7QMBBDQRoVjp83rdhLY,HK,飛龍咖啡,深水埗黃竹街37-41號德大廈地下B2舖崇,22.3296182,114.1660491,https://maps.google.com/?cid=13151880331976595617&g_mp=Cidnb29nbGUubWFwcy5wbGFjZXMudjEuUGxhY2VzLlNlYXJjaFRleHQQAhgEIAA,cafe,"cafe,point_of_interest,food,establishment",OPERATIONAL,4.5,180,咖啡烘焙室,HK_MongKok
ChIJwS47qN4BBDQREkTP_X1ldM8,HK,Jen Cafe,塘尾基隆街102號,22.3267849,114.16484279999999,https://maps.google.com/?cid=14948684654953055250&g_mp=Cidnb29nbGUubWFwcy5wbGFjZXMudjEuUGxhY2VzLlNlYXJjaFRleHQQAhgEIAA,coffee_shop,"coffee_shop,cafe,food_store,store,point_of_interest,food,establishment",OPERATIONAL,3.6,178,咖啡烘焙,HK_ShamShuiPo
ChIJmwi4UAABBDQRIebcd_tQ9mo,HK,君蘭麵包廠 | 港式烘焙店,銅鑼灣東角道26號地下 68號舖,22.281047500000003,114.1844823,https://maps.google.com/?cid=7707436853269161505&g_mp=Cidnb29nbGUubWFwcy5wbGFjZXMudjEuUGxhY2VzLlNlYXJjaFRleHQQAhgEIAA,bakery,"bakery,point_of_interest,food_store,store,food,establishment",OPERATIONAL,4.6,178,咖啡烘焙,HK_CausewayBay
ChIJnxK-21sBBDQRHGlD_t8j4XA,HK,Sō Bistro Coffee & Gin,深水埗荔枝角道221號,22.3269614,114.16240130000001,https://maps.google.com/?cid=8133821846958336284&g_mp=Cidnb29nbGUubWFwcy5wbGFjZXMudjEuUGxhY2VzLlNlYXJjaFRleHQQAhgEIAA,western_restaurant,"western_restaurant,food_store,store,restaurant,point_of_interest,food,establishment",OPERATIONAL,4.4,175,咖啡烘焙;咖啡烘焙室,HK_ShamShuiPo
ChIJ6d2y5nUBBDQRoCILLJNaBKw,HK,楓子珈琲,深水埗楓樹街5號,22.3261482,114.1643216,https://maps.google.com/?cid=12395131662576067232&g_mp=Cidnb29nbGUubWFwcy5wbGFjZXMudjEuUGxhY2VzLlNlYXJjaFRleHQQAhgEIAA,cafe,"cafe,coffee_shop,food_store,store,point_of_interest,food,establishment",OPERATIONAL,4.2,175,咖啡烘焙室,HK_MongKok
ChIJ52lKwWQBBDQRa1-khvcHY3c,HK,Crew,"Shop 9A, 156, 164 Queen's Rd E, Wan Chai",22.2754433,114.17129899999999,https://maps.google.com/?cid=8602728472905015147&g_mp=Cidnb29nbGUubWFwcy5wbGFjZXMudjEuUGxhY2VzLlNlYXJjaFRleHQQAhgEIAA,coffee_shop,"coffee_shop,cafe,food_store,store,point_of_interest,food,establishment",OPERATIONAL,4.6,173,coffee roaster;coffee roastery;specialty coffee roaster,HK_Central
ChIJXQSzR-wBBDQRW9bMf12BlSA,HK,Day One Cafe,觀塘開源道6樓U01室,22.3101251,114.22507189999999,https://maps.google.com/?cid=2347925019319653979&g_mp=Cidnb29nbGUubWFwcy5wbGFjZXMudjEuUGxhY2VzLlNlYXJjaFRleHQQAhgEIAA,coffee_shop,"coffee_shop,cafe,food_store,store,point_of_interest,food,establishment",OPERATIONAL,4.7,173,咖啡烘焙;咖啡烘焙室,HK_KwunTong
ChIJtS8EV3f7AzQR9IU7Uijc6vE,HK,法國小屋,元朗合益路9-15號地下i舖,22.4415664,114.03174779999999,https://maps.google.com/?cid=17431987373427361268&g_mp=Cidnb29nbGUubWFwcy5wbGFjZXMudjEuUGxhY2VzLlNlYXJjaFRleHQQAhgEIAA,cafeteria,"cafeteria,point_of_interest,establishment",OPERATIONAL,4.5,173,咖啡烘焙,HK_YuenLong
ChIJYQCsuAUBBDQRBzWrk8fL1Lk,HK,Cs’ Bakery,西灣河西灣河街100號,22.28097,114.22233879999999,https://maps.google.com/?cid=13390551650115728647&g_mp=Cidnb29nbGUubWFwcy5wbGFjZXMudjEuUGxhY2VzLlNlYXJjaFRleHQQAhgEIAA,coffee_shop,"coffee_shop,cafe,food_store,store,point_of_interest,food,establishment",OPERATIONAL,4.5,169,咖啡烘焙,HK_CausewayBay
ChIJU0Lhv6cBBDQRwBidzNGTyew,HK,PCW by Preface (Causeway Bay),"G/F - 5/F, The Sharp11 Sharp St E, Causeway Bay",22.2778878,114.1822336,https://maps.google.com/?cid=17062331192560130240&g_mp=Cidnb29nbGUubWFwcy5wbGFjZXMudjEuUGxhY2VzLlNlYXJjaFRleHQQAhgEIAA,coffee_shop,"coffee_shop,wine_bar,cafe,bar,event_venue,point_of_interest,food_store,store,food,establishment",OPERATIONAL,3.9,169,coffee roaster,HK_CausewayBay
ChIJu-jHWh_7AzQR0TO1hmFBWL4,HK,Miss Coffee,"Look Yuen, 6 Tsing Pak Path, Tuen Mun",22.401193199999998,113.97810299999999,https://maps.google.com/?cid=13715784552284500945&g_mp=Cidnb29nbGUubWFwcy5wbGFjZXMudjEuUGxhY2VzLlNlYXJjaFRleHQQAhgEIAA,cafe,"cafe,point_of_interest,food,establishment",OPERATIONAL,4.1,168,coffee roaster,HK_TuenMun
ChIJP0u4k-HxNIgRpuycPjn19k8,HK,Dynamic Coffee Roasters,"317 E Carson St Ste 35, Pittsburgh, PA 15219, USA",40.4304324,-79.99664179999999,https://maps.google.com/?cid=5762062399479540902&g_mp=Cidnb29nbGUubWFwcy5wbGFjZXMudjEuUGxhY2VzLlNlYXJjaFRleHQQAhgEIAA,coffee_shop,"coffee_shop,cafe,food_store,store,point_of_interest,food,establishment",OPERATIONAL,4.9,167,coffee roaster,HK_TuenMun
ChIJQS2PCJsBBDQRoxouli_O8Z8,HK,Colour Brown x GO.ON Space,深水埗黃竹街13號地下及一樓,22.3279504,114.1646979,https://maps.google.com/?cid=11525219625196198563&g_mp=Cidnb29nbGUubWFwcy5wbGFjZXMudjEuUGxhY2VzLlNlYXJjaFRleHQQAhgEIAA,cafe,"cafe,point_of_interest,food,establishment",OPERATIONAL,3.8,165,咖啡烘焙;咖啡烘焙室,HK_ShamShuiPo
ChIJYcA9-MDxAzQR9_-uo87lNVI,HK,Sora Cafe,"Shop no 37, Shun Fung Building, 5-7 Fung Yau St N, Yuen Long",22.4439569,114.0337847,https://maps.google.com/?cid=5923893560547934199&g_mp=Cidnb29nbGUubWFwcy5wbGFjZXMudjEuUGxhY2VzLlNlYXJjaFRleHQQAhgEIAA,cafe,"cafe,point_of_interest,food,establishment",OPERATIONAL,4.4,165,咖啡烘焙;咖啡烘焙室,HK_YuenLong
ChIJQWxFoVYABDQRgp9NmGio_2o,HK,心甜烘焙材料專門店,銅鑼灣怡和街22號10 / F,22.2797251,114.1852028,https://maps.google.com/?cid=7710066254266867586&g_mp=Cidnb29nbGUubWFwcy5wbGFjZXMudjEuUGxhY2VzLlNlYXJjaFRleHQQAhgEIAA,store,"store,point_of_interest,food,establishment",OPERATIONAL,1.9,163,咖啡烘焙,HK_WanChai
ChIJl7etRlgBBDQRc8K53djhv7M,HK,N1 Coffee & Co. (Wan Chai),"G/F, 229 Jaffe Rd, Wan Chai",22.279110499999998,114.1761635,https://maps.google.com/?cid=12952319374889960051&g_mp=Cidnb29nbGUubWFwcy5wbGFjZXMudjEuUGxhY2VzLlNlYXJjaFRleHQQAhgEIAA,coffee_shop,"coffee_shop,cafe,food_store,store,point_of_interest,food,establishment",OPERATIONAL,4.2,161,coffee roaster;coffee roastery;specialty coffee roaster,HK_WanChai
ChIJfSKqOWcBBDQRo8nit75Kec4,HK,Black Sugar Coffee & Lifestyle - Olympian City 2,"大角咀Shop No. G16, Olympian City 2 18 Hoi Ting Road",22.317075799999998,114.1617675,https://maps.google.com/?cid=14878005026984479139&g_mp=Cidnb29nbGUubWFwcy5wbGFjZXMudjEuUGxhY2VzLlNlYXJjaFRleHQQAhgEIAA,cafe,"cafe,point_of_interest,food,establishment",OPERATIONAL,3.6,160,咖啡烘焙;咖啡烘焙室,HK_MongKok
ChIJzbWVD6IBBDQRDd1GvJ6N3ac,HK,Bow Coffee,"G/F, Bowtie Life Insurance Tower, 68 Johnston Rd, Wan Chai",22.2762761,114.1717334,https://maps.google.com/?cid=12095979887090130189&g_mp=Cidnb29nbGUubWFwcy5wbGFjZXMudjEuUGxhY2VzLlNlYXJjaFRleHQQAhgEIAA,coffee_shop,"coffee_shop,cafe,point_of_interest,food_store,store,food,establishment",OPERATIONAL,4.2,158,coffee roastery,HK_WanChai
ChIJPUCPSQABBDQRPmfGo6D6ito,HK,Islet Coffee Lab (Central),"9 On Lan St, Central",22.280840899999998,114.1567518,https://maps.google.com/?cid=15747674614903760702&g_mp=Cidnb29nbGUubWFwcy5wbGFjZXMudjEuUGxhY2VzLlNlYXJjaFRleHQQAhgEIAA,coffee_shop,"coffee_shop,cafe,food_store,store,point_of_interest,food,establishment",OPERATIONAL,4.7,158,specialty coffee roaster,HK_Central
ChIJUacZE8YBBDQR7cZ3cgf-1qE,HK,commaa ，coffee . art . architecture,"G/F, Shop 4C, 11 Po Yan St, Sheung Wan",22.285271200000004,114.1472911,https://maps.google.com/?cid=11661787593061156589&g_mp=Cidnb29nbGUubWFwcy5wbGFjZXMudjEuUGxhY2VzLlNlYXJjaFRleHQQAhgEIAA,cafe,"cafe,coffee_shop,art_gallery,food_store,store,point_of_interest,food,establishment",OPERATIONAL,4.5,158,specialty coffee roaster,HK_Central
ChIJx0YIfcwBBDQRhMr-VcqQzTU,HK,Sang Roastery,"114 To Kwa Wan Rd, Ma Tau Kok",22.3204627,114.1934739,https://maps.google.com/?cid=3876914052936419972&g_mp=Cidnb29nbGUubWFwcy5wbGFjZXMudjEuUGxhY2VzLlNlYXJjaFRleHQQAhgEIAA,coffee_shop,"coffee_shop,coffee_roastery,cafe,food_store,store,wholesaler,point_of_interest,food,establishment",OPERATIONAL,4.6,157,coffee roaster;coffee roastery;specialty coffee roaster;咖啡烘焙;咖啡烘焙室,HK_Central
ChIJU9jSIzLjAzQRTCzO50BM5UU,HK,Urban Coffee Roaster AIRPORT,"Shop 6W570A, Level 6, Departures West Hall, Terminal 1, Hong Kong International Airport (Near Gate 40, Lantau Island",22.3124023,113.92693349999999,https://maps.google.com/?cid=5036515599934434380&g_mp=Cidnb29nbGUubWFwcy5wbGFjZXMudjEuUGxhY2VzLlNlYXJjaFRleHQQAhgEIAA,coffee_shop,"coffee_shop,cafe,food_store,store,point_of_interest,food,establishment",OPERATIONAL,4.8,157,coffee roaster;specialty coffee roaster,HK_Central
ChIJISe1iOcBBDQRmPYvYud48mk,HK,FINEPRINT,"Shop B, G/F, 208 Johnston Rd, Wan Chai",22.277327099999997,114.17620369999999,https://maps.google.com/?cid=7634297253526501016&g_mp=Cidnb29nbGUubWFwcy5wbGFjZXMudjEuUGxhY2VzLlNlYXJjaFRleHQQAhgEIAA,coffee_shop,"coffee_shop,cafe,point_of_interest,food_store,store,food,establishment",OPERATIONAL,4.2,156,coffee roaster,HK_WanChai
ChIJmZ_SO1IBBDQRyjIVvlQJj-M,HK,YEAFFEE,"Wan Chai, O'Brien Rd, 2A號駱克道146-148號 裕安大樓地下C2鋪",22.2779831,114.17312849999999,https://maps.google.com/?cid=16397335027850228426&g_mp=Cidnb29nbGUubWFwcy5wbGFjZXMudjEuUGxhY2VzLlNlYXJjaFRleHQQAhgEIAA,cafe,"cafe,point_of_interest,food_store,store,food,establishment",OPERATIONAL,4.8,155,coffee roaster;coffee roastery,HK_WanChai
ChIJvcTY0yQHBDQRDcVFpAx2UCE,HK,YOI Coffee and Bakery,"20 Lung Kong Rd, Kowloon City",22.3293563,114.19054129999999,https://maps.google.com/?cid=2400548398056195341&g_mp=Cidnb29nbGUubWFwcy5wbGFjZXMudjEuUGxhY2VzLlNlYXJjaFRleHQQAhgEIAA,cafe,"cafe,point_of_interest,food,establishment",OPERATIONAL,4.3,155,coffee roaster,HK_MongKok
ChIJ_ZmjOZABBDQR8PpRg3xjlKw,HK,Shu,"30號 Queen St, Sheung Wan",22.2880181,114.14709789999999,https://maps.google.com/?cid=12435673857507064560&g_mp=Cidnb29nbGUubWFwcy5wbGFjZXMudjEuUGxhY2VzLlNlYXJjaFRleHQQAhgEIAA,coffee_shop,"coffee_shop,cafe,food_store,store,point_of_interest,food,establishment",OPERATIONAL,4.2,153,coffee roaster;coffee roastery;咖啡烘焙,HK_Central
ChIJvUiq_NH7AzQR-piFdNeDABg,HK,White Goats Coffee Shop,"San Hui, Yan Oi Tong Circuit, 1號12號",22.3953106,113.9771433,https://maps.google.com/?cid=1729527218306390266&g_mp=Cidnb29nbGUubWFwcy5wbGFjZXMudjEuUGxhY2VzLlNlYXJjaFRleHQQAhgEIAA,cafe,"cafe,point_of_interest,food,establishment",OPERATIONAL,4.7,153,coffee roaster;coffee roastery;specialty coffee roaster;咖啡烘焙,HK_TuenMun
ChIJn4IIQSsBBDQRUBGL7JhJTR4,HK,Coffee Obsession,北角艇街4號8號E鋪,22.288632,114.1933651,https://maps.google.com/?cid=2183482315496952144&g_mp=Cidnb29nbGUubWFwcy5wbGFjZXMudjEuUGxhY2VzLlNlYXJjaFRleHQQAhgEIAA,cafe,"cafe,point_of_interest,food,establishment",OPERATIONAL,4.6,151,咖啡烘焙室,HK_CausewayBay
ChIJkSRV1xgBBDQREVkDC3KYTd8,HK,Noda Coffee,"Wan Chai, Shop BG/FWinland Square 314-324 Hennessy Road",22.278236099999997,114.17832709999999,https://maps.google.com/?cid=16090684659243112721&g_mp=Cidnb29nbGUubWFwcy5wbGFjZXMudjEuUGxhY2VzLlNlYXJjaFRleHQQAhgEIAA,coffee_shop,"coffee_shop,cafe,food_store,store,point_of_interest,food,establishment",OPERATIONAL,4.2,149,coffee roaster;specialty coffee roaster;咖啡烘焙;coffee roastery;咖啡烘焙室,HK_Central
ChIJPdNay8cABDQR4SDUzDraqZI,HK,小念頭 Little Idea Cafe,荔枝角長沙灣道903室,22.3368006,114.1476005,https://maps.google.com/?cid=10568217946680991969&g_mp=Cidnb29nbGUubWFwcy5wbGFjZXMudjEuUGxhY2VzLlNlYXJjaFRleHQQAhgEIAA,cake_shop,"cake_shop,cafe,bakery,food_store,manufacturer,store,wholesaler,restaurant,point_of_interest,food,establishment",OPERATIONAL,3.8,148,咖啡烘焙室,HK_ShamShuiPo
ChIJ-V1c9mn7AzQR1fkDTwfBPZI,HK,Kaffee Jen,"Tuen Mun, Kin Fat Ln, 地下3號鋪",22.3968071,113.96866,https://maps.google.com/?cid=10537790940251421141&g_mp=Cidnb29nbGUubWFwcy5wbGFjZXMudjEuUGxhY2VzLlNlYXJjaFRleHQQAhgEIAA,cafe,"cafe,food_store,store,point_of_interest,food,establishment",OPERATIONAL,4.5,147,coffee roaster;咖啡烘焙;咖啡烘焙室,HK_TuenMun
ChIJoZU0LAoJBDQRq7o3Wyevyi8,HK,Relax B&M,大尾篤村龍尾村165A,22.4721439,114.2289641,https://maps.google.com/?cid=3443757448647129771&g_mp=Cidnb29nbGUubWFwcy5wbGFjZXMudjEuUGxhY2VzLlNlYXJjaFRleHQQAhgEIAA,cafe,"cafe,coffee_shop,food_store,massage,service,store,point_of_interest,food,establishment",OPERATIONAL,4.8,147,咖啡烘焙室,HK_TaiPo
ChIJ5c-hyG8DBDQR_saPMAsqEoE,HK,Espresso Alchemy (PopCorn),"Shop F54, 1/F, Popcorn 1, Tseung Kwan O",22.307568699999997,114.2594132,https://maps.google.com/?cid=9300542408021231358&g_mp=Cidnb29nbGUubWFwcy5wbGFjZXMudjEuUGxhY2VzLlNlYXJjaFRleHQQAhgEIAA,cafe,"cafe,point_of_interest,food,establishment",OPERATIONAL,4.1,146,coffee roastery,HK_SaiKung
ChIJA_6mx5ABBDQRusrhlnv_kr0,HK,Halfway Coffee (Mid-Levels),"8 Rednaxela Terrace, Mid-Levels",22.2806936,114.1516338,https://maps.google.com/?cid=13660261526045575866&g_mp=Cidnb29nbGUubWFwcy5wbGFjZXMudjEuUGxhY2VzLlNlYXJjaFRleHQQAhgEIAA,coffee_shop,"coffee_shop,cafe,food_store,store,point_of_interest,food,establishment",OPERATIONAL,4.6,145,coffee roastery,HK_Central
ChIJBcBB6y75AzQRmyMQiy9vAm0,HK,MYOC Coffee 中上環咖啡教學中心 (企業咖啡Team Building工作坊及咖啡到會、SCA咖啡國際認證課程、拉花及手沖課程Latte art/Hand-drip Workshop),上環德輔道中267-275號,22.286767400000002,114.1518339,https://maps.google.com/?cid=7854962950074803099&g_mp=Cidnb29nbGUubWFwcy5wbGFjZXMudjEuUGxhY2VzLlNlYXJjaFRleHQQAhgEIAA,educational_institution,"educational_institution,food_store,store,wholesaler,supplier,point_of_interest,food,establishment",OPERATIONAL,5,144,咖啡烘焙;咖啡烘焙室,HK_Central
ChIJn6j4Xc8ABDQRedinJLK7_lI,HK,Halfway Coffee (Ho Man Tin),"Ho Man Tin, Soares Ave, 4A號地下南邊部份4號A鋪",22.319417899999998,114.1751515,https://maps.google.com/?cid=5980423728988149881&g_mp=Cidnb29nbGUubWFwcy5wbGFjZXMudjEuUGxhY2VzLlNlYXJjaFRleHQQAhgEIAA,coffee_shop,"coffee_shop,cafe,food_store,store,point_of_interest,food,establishment",OPERATIONAL,4.4,143,coffee roaster;coffee roastery;specialty coffee roaster,HK_TsimShaTsui
ChIJFR2_c4AFBDQRPg70FA-y4fw,HK,Deer Coffee,西貢市場街25號號地下,22.3795188,114.2715226,https://maps.google.com/?cid=18222041345163529790&g_mp=Cidnb29nbGUubWFwcy5wbGFjZXMudjEuUGxhY2VzLlNlYXJjaFRleHQQAhgEIAA,coffee_shop,"coffee_shop,cafe,food_store,store,food,point_of_interest,establishment",OPERATIONAL,4.7,141,咖啡烘焙,HK_SaiKung
ChIJk7KauMcBBDQR-8tc7OBs6ng,HK,Flow,"Shop 3, 195 Tai Nan St, Sham Shui Po",22.3273652,114.1628777,https://maps.google.com/?cid=8712896142395624443&g_mp=Cidnb29nbGUubWFwcy5wbGFjZXMudjEuUGxhY2VzLlNlYXJjaFRleHQQAhgEIAA,coffee_shop,"coffee_shop,cafe,food_store,store,point_of_interest,food,establishment",OPERATIONAL,3.6,140,coffee roaster;coffee roastery;咖啡烘焙;咖啡烘焙室,HK_MongKok
ChIJnV_21OP_AzQR2hclHK9n4wc,HK,咖啡呀唔該,"1A舖地下, Tung Cheung Building, Second St, Sai Ying Pun",22.286219199999998,114.143529,https://maps.google.com/?cid=568411979767945178&g_mp=Cidnb29nbGUubWFwcy5wbGFjZXMudjEuUGxhY2VzLlNlYXJjaFRleHQQAhgEIAA,food_store,"coffee_shop,cafe,food_store,store,point_of_interest,food,establishment",OPERATIONAL,4.2,140,咖啡烘焙,HK_SheungWan
ChIJsWRV4SsBBDQRm22Dr1I2yiQ,HK,CACAOLAB,銅鑼灣白沙道20號,22.279058799999998,114.1842775,https://maps.google.com/?cid=2650991059420802459&g_mp=Cidnb29nbGUubWFwcy5wbGFjZXMudjEuUGxhY2VzLlNlYXJjaFRleHQQAhgEIAA,cafe,"cafe,point_of_interest,food,establishment",OPERATIONAL,3.7,138,咖啡烘焙室,HK_CausewayBay
ChIJ-eHumLsBBDQRikdXrPssMWU,HK,BLTN Coffee,"27 Haven St, So Kon Po",22.2776084,114.1869775,https://maps.google.com/?cid=7291658731129358218&g_mp=Cidnb29nbGUubWFwcy5wbGFjZXMudjEuUGxhY2VzLlNlYXJjaFRleHQQAhgEIAA,coffee_shop,"coffee_shop,cafe,point_of_interest,food_store,store,food,establishment",OPERATIONAL,4.5,137,coffee roaster;specialty coffee roaster;咖啡烘焙,HK_CausewayBay
ChIJtQ8vXIH_AzQRuruapEYayJI,HK,天天烘焙 Daily Bread,西環德輔道西332號,22.2873001,114.1386503,https://maps.google.com/?cid=10576732615591246778&g_mp=Cidnb29nbGUubWFwcy5wbGFjZXMudjEuUGxhY2VzLlNlYXJjaFRleHQQAhgEIAA,bakery,"bakery,food_store,store,point_of_interest,food,establishment",OPERATIONAL,3.6,135,咖啡烘焙室,HK_Central
ChIJQ8fnvmUBBDQRKOtJnEK8Aro,HK,COTI,"90 Hung To Rd, Kwun Tong",22.307656599999998,114.2247865,https://maps.google.com/?cid=13403482435283970856&g_mp=Cidnb29nbGUubWFwcy5wbGFjZXMudjEuUGxhY2VzLlNlYXJjaFRleHQQAhgEIAA,food_store,"coffee_shop,cafe,food_store,store,point_of_interest,food,establishment",OPERATIONAL,3.7,134,coffee roaster,HK_KwunTong
ChIJr4OHd_UBBDQRxnpMbNxwNj8,HK,Sheer Coffee,"Shop 4, G/F, Fook Chi House, 18B Peel St, Central",22.2832231,114.15327789999999,https://maps.google.com/?cid=4554952165143902918&g_mp=Cidnb29nbGUubWFwcy5wbGFjZXMudjEuUGxhY2VzLlNlYXJjaFRleHQQAhgEIAA,coffee_shop,"coffee_shop,cafe,food_store,store,point_of_interest,food,establishment",OPERATIONAL,4.7,132,coffee roaster;specialty coffee roaster,HK_Central
ChIJW-eV16j7AzQRXoslCxoYJn4,HK,The Third - Coffee & Pastries,"71B Kin Tak St, Yuen Long",22.441122699999998,114.0314054,https://maps.google.com/?cid=9089979398029151070&g_mp=Cidnb29nbGUubWFwcy5wbGFjZXMudjEuUGxhY2VzLlNlYXJjaFRleHQQAhgEIAA,coffee_shop,"coffee_shop,cafe,pastry_shop,dessert_shop,bakery,confectionery,food_store,store,point_of_interest,food,establishment",OPERATIONAL,4.2,128,coffee roastery;specialty coffee roaster,HK_TaiPo
ChIJK7H7mhQBBDQRTaMy3EdgjF4,HK,Coffeelin (Fortress Hill),"228 Electric Rd, North Point",22.2888411,114.1933543,https://maps.google.com/?cid=6812926198057968461&g_mp=Cidnb29nbGUubWFwcy5wbGFjZXMudjEuUGxhY2VzLlNlYXJjaFRleHQQAhgEIAA,coffee_shop,"coffee_shop,cafe,point_of_interest,food_store,store,food,establishment",OPERATIONAL,4,127,coffee roaster;coffee roastery;specialty coffee roaster,HK_CausewayBay
ChIJoRKboG0BBDQRWJn741r8qIk,HK,咖啡空間,"城市花園商場14座1樓95-96號舖, 233號 Electric Rd, North Point",22.2899049,114.193765,https://maps.google.com/?cid=9919455646585690456&g_mp=Cidnb29nbGUubWFwcy5wbGFjZXMudjEuUGxhY2VzLlNlYXJjaFRleHQQAhgEIAA,cafe,"cafe,point_of_interest,food,establishment",OPERATIONAL,4.2,127,咖啡烘焙室,HK_CausewayBay
ChIJNZBhawwFBDQRiVewDe546Z0,HK,nn Coffee,"G/F, 47 See Cheung St, Sai Kung",22.3797464,114.2720264,https://maps.google.com/?cid=11378758897355478921&g_mp=Cidnb29nbGUubWFwcy5wbGFjZXMudjEuUGxhY2VzLlNlYXJjaFRleHQQAhgEIAA,food_store,"food_store,store,point_of_interest,food,establishment",OPERATIONAL,4.1,126,咖啡烘焙,HK_SaiKung
ChIJZ9A9C5wBBDQRYHJeLgto3aY,HK,Hillwood 54 Cafe,尖沙咀山林道54-56號地下2B鋪及1樓,22.3027151,114.1746594,https://maps.google.com/?cid=12023880977380962912&g_mp=Cidnb29nbGUubWFwcy5wbGFjZXMudjEuUGxhY2VzLlNlYXJjaFRleHQQAhgEIAA,food_store,"food_store,store,restaurant,point_of_interest,food,establishment",OPERATIONAL,4.7,125,咖啡烘焙室,HK_TsimShaTsui
ChIJGVuVNnX6AzQRYEXJl9QTCbQ,HK,whoop小確幸 (cafe) 元朗店,元朗馬田路50號朗景臺地下12號舖,22.4417558,114.0245152,https://maps.google.com/?cid=12972922005417968992&g_mp=Cidnb29nbGUubWFwcy5wbGFjZXMudjEuUGxhY2VzLlNlYXJjaFRleHQQAhgEIAA,food_store,"pastry_shop,dessert_shop,bakery,confectionery,food_store,store,point_of_interest,food,establishment",OPERATIONAL,4.4,125,咖啡烘焙;咖啡烘焙室,HK_YuenLong
ChIJj_I2JQsBBDQR6_ucHyxQD-w,HK,Number 9 Coffee,尖東加連威老道96號Shop 9 G/F,22.299483600000002,114.17722450000001,https://maps.google.com/?cid=17009902468040817643&g_mp=Cidnb29nbGUubWFwcy5wbGFjZXMudjEuUGxhY2VzLlNlYXJjaFRleHQQAhgEIAA,cafe,"cafe,point_of_interest,food,establishment",OPERATIONAL,4.4,124,咖啡烘焙,HK_WanChai
ChIJt4RAU6gBBDQRKQTlu2C6L-w,HK,life? coffee and cakes (不定時營業，開門時間參考IG notice📍,"G/F, 25 First St, Sai Ying Pun",22.286552,114.143108,https://maps.google.com/?cid=17019026441488368681&g_mp=Cidnb29nbGUubWFwcy5wbGFjZXMudjEuUGxhY2VzLlNlYXJjaFRleHQQAhgEIAA,food_store,"coffee_stand,pastry_shop,bakery,dessert_shop,confectionery,food_store,store,point_of_interest,food,establishment",OPERATIONAL,4.8,124,咖啡烘焙;咖啡烘焙室,HK_SheungWan
ChIJ24lnKT8IBDQRtPONcY_9n3Y,HK,木馬屋烘焙專門店 wooden horse,"大埔靖遠街25號, Luk Wo Building, 號",22.4488386,114.1650219,https://maps.google.com/?cid=8547829410299769780&g_mp=Cidnb29nbGUubWFwcy5wbGFjZXMudjEuUGxhY2VzLlNlYXJjaFRleHQQAhgEIAA,store,"store,point_of_interest,food,establishment",OPERATIONAL,4.5,124,咖啡烘焙;咖啡烘焙室,HK_TaiPo
ChIJ7_ZLxfIBBDQRvbpvkFLnpuw,HK,On The Hill Coffee Bar (中環),中環荷李活道10號區警署)大館營房大樓舊中地下15號舖,22.2806115,114.1542259,https://maps.google.com/?cid=17052571380881537725&g_mp=Cidnb29nbGUubWFwcy5wbGFjZXMudjEuUGxhY2VzLlNlYXJjaFRleHQQAhgEIAA,coffee_shop,"coffee_shop,cafe,food_store,store,point_of_interest,food,establishment",OPERATIONAL,4.2,122,咖啡烘焙室,HK_Central
ChIJC8Wkbpr_AzQRw4rAnp0ceCI,HK,Prisma Coffee Company,"3A Watson Rd, Causeway Bay",22.286763099999998,114.1911181,https://maps.google.com/?cid=2483766657793690307&g_mp=Cidnb29nbGUubWFwcy5wbGFjZXMudjEuUGxhY2VzLlNlYXJjaFRleHQQAhgEIAA,coffee_shop,"coffee_shop,cafe,coffee_roastery,bar,food_store,store,restaurant,point_of_interest,food,establishment",OPERATIONAL,4.1,121,coffee roastery;咖啡烘焙,HK_CausewayBay
ChIJ35QA8sf7AzQRMLob7kgabIc,HK,APRIL COFFEE LAB,"Yuen Long, Yu Wing Path, 11號地下22號鋪",22.4417363,114.02596869999999,https://maps.google.com/?cid=9758203393139784240&g_mp=Cidnb29nbGUubWFwcy5wbGFjZXMudjEuUGxhY2VzLlNlYXJjaFRleHQQAhgEIAA,coffee_shop,"coffee_shop,cafe,food_store,store,point_of_interest,food,establishment",OPERATIONAL,4.6,120,coffee roaster;coffee roastery;specialty coffee roaster;咖啡烘焙,HK_YuenLong
ChIJS-jdL3j3AzQRcvM9cX2xXCM,HK,Good Day Coffee Co.,錦田Good Day Coffee城門新村23A號地舖,22.4400105,114.06608039999999,https://maps.google.com/?cid=2548106641513771890&g_mp=Cidnb29nbGUubWFwcy5wbGFjZXMudjEuUGxhY2VzLlNlYXJjaFRleHQQAhgEIAA,cafe,"cafe,point_of_interest,food,establishment",OPERATIONAL,4.7,119,咖啡烘焙,HK_YuenLong
ChIJ9Zwxv8DxAzQR-ESW08IVm5o,HK,Pause It (Yuen Long),"Shop B120, 1/F, 元點1 Long Lok Rd, Yuen Long",22.4450145,114.0350554,https://maps.google.com/?cid=11140522029748733176&g_mp=Cidnb29nbGUubWFwcy5wbGFjZXMudjEuUGxhY2VzLlNlYXJjaFRleHQQAhgEIAA,restaurant,"restaurant,cafe,food_store,store,point_of_interest,food,establishment",OPERATIONAL,4.4,119,咖啡烘焙,HK_YuenLong
ChIJY87yyID_AzQR50LqH0EFA-E,HK,Stone Coffee,"Shop P, G/F, 56 Centre St, Sai Ying Pun",22.2855158,114.14215929999999,https://maps.google.com/?cid=16213808860730376935&g_mp=Cidnb29nbGUubWFwcy5wbGFjZXMudjEuUGxhY2VzLlNlYXJjaFRleHQQAhgEIAA,coffee_shop,"coffee_shop,cafe,food_store,store,point_of_interest,food,establishment",OPERATIONAL,4.3,119,coffee roaster;coffee roastery;specialty coffee roaster,HK_Central
ChIJb2Ye4RQJBDQRw7-_LB4czKQ,HK,sensory ZERO [ Science Park | RoasterLab ],"G01, 17W Science Park W Ave, Tai Po",22.4267555,114.20876679999999,https://maps.google.com/?cid=11874897233394515907&g_mp=Cidnb29nbGUubWFwcy5wbGFjZXMudjEuUGxhY2VzLlNlYXJjaFRleHQQAhgEIAA,coffee_shop,"coffee_shop,cafe,food_store,store,point_of_interest,food,establishment",OPERATIONAL,4,119,coffee roaster,HK_TaiPo
ChIJw2JdTrQBBDQRfD0p3MTxn68,HK,MONO LAB,"7 FLOOR, 31-33 Hollywood Rd, Central",22.2821841,114.1537149,https://maps.google.com/?cid=12655099305743957372&g_mp=Cidnb29nbGUubWFwcy5wbGFjZXMudjEuUGxhY2VzLlNlYXJjaFRleHQQAhgEIAA,cafe,"cafe,point_of_interest,food,establishment",OPERATIONAL,4.3,118,coffee roaster,HK_Central
ChIJB33Sk0L7AzQRWpB2677NPSo,HK,客美多咖啡,"G/F, Phase, Plaza, 1 Tuen Shun St, Tuen Mun",22.3925624,113.977525,https://maps.google.com/?cid=3043815143050219610&g_mp=Cidnb29nbGUubWFwcy5wbGFjZXMudjEuUGxhY2VzLlNlYXJjaFRleHQQAhgEIAA,cafe,"cafe,point_of_interest,food,establishment",OPERATIONAL,3.3,117,咖啡烘焙,HK_TuenMun
ChIJ2zfUNK0BBDQRlx6ihQc3kg0,HK,Slash Cafe Bar,太子基隆街107號,22.326116199999998,114.1653942,https://maps.google.com/?cid=977904574539112087&g_mp=Cidnb29nbGUubWFwcy5wbGFjZXMudjEuUGxhY2VzLlNlYXJjaFRleHQQAhgEIAA,food_store,"cocktail_bar,bar,food_store,store,point_of_interest,food,establishment",OPERATIONAL,4.3,116,咖啡烘焙室,HK_MongKok
ChIJkV6_bJIBBDQRmK1T0QopKuQ,HK,Tailor,"Shop 201, 204, 2/F, Central Market, 93 Queen's Road Central, Central",22.2843902,114.1556287,https://maps.google.com/?cid=16440998516107750808&g_mp=Cidnb29nbGUubWFwcy5wbGFjZXMudjEuUGxhY2VzLlNlYXJjaFRleHQQAhgEIAA,cafe,"cafe,point_of_interest,food,establishment",OPERATIONAL,4.4,116,咖啡烘焙,HK_Central
ChIJW1s7hFcBBDQRgEcHv3FSDrs,HK,【烘焙DIY】Home.焙小日子灣仔店,灣仔皇后大道東183號合和商場6樓 607-608號鋪,22.2746422,114.1717929,https://maps.google.com/?cid=13478801383256180608&g_mp=Cidnb29nbGUubWFwcy5wbGFjZXMudjEuUGxhY2VzLlNlYXJjaFRleHQQAhgEIAA,dessert_shop,"dessert_shop,confectionery,food_store,store,point_of_interest,food,establishment",OPERATIONAL,4.8,116,咖啡烘焙室,HK_Central
ChIJo9xWTLwFBDQRf1RVWiEaJ2U,HK,米珈琲 珈琲専科,"號 地下, 3 Sai Kung Tai St, Sai Kung",22.380183,114.2708765,https://maps.google.com/?cid=7288823252474221695&g_mp=Cidnb29nbGUubWFwcy5wbGFjZXMudjEuUGxhY2VzLlNlYXJjaFRleHQQAhgEIAA,coffee_shop,"coffee_shop,cafe,food_store,store,food,point_of_interest,establishment",OPERATIONAL,3.7,116,咖啡烘焙,HK_SaiKung
ChIJ-yiX5BYBBDQRTsbDA77DE4I,HK,Cupping Room (Kwun Tong),"Kwun Tong, Kwun Tong Rd, 418號, Millennium City Phase V, 大堂高層15號舖",22.312486699999997,114.22501849999999,https://maps.google.com/?cid=9373050470362498638&g_mp=Cidnb29nbGUubWFwcy5wbGFjZXMudjEuUGxhY2VzLlNlYXJjaFRleHQQAhgEIAA,coffee_shop,"coffee_shop,cafe,food_store,store,point_of_interest,food,establishment",OPERATIONAL,3.9,115,coffee roaster;coffee roastery,HK_KwunTong
ChIJ3TcnzwMHBDQRMXnfg0SVZs4,HK,I’M Thirsty 渴喝,"452 Castle Peak Rd, Cheung Sha Wan",22.340213,114.1533434,https://maps.google.com/?cid=14872738940940417329&g_mp=Cidnb29nbGUubWFwcy5wbGFjZXMudjEuUGxhY2VzLlNlYXJjaFRleHQQAhgEIAA,cafe,"cafe,point_of_interest,food,establishment",OPERATIONAL,4.8,115,咖啡烘焙室,HK_ShamShuiPo
ChIJqaQ_1qMBBDQRglW_NXIuLu8,HK,The Meek Coffee,"Shop 01-02, 11/F, 93 Wai Yip St, Ngau Tau Kok",22.3164034,114.21477519999999,https://maps.google.com/?cid=17234763892056348034&g_mp=Cidnb29nbGUubWFwcy5wbGFjZXMudjEuUGxhY2VzLlNlYXJjaFRleHQQAhgEIAA,coffee_shop,"coffee_shop,cafe,food_store,store,restaurant,point_of_interest,food,establishment",OPERATIONAL,4.8,115,咖啡烘焙;咖啡烘焙室,HK_KwunTong
ChIJLWsLBToHBDQRhvbx1uC9hIs,HK,集氣箱 Entrebox - 咖啡用品儀器專門店 | 咖啡網購網店,"新蒲崗四美街23號利森工廠大廈Block D1/F, Room D",22.337385899999997,114.2008163,https://maps.google.com/?cid=10053369041574295174&g_mp=Cidnb29nbGUubWFwcy5wbGFjZXMudjEuUGxhY2VzLlNlYXJjaFRleHQQAhgEIAA,wholesaler,"coffee_roastery,wholesaler,supplier,point_of_interest,food,establishment",OPERATIONAL,4.7,114,咖啡烘焙;咖啡烘焙室,HK_Central
ChIJEVoUS8IBBDQR2n8bcA8HBJk,HK,初麥手作烘焙,北角英皇道485號C字B鋪地下,22.291661599999998,114.2016745,https://maps.google.com/?cid=11025945550596571098&g_mp=Cidnb29nbGUubWFwcy5wbGFjZXMudjEuUGxhY2VzLlNlYXJjaFRleHQQAhgEIAA,bakery,"bakery,point_of_interest,food_store,store,food,establishment",OPERATIONAL,4.1,112,咖啡烘焙室,HK_CausewayBay
ChIJqa4YdnwJBDQRglGYfUOYYog,HK,唐源,大埔安祥路412號10號號舖,22.4540065,114.1680648,https://maps.google.com/?cid=9827584752513208706&g_mp=Cidnb29nbGUubWFwcy5wbGFjZXMudjEuUGxhY2VzLlNlYXJjaFRleHQQAhgEIAA,cafe,"cafe,food,point_of_interest,establishment",OPERATIONAL,4.1,112,咖啡烘焙,HK_TaiPo
ChIJA2Tv5yn5AzQR2yzHd4oGimo,HK,Relax Coffee,葵涌葵昌路Life@kcc葵興地下G06號鋪 活@KCC,22.3624549,114.1322952,https://maps.google.com/?cid=7676955706591227099&g_mp=Cidnb29nbGUubWFwcy5wbGFjZXMudjEuUGxhY2VzLlNlYXJjaFRleHQQAhgEIAA,coffee_shop,"coffee_shop,cafe,point_of_interest,food_store,store,food,establishment",OPERATIONAL,4.4,111,咖啡烘焙室,HK_ShaTin
ChIJExU29uPxAzQRRkbtrWMd1rg,HK,ā kafe 丫咖啡研究所,蝦尾新村庸園路128號地下元朗屏山,22.4522797,114.01187689999999,https://maps.google.com/?cid=13318865261951796806&g_mp=Cidnb29nbGUubWFwcy5wbGFjZXMudjEuUGxhY2VzLlNlYXJjaFRleHQQAhgEIAA,cafe,"cafe,point_of_interest,food,establishment",OPERATIONAL,3.8,111,咖啡烘焙室,HK_TuenMun
ChIJY_eMNt0BBDQRMGYIIeAecwI,HK,Russell Coffee & Roastery,"G/F, 26A Russell St, Causeway Bay",22.2787933,114.1821826,https://maps.google.com/?cid=176518758373287472&g_mp=Cidnb29nbGUubWFwcy5wbGFjZXMudjEuUGxhY2VzLlNlYXJjaFRleHQQAhgEIAA,cafe,"cafe,point_of_interest,food,establishment",OPERATIONAL,4.1,109,coffee roaster;coffee roastery;specialty coffee roaster,HK_Central
ChIJY5JHVkcBBDQRIyI2DmRqX6k,HK,Hypebeans,"Shop B19A, B1/F, LANDMARK ATRIUM, 15 Queen's Road Central, Central",22.280940400000002,114.1575601,https://maps.google.com/?cid=12204590493165036067&g_mp=Cidnb29nbGUubWFwcy5wbGFjZXMudjEuUGxhY2VzLlNlYXJjaFRleHQQAhgEIAA,coffee_shop,"coffee_shop,cafe,food_store,store,point_of_interest,food,establishment",OPERATIONAL,4.3,108,coffee roaster,HK_Central
ChIJD_-jPjIBBDQRDqioHNkSYLo,HK,Kactus Koffee (Sheung Wan),"G/F, 27 Queen's Rd W, Sheung Wan",22.2868111,114.1483595,https://maps.google.com/?cid=13429754812516837390&g_mp=Cidnb29nbGUubWFwcy5wbGFjZXMudjEuUGxhY2VzLlNlYXJjaFRleHQQAhgEIAA,coffee_shop,"coffee_shop,cafe,point_of_interest,food_store,store,food,establishment",OPERATIONAL,3.8,108,coffee roastery,HK_SheungWan
ChIJDVLXMoUFBDQRbUWkiSII0_8,HK,WARM BREAD,西貢市場街9號,22.379594599999997,114.2711985,https://maps.google.com/?cid=18434086644188726637&g_mp=Cidnb29nbGUubWFwcy5wbGFjZXMudjEuUGxhY2VzLlNlYXJjaFRleHQQAhgEIAA,cafe,"cafe,food,point_of_interest,establishment",OPERATIONAL,4.5,107,咖啡烘焙;咖啡烘焙室,HK_SaiKung
ChIJ87xB3dwBBDQRs4EilH-BcjQ,HK,so330,灣仔太原街38號太源閣地下A-C舖,22.2752046,114.17338029999999,https://maps.google.com/?cid=3779225422263386547&g_mp=Cidnb29nbGUubWFwcy5wbGFjZXMudjEuUGxhY2VzLlNlYXJjaFRleHQQAhgEIAA,cafe,"cafe,point_of_interest,food,establishment",OPERATIONAL,4.2,103,咖啡烘焙室,HK_Central
ChIJBX7kyaIBBDQRlG9wVRCbqZ4,HK,Coffee Hwajeon (커피화전),"尖沙咀 Austin Rd W, 1號樓1028B號舖",22.3052746,114.160907,https://maps.google.com/?cid=11432839623511928724&g_mp=Cidnb29nbGUubWFwcy5wbGFjZXMudjEuUGxhY2VzLlNlYXJjaFRleHQQAhgEIAA,cafe,"cafe,point_of_interest,food,establishment",OPERATIONAL,4.2,101,咖啡烘焙室,HK_TsimShaTsui
ChIJAdMhcAABBDQRZPzM0mLZ28Y,HK,Sang Roastery (Central),"66 Staunton St, Central",22.282985999999998,114.15162099999999,https://maps.google.com/?cid=14329285657876036708&g_mp=Cidnb29nbGUubWFwcy5wbGFjZXMudjEuUGxhY2VzLlNlYXJjaFRleHQQAhgEIAA,coffee_shop,"coffee_shop,cafe,food_store,store,point_of_interest,food,establishment",OPERATIONAL,4.3,101,coffee roaster;coffee roastery;specialty coffee roaster;咖啡烘焙;咖啡烘焙室,HK_Central
ChIJS5uFCq8BBDQRweyPwktX6-s,HK,紅豆烘焙,"Shop A2-A3, 520A-522 Shanghai St, Mong Kok",22.3172347,114.16862640000001,https://maps.google.com/?cid=16999777201338444993&g_mp=Cidnb29nbGUubWFwcy5wbGFjZXMudjEuUGxhY2VzLlNlYXJjaFRleHQQAhgEIAA,bakery,"bakery,food_store,store,point_of_interest,food,establishment",OPERATIONAL,3.6,98,咖啡烘焙;咖啡烘焙室,HK_MongKok
ChIJb-y9K_EBBDQRSlr1qudRw9c,HK,Coffeelin Espresso (Wan Chai),灣仔謝斐道104號,22.278468,114.172259,https://maps.google.com/?cid=15547360394060585546&g_mp=Cidnb29nbGUubWFwcy5wbGFjZXMudjEuUGxhY2VzLlNlYXJjaFRleHQQAhgEIAA,coffee_shop,"coffee_shop,cafe,food_store,store,point_of_interest,food,establishment",OPERATIONAL,4,97,咖啡烘焙,HK_WanChai
ChIJfxa32CwBBDQRuqSSWWqea54,HK,享樂烘焙 (九龍灣),"九龍灣常悅道21號, Eastmark, 地下3號鋪",22.3221986,114.21127919999999,https://maps.google.com/?cid=11415391860107158714&g_mp=Cidnb29nbGUubWFwcy5wbGFjZXMudjEuUGxhY2VzLlNlYXJjaFRleHQQAhgEIAA,bakery,"bakery,food_store,manufacturer,store,wholesaler,point_of_interest,food,establishment",OPERATIONAL,4,96,咖啡烘焙;咖啡烘焙室,HK_KwunTong
ChIJIXRPIwwBBDQRaOgZ7uCqX5Y,HK,Craft Coffee Roaster (Wan Chai),"G/F, Shop B1, 4-6 Morrison Hill Rd, Wan Chai",22.2777794,114.1796289,https://maps.google.com/?cid=10835567111520774248&g_mp=Cidnb29nbGUubWFwcy5wbGFjZXMudjEuUGxhY2VzLlNlYXJjaFRleHQQAhgEIAA,coffee_shop,"coffee_shop,cafe,food_store,store,point_of_interest,food,establishment",OPERATIONAL,4.3,95,coffee roaster;coffee roastery;specialty coffee roaster;咖啡烘焙,HK_Central
ChIJTaPwkxEBBDQRej5jD64OXFg,HK,First Place Coffee,"26-36 King's Rd, Causeway Bay",22.283603100000004,114.1927733,https://maps.google.com/?cid=6366980113940299386&g_mp=Cidnb29nbGUubWFwcy5wbGFjZXMudjEuUGxhY2VzLlNlYXJjaFRleHQQAhgEIAA,coffee_shop,"coffee_shop,cafe,food_store,store,point_of_interest,food,establishment",OPERATIONAL,4.3,95,coffee roaster;coffee roastery;specialty coffee roaster,HK_CausewayBay
ChIJZY4bpcL7AzQRdM2KBTPIDgs,HK,First Stage Cafe,屯門良德街8號珀御坊地下G07號舖,22.4074618,113.96783029999999,https://maps.google.com/?cid=796794305553026420&g_mp=Cidnb29nbGUubWFwcy5wbGFjZXMudjEuUGxhY2VzLlNlYXJjaFRleHQQAhgEIAA,cafe,"cafe,point_of_interest,food,establishment",OPERATIONAL,4.2,95,coffee roaster;咖啡烘焙;咖啡烘焙室,HK_TuenMun
ChIJ8X5BLVwABDQRA2HSuZ-RhSk,HK,The Corner Coffee @ HKAC,"G/F, Arts Centre, 2 Harbour Rd, Wan Chai",22.2801464,114.17082769999999,https://maps.google.com/?cid=2991957642660962563&g_mp=Cidnb29nbGUubWFwcy5wbGFjZXMudjEuUGxhY2VzLlNlYXJjaFRleHQQAhgEIAA,coffee_shop,"coffee_shop,cafe,food_store,store,point_of_interest,food,establishment",OPERATIONAL,4.3,93,coffee roaster;coffee roastery;specialty coffee roaster,HK_Central
ChIJ3UL3uMAABDQRIDVVbeCSHhE,HK,烘在家(烘焙材料專門店),油麻地上海街383號7樓a室,22.3137519,114.169086,https://maps.google.com/?cid=1233584840550724896&g_mp=Cidnb29nbGUubWFwcy5wbGFjZXMudjEuUGxhY2VzLlNlYXJjaFRleHQQAhgEIAA,store,"store,point_of_interest,food,establishment",OPERATIONAL,4.3,92,咖啡烘焙室,HK_Central
ChIJIcwlZKoHBDQRPoHIfHTKgq0,HK,Studio Caffeine (Fo Tan),火炭坳背灣街14-24號金豪工業大廈一期 地下B02鋪,22.3979225,114.194756,https://maps.google.com/?cid=12502778117192450366&g_mp=Cidnb29nbGUubWFwcy5wbGFjZXMudjEuUGxhY2VzLlNlYXJjaFRleHQQAhgEIAA,coffee_shop,"coffee_shop,cafe,food_store,store,point_of_interest,food,establishment",OPERATIONAL,4.4,90,coffee roastery,HK_ShaTin
ChIJJ7qdKUXxAzQR0rsMFSonBnM,HK,Cruising Specialty Coffee,"Shop No. 4 on Ground Floor, Yuccie Square, No, 38 Yuen Long On Ning Rd, Yuen Long",22.4472299,114.0278032,https://maps.google.com/?cid=8288355225917242322&g_mp=Cidnb29nbGUubWFwcy5wbGFjZXMudjEuUGxhY2VzLlNlYXJjaFRleHQQAhgEIAA,coffee_shop,"coffee_shop,cafe,point_of_interest,food_store,store,food,establishment",OPERATIONAL,4.2,89,coffee roaster;specialty coffee roaster,HK_YuenLong
ChIJMWFLVJ4BBDQR4cCEMzzJtCU,HK,Sinbad Coffee Roasters,"G/F, 31 Wong Nai Chung Rd, Happy Valley",22.2700548,114.1848598,https://maps.google.com/?cid=2717017735610810593&g_mp=Cidnb29nbGUubWFwcy5wbGFjZXMudjEuUGxhY2VzLlNlYXJjaFRleHQQAhgEIAA,cafe,"cafe,point_of_interest,food,establishment",OPERATIONAL,4.4,86,coffee roaster;coffee roastery;specialty coffee roaster,HK_Central
ChIJXUo6qFQBBDQRXW0OBImar8E,HK,Three By One Coffee Roastery (Baker Circle),"Shop G610, Baker Circle, 33 Whampoa St, Hung Hom",22.3070204,114.184952,https://maps.google.com/?cid=13956543683513707869&g_mp=Cidnb29nbGUubWFwcy5wbGFjZXMudjEuUGxhY2VzLlNlYXJjaFRleHQQAhgEIAA,cafe,"cafe,food,point_of_interest,establishment",OPERATIONAL,4.3,86,coffee roastery;咖啡烘焙室;specialty coffee roaster,HK_Central
ChIJ4SRXIX4BBDQR0nSv3N-TX1Y,HK,TheLob,"G/F, 14號 Aberdeen St, Central",22.283668700000003,114.1527667,https://maps.google.com/?cid=6223855799738791122&g_mp=Cidnb29nbGUubWFwcy5wbGFjZXMudjEuUGxhY2VzLlNlYXJjaFRleHQQAhgEIAA,food_store,"cafe,health_food_store,food_store,store,health,restaurant,point_of_interest,food,establishment",OPERATIONAL,4.4,85,咖啡烘焙,HK_Central
ChIJpfiyOE8BBDQRazQ7L6hjHgQ,HK,Wabi Sabi Coffee,觀塘觀塘道396號毅力工業中心UnitC4/F,22.313267699999997,114.2222855,https://maps.google.com/?cid=296784199451096171&g_mp=Cidnb29nbGUubWFwcy5wbGFjZXMudjEuUGxhY2VzLlNlYXJjaFRleHQQAhgEIAA,cafe,"cafe,point_of_interest,food,establishment",OPERATIONAL,4.1,84,咖啡烘焙;咖啡烘焙室,HK_KwunTong
ChIJryrgaoH_AzQRvHrG0QCut7Q,HK,帽子 珈琲,西營盤德輔道西294號寶立閣寶立閣,22.2873984,114.1393683,https://maps.google.com/?cid=13022068166107757244&g_mp=Cidnb29nbGUubWFwcy5wbGFjZXMudjEuUGxhY2VzLlNlYXJjaFRleHQQAhgEIAA,food_store,"breakfast_restaurant,brunch_restaurant,restaurant,point_of_interest,food_store,store,food,establishment",OPERATIONAL,4.7,82,咖啡烘焙,HK_Central
ChIJPVU5UsAABDQRWpnKCws7xaM,HK,ELF Coffee 佐敦 咖啡專門店,油麻地吳松街62-64號7樓 全層,22.3069904,114.17070000000001,https://maps.google.com/?cid=11800903317222758746&g_mp=Cidnb29nbGUubWFwcy5wbGFjZXMudjEuUGxhY2VzLlNlYXJjaFRleHQQAhgEIAA,store,"store,food_store,wholesaler,point_of_interest,supplier,food,establishment",OPERATIONAL,4.5,80,咖啡烘焙室,HK_Central
ChIJNdWaoZn7AzQRg76ORBMO_Q8,HK,Accro Café Bar,"Shop A-123, Zone A, H.A.N.D.S, On Ting Estate, Tuen Mun",22.3873197,113.9759526,https://maps.google.com/?cid=1152092555594088067&g_mp=Cidnb29nbGUubWFwcy5wbGFjZXMudjEuUGxhY2VzLlNlYXJjaFRleHQQAhgEIAA,cafe,"cafe,point_of_interest,food,establishment",OPERATIONAL,4.4,78,coffee roastery;咖啡烘焙;咖啡烘焙室,HK_TuenMun
ChIJqXAP4jwBBDQRf7ZFSRysMyc,HK,N.O.T. Specialty Coffee,"Shop 207-210, 41 Connaught Rd Central, Central",22.284229399999997,114.1565225,https://maps.google.com/?cid=2824790628779800191&g_mp=Cidnb29nbGUubWFwcy5wbGFjZXMudjEuUGxhY2VzLlNlYXJjaFRleHQQAhgEIAA,coffee_shop,"coffee_shop,cafe,food_store,store,point_of_interest,food,establishment",OPERATIONAL,3.9,78,coffee roaster;coffee roastery;specialty coffee roaster,HK_Central
ChIJGzxHrAr7AzQRkev2MTcxneQ,HK,Lorway Coffee & Bakery,屯門海榮路22號屯門中央廣場B3-A,22.381296199999998,113.971954,https://maps.google.com/?cid=16473377125122370449&g_mp=Cidnb29nbGUubWFwcy5wbGFjZXMudjEuUGxhY2VzLlNlYXJjaFRleHQQAhgEIAA,food_store,"point_of_interest,food_store,store,food,establishment",OPERATIONAL,4.1,76,coffee roaster,HK_TuenMun
ChIJrcWWl_77AzQRWR1WLZ4RBUs,HK,The Way Coffee,"Yuen Long, Hop Yick Rd, 9-15號, Kei Yip Building, 地下H號舖",22.441574799999998,114.0318149,https://maps.google.com/?cid=5405746298791271769&g_mp=Cidnb29nbGUubWFwcy5wbGFjZXMudjEuUGxhY2VzLlNlYXJjaFRleHQQAhgEIAA,food_store,"western_restaurant,coffee_stand,dessert_shop,confectionery,food_store,store,restaurant,point_of_interest,food,establishment",OPERATIONAL,4.6,75,coffee roaster;coffee roastery,HK_YuenLong
ChIJb_Z_-DQGBDQR2JsCmSd1xJU,HK,笠笠咖啡 Lov Lov Coffee | 國際咖啡課程 拉花班 咖啡豆,石門安麗街11號923室,22.389738599999998,114.20756399999999,https://maps.google.com/?cid=10791879420017810392&g_mp=Cidnb29nbGUubWFwcy5wbGFjZXMudjEuUGxhY2VzLlNlYXJjaFRleHQQAhgEIAA,coffee_roastery,"coffee_roastery,educational_institution,wholesaler,point_of_interest,food,establishment",OPERATIONAL,4.5,75,咖啡烘焙室;coffee roastery,HK_Central
ChIJryFt5nMBBDQRaG4TzGtVqgo,HK,101 Binary,"16 Tsing Fung St, Causeway Bay",22.2846427,114.19229179999999,https://maps.google.com/?cid=768520607893778024&g_mp=Cidnb29nbGUubWFwcy5wbGFjZXMudjEuUGxhY2VzLlNlYXJjaFRleHQQAhgEIAA,cafe,"cafe,point_of_interest,food,establishment",OPERATIONAL,4,73,specialty coffee roaster,HK_Central
ChIJMxcQ-7gBBDQRquymz7Pe548,HK,Coffeer,"Causeway Bay, Sun Wui Rd, 6-10號, Capital Building, Shop G95, G/F",22.2777158,114.1847377,https://maps.google.com/?cid=10369501530908191914&g_mp=Cidnb29nbGUubWFwcy5wbGFjZXMudjEuUGxhY2VzLlNlYXJjaFRleHQQAhgEIAA,coffee_shop,"coffee_shop,cafe,point_of_interest,food_store,store,food,establishment",OPERATIONAL,4.7,72,coffee roaster;coffee roastery,HK_WanChai
ChIJ0fv9RskBBDQR_Kw_tk8BYso,HK,% Arabica (Causeway Bay),"Causeway Bay, Hennessy Rd, 500號B1樓B114號舖",22.2795933,114.1839629,https://maps.google.com/?cid=14583219985250757884&g_mp=Cidnb29nbGUubWFwcy5wbGFjZXMudjEuUGxhY2VzLlNlYXJjaFRleHQQAhgEIAA,coffee_shop,"coffee_shop,cafe,food_store,store,point_of_interest,food,establishment",OPERATIONAL,3.9,71,coffee roastery,HK_CausewayBay
ChIJoTwpOYsBBDQR13hvDZb30eg,HK,初緣 First Glance,"Unit 602A, 6, F, Block B, Hoi Luen Industrial Centre, 55 Hoi Yuen Rd, Kwun Tong",22.3103238,114.2243223,https://maps.google.com/?cid=16776462310774372567&g_mp=Cidnb29nbGUubWFwcy5wbGFjZXMudjEuUGxhY2VzLlNlYXJjaFRleHQQAhgEIAA,coffee_shop,"coffee_shop,coffee_roastery,cafe,pastry_shop,bakery,dessert_shop,confectionery,food_store,store,wholesaler,point_of_interest,food,establishment",OPERATIONAL,4.4,70,coffee roastery;咖啡烘焙;咖啡烘焙室,HK_KwunTong
ChIJ9a5LJ8cBBDQR3T8hgcJjnLM,HK,SonneCAD Coffee 手沖咖啡專門店,大坑新村街16號號地下,22.2780379,114.1921519,https://maps.google.com/?cid=12942329116197208029&g_mp=Cidnb29nbGUubWFwcy5wbGFjZXMudjEuUGxhY2VzLlNlYXJjaFRleHQQAhgEIAA,cafe,"cafe,point_of_interest,food,establishment",OPERATIONAL,4.3,69,咖啡烘焙室,HK_CausewayBay
ChIJVw9iojAHBDQRRL3o0JLsKZ0,HK,115 SEN Coffee,"Shop 115, 1/F, Kai Chuen Shopping Centre, 235 Choi Hung Rd, Diamond Hill",22.340107,114.20020059999999,https://maps.google.com/?cid=11324842853314116932&g_mp=Cidnb29nbGUubWFwcy5wbGFjZXMudjEuUGxhY2VzLlNlYXJjaFRleHQQAhgEIAA,cafe,"cafe,coffee_roastery,coffee_shop,food_store,store,point_of_interest,food,establishment",OPERATIONAL,4.8,68,咖啡烘焙;coffee roastery,HK_TsimShaTsui
ChIJDS-V7lUBBDQRV8lGpgyC7C4,HK,HOLISTIC Coffee Roastery,"Central, Graham St, 34號號地下",22.2827903,114.1533729,https://maps.google.com/?cid=3381220411089275223&g_mp=Cidnb29nbGUubWFwcy5wbGFjZXMudjEuUGxhY2VzLlNlYXJjaFRleHQQAhgEIAA,food_store,"food_store,store,point_of_interest,food,establishment",OPERATIONAL,4.4,68,coffee roaster;coffee roastery;specialty coffee roaster,HK_Central
ChIJx5jDcUD7AzQRZSA5D1WwUP0,HK,pal.,屯門達仁坊1-29號遠東發展屯門中心大廈地下L號鋪,22.3972175,113.9768752,https://maps.google.com/?cid=18253283169106731109&g_mp=Cidnb29nbGUubWFwcy5wbGFjZXMudjEuUGxhY2VzLlNlYXJjaFRleHQQAhgEIAA,cafe,"cafe,point_of_interest,food,establishment",OPERATIONAL,4.3,67,咖啡烘焙,HK_TuenMun
ChIJY-p5u677AzQRwL6wn-RYdPs,HK,THE MATCHA TOKYO (屯門),"1 Tuen Shun Street Shop 1133, 1/F, Tuen Mun Town Plaza, Tuen Mun",22.3927756,113.977251,https://maps.google.com/?cid=18119204939773296320&g_mp=Cidnb29nbGUubWFwcy5wbGFjZXMudjEuUGxhY2VzLlNlYXJjaFRleHQQAhgEIAA,tea_house,"tea_house,coffee_shop,cafe,food_store,store,point_of_interest,food,establishment",OPERATIONAL,3.8,66,咖啡烘焙,HK_TuenMun
ChIJk2znQtsBBDQRF0MEybcipRE,HK,梅森凱瑟 黃竹坑店,"G/F, MARINA 88 Heung Yip Rd, Wong Chuk Hang",22.248341699999997,114.1678104,https://maps.google.com/?cid=1271460642548892439&g_mp=Cidnb29nbGUubWFwcy5wbGFjZXMudjEuUGxhY2VzLlNlYXJjaFRleHQQAhgEIAA,bakery,"bakery,coffee_shop,cafe,dessert_shop,confectionery,food_store,store,point_of_interest,food,establishment",OPERATIONAL,4.3,66,咖啡烘焙,HK_Aberdeen
ChIJVRCyRqYBBDQRxOFteEgNTSQ,HK,Lazzy Project,"Shop No. 3, 2 Shau Kei Wan Main St E, Shau Kei Wan",22.28139,114.23050549999999,https://maps.google.com/?cid=2615761563481399748&g_mp=Cidnb29nbGUubWFwcy5wbGFjZXMudjEuUGxhY2VzLlNlYXJjaFRleHQQAhgEIAA,coffee_shop,"coffee_shop,cafe,food_store,store,point_of_interest,food,establishment",OPERATIONAL,4.6,65,coffee roastery,HK_IslandEast
ChIJET4E3wUBBDQRiJ-DD6EI-Ds,HK,MIS Coffee Club,"8 Hoi Kwong St, Quarry Bay",22.2881356,114.21077059999999,https://maps.google.com/?cid=4321213330305032072&g_mp=Cidnb29nbGUubWFwcy5wbGFjZXMudjEuUGxhY2VzLlNlYXJjaFRleHQQAhgEIAA,coffee_shop,"coffee_shop,cafe,food_store,store,point_of_interest,food,establishment",OPERATIONAL,4.6,65,coffee roastery;specialty coffee roaster,HK_CausewayBay
ChIJXVwzYwABBDQRAMJ9Uz1wKRs,HK,Sipper Coffee,"Shop H, King Sing House, 1A Kennedy St, Wan Chai",22.2740035,114.1745085,https://maps.google.com/?cid=1957218921765257728&g_mp=Cidnb29nbGUubWFwcy5wbGFjZXMudjEuUGxhY2VzLlNlYXJjaFRleHQQAhgEIAA,coffee_shop,"coffee_shop,cafe,food_store,store,point_of_interest,food,establishment",OPERATIONAL,4.7,65,specialty coffee roaster;coffee roastery,HK_Central
ChIJ292VZgwBBDQR0QF2kw9iVS4,HK,Cafe Leitz by INTERVAL,"12 Pak Sha Rd, Causeway Bay",22.2789272,114.18412199999999,https://maps.google.com/?cid=3338682517803106769&g_mp=Cidnb29nbGUubWFwcy5wbGFjZXMudjEuUGxhY2VzLlNlYXJjaFRleHQQAhgEIAA,cafe,"cafe,point_of_interest,food,establishment",OPERATIONAL,4.7,64,coffee roaster;specialty coffee roaster,HK_WanChai
ChIJ0bADf1kABDQR30AUFfMB_Fg,HK,George Coffee,"港灣道28號Brim 28, 1, Causeway Centre Block A, 12 Henderson Rd, Wan Chai",22.2801644,114.17639870000001,https://maps.google.com/?cid=6412002113011073247&g_mp=Cidnb29nbGUubWFwcy5wbGFjZXMudjEuUGxhY2VzLlNlYXJjaFRleHQQAhgEIAA,cafe,"cafe,point_of_interest,food,establishment",OPERATIONAL,3.8,64,coffee roaster,HK_WanChai
ChIJLXWVkdQBBDQRx491gA7FcuQ,HK,Urban Roasted Resort,"98 Tai Nan St, Mong Kok",22.325459,114.16573079999999,https://maps.google.com/?cid=16461436254067986375&g_mp=Cidnb29nbGUubWFwcy5wbGFjZXMudjEuUGxhY2VzLlNlYXJjaFRleHQQAhgEIAA,coffee_shop,"coffee_shop,cafe,furniture_store,home_improvement_store,home_goods_store,event_venue,food_store,store,point_of_interest,food,establishment",OPERATIONAL,3.3,63,coffee roaster,HK_MongKok
ChIJ5zcwBAABBDQRiu9O6XT2a2k,HK,初麥手作烘焙,鵝頸軒尼詩道東南大廈,22.279978,114.18240499999999,https://maps.google.com/?cid=7596436178481377162&g_mp=Cidnb29nbGUubWFwcy5wbGFjZXMudjEuUGxhY2VzLlNlYXJjaFRleHQQAhgEIAA,bakery,"bakery,food_store,store,point_of_interest,food,establishment",OPERATIONAL,3.6,63,咖啡烘焙室,HK_Central
ChIJzWXOXvIABDQRzomY4mFEVh4,HK,雙魚小姐精品烘焙蛋糕店,尖沙咀漢口道5-15號漢口中心,22.295702799999997,114.1711426,https://maps.google.com/?cid=2186009856339118542&g_mp=Cidnb29nbGUubWFwcy5wbGFjZXMudjEuUGxhY2VzLlNlYXJjaFRleHQQAhgEIAA,bakery,"bakery,food_store,store,point_of_interest,food,establishment",OPERATIONAL,4.6,61,咖啡烘焙,HK_TsimShaTsui
ChIJTX09ZIb_AzQRz_30T0Aelu0,HK,Café 330（香港大學）,龍虎山薄扶林道莊月明文娛中心 203,22.282660999999997,114.13904959999999,https://maps.google.com/?cid=17119904295063715279&g_mp=Cidnb29nbGUubWFwcy5wbGFjZXMudjEuUGxhY2VzLlNlYXJjaFRleHQQAhgEIAA,cafe,"cafe,point_of_interest,food,establishment",OPERATIONAL,4.1,59,咖啡烘焙室,HK_SheungWan
ChIJq6oah08BBDQRtx6UapJlRvY,HK,ICHI Baking Supplies (Kwun Tong) 一級烘焙材料及用具銷售中心 (觀塘),觀塘804-805Entrepot Centre117 How Ming Street,22.311916600000004,114.2251455,https://maps.google.com/?cid=17745983061227740855&g_mp=Cidnb29nbGUubWFwcy5wbGFjZXMudjEuUGxhY2VzLlNlYXJjaFRleHQQAhgEIAA,store,"gift_shop,shopping_mall,event_venue,manufacturer,food_store,furniture_store,home_improvement_store,home_goods_store,wholesaler,store,point_of_interest,supplier,food,establishment",OPERATIONAL,3.9,59,咖啡烘焙室,HK_Central
ChIJLcWjb3YBBDQRhe_pyRQWKAs,HK,Introvert.Coffee & Roastery,"132A Ki Lung St, Sham Shui Po",22.3272014,114.16426779999999,https://maps.google.com/?cid=803916812028342149&g_mp=Cidnb29nbGUubWFwcy5wbGFjZXMudjEuUGxhY2VzLlNlYXJjaFRleHQQAhgEIAA,food_store,"food_store,store,point_of_interest,food,establishment",OPERATIONAL,4.7,59,coffee roaster;coffee roastery;specialty coffee roaster;咖啡烘焙,HK_Central
ChIJ-xu6If8BBDQRd_CG4C0QwZo,HK,Zero One Coffee & Roastery,"77 Queen's Rd E, Wan Chai",22.2761972,114.1697604,https://maps.google.com/?cid=11151211941572571255&g_mp=Cidnb29nbGUubWFwcy5wbGFjZXMudjEuUGxhY2VzLlNlYXJjaFRleHQQAhgEIAA,coffee_shop,"coffee_shop,cafe,food_store,store,point_of_interest,food,establishment",OPERATIONAL,4.3,58,coffee roaster;coffee roastery;specialty coffee roaster;咖啡烘焙,HK_Central
ChIJP1y_mFEJBDQRW4QHZkbfbow,HK,Coffee Obsession (Tai Po),"Kwong Fuk Square, Tai Po",22.4475575,114.167987,https://maps.google.com/?cid=10119270906200556635&g_mp=Cidnb29nbGUubWFwcy5wbGFjZXMudjEuUGxhY2VzLlNlYXJjaFRleHQQAhgEIAA,coffee_shop,"coffee_shop,cafe,food_store,store,point_of_interest,food,establishment",OPERATIONAL,4.1,57,coffee roaster;coffee roastery;咖啡烘焙;咖啡烘焙室,HK_TaiPo
ChIJHcrFwC4BBDQRDCsJlH_tM9Y,HK,KOFFEE MAMEYA,"B217, K11 Musea, Victoria Dockside, Tsim Sha Tsui",22.294347800000004,114.1745832,https://maps.google.com/?cid=15434941480129080076&g_mp=Cidnb29nbGUubWFwcy5wbGFjZXMudjEuUGxhY2VzLlNlYXJjaFRleHQQAhgEIAA,coffee_shop,"coffee_shop,cafe,food_store,store,point_of_interest,food,establishment",OPERATIONAL,4,57,coffee roaster;specialty coffee roaster,HK_TsimShaTsui
ChIJRRS3UhUBBDQRj9lsQ7knTQI,HK,first crack coffee by summer ice,"55 Graham St, Central",22.282285599999998,114.15267039999999,https://maps.google.com/?cid=165832437936216463&g_mp=Cidnb29nbGUubWFwcy5wbGFjZXMudjEuUGxhY2VzLlNlYXJjaFRleHQQAhgEIAA,coffee_shop,"coffee_shop,cafe,food_store,store,point_of_interest,food,establishment",OPERATIONAL,4.4,57,coffee roaster;coffee roastery;specialty coffee roaster;咖啡烘焙,HK_Central
ChIJKYMw8eYBBDQRmKWMtKemSio,HK,Syphon coffee,油麻地廟街56-58號號地下,22.3102983,114.17051989999999,https://maps.google.com/?cid=3047431337088427416&g_mp=Cidnb29nbGUubWFwcy5wbGFjZXMudjEuUGxhY2VzLlNlYXJjaFRleHQQAhgEIAA,cafe,"cafe,point_of_interest,food,establishment",OPERATIONAL,3.8,56,咖啡烘焙,HK_YauMaTei
ChIJ53zNmSYBBDQRTDiXqXIf8YA,HK,Another Shot!,"G/F Lobby, Kingston International Centre, 19 Wang Chiu Rd, Kowloon Bay",22.323527799999997,114.2093137,https://maps.google.com/?cid=9291242083574036556&g_mp=Cidnb29nbGUubWFwcy5wbGFjZXMudjEuUGxhY2VzLlNlYXJjaFRleHQQAhgEIAA,coffee_shop,"coffee_shop,cafe,food_store,store,point_of_interest,food,establishment",OPERATIONAL,4.7,55,specialty coffee roaster,HK_Central
ChIJLSsmicOvSYwRXtMwHqszYHA,HK,CUPS HK,"Rm 5046, 45 Hoi Yuen Rd, Kwun Tong",22.3100179,114.2233979,https://maps.google.com/?cid=8097528940051092318&g_mp=Cidnb29nbGUubWFwcy5wbGFjZXMudjEuUGxhY2VzLlNlYXJjaFRleHQQAhgEIAA,,"coffee_roastery,coffee_shop,cafe,food_store,store,point_of_interest,food,establishment",OPERATIONAL,5,55,coffee roastery;咖啡烘焙;咖啡烘焙室,HK_KwunTong
ChIJpX0CgaMBBDQRZiVnKh2Uq40,HK,Espresso Remedy,"22-24A Tai Ping Shan St, Sheung Wan",22.2846382,114.148313,https://maps.google.com/?cid=10208415833351726438&g_mp=Cidnb29nbGUubWFwcy5wbGFjZXMudjEuUGxhY2VzLlNlYXJjaFRleHQQAhgEIAA,cafe,"cafe,point_of_interest,food,establishment",OPERATIONAL,4.6,55,coffee roaster,HK_Central
ChIJCxALFAYHBDQRcg_ouAaSDbw,HK,SOS Roastery,"長沙灣保安道65號, Merlin Centre Block D, 地下D6號舖",22.3371231,114.159763,https://maps.google.com/?cid=13550647411397365618&g_mp=Cidnb29nbGUubWFwcy5wbGFjZXMudjEuUGxhY2VzLlNlYXJjaFRleHQQAhgEIAA,food_store,"pub,bar,point_of_interest,food_store,store,food,establishment",OPERATIONAL,4.5,55,coffee roastery;咖啡烘焙,HK_MongKok
ChIJDdPw7zoBBDQR9GuOCkGBp58,HK,hier,鰂魚涌海光街34號,22.2876448,114.2107207,https://maps.google.com/?cid=11504305889491184628&g_mp=Cidnb29nbGUubWFwcy5wbGFjZXMudjEuUGxhY2VzLlNlYXJjaFRleHQQAhgEIAA,cafe,"cafe,point_of_interest,food,establishment",OPERATIONAL,4.7,55,咖啡烘焙,HK_IslandEast
ChIJH0Q75MgBBDQRQlOTrq_a3hc,HK,OneThird Coffee Roasters,"G/F, 32 Graham St, Central",22.282778099999998,114.1533591,https://maps.google.com/?cid=1720052555785130818&g_mp=Cidnb29nbGUubWFwcy5wbGFjZXMudjEuUGxhY2VzLlNlYXJjaFRleHQQAhgEIAA,coffee_shop,"coffee_shop,cafe,food_store,store,point_of_interest,food,establishment",OPERATIONAL,4.9,54,coffee roaster;coffee roastery;specialty coffee roaster;咖啡烘焙,HK_Central
ChIJRakUauYJBDQReB1WtOw3wFw,HK,refresh!,"大埔寶湖道同秀坊15號後座C, Tai Po",22.4490184,114.1679894,https://maps.google.com/?cid=6683403336795168120&g_mp=Cidnb29nbGUubWFwcy5wbGFjZXMudjEuUGxhY2VzLlNlYXJjaFRleHQQAhgEIAA,coffee_shop,"coffee_shop,cafe,food_store,store,point_of_interest,food,establishment",OPERATIONAL,4.7,54,咖啡烘焙;咖啡烘焙室,HK_TaiPo
ChIJvwLbgqIBBDQR2KiM6LwSvyw,HK,離火咖啡研究所 Quench Coffee Labo,觀塘觀塘道410號觀點中心1樓03號舖,22.3128723,114.2242359,https://maps.google.com/?cid=3224316460785248472&g_mp=Cidnb29nbGUubWFwcy5wbGFjZXMudjEuUGxhY2VzLlNlYXJjaFRleHQQAhgEIAA,cafe,"cafe,point_of_interest,food,establishment",OPERATIONAL,4.5,54,咖啡烘焙;咖啡烘焙室,HK_KwunTong
ChIJf-8Kj0MBBDQRae1zQ0DW3Ak,HK,OWO,"Shop 1, 59 Queen's Rd E, Wan Chai",22.2764612,114.1691747,https://maps.google.com/?cid=710678412715617641&g_mp=Cidnb29nbGUubWFwcy5wbGFjZXMudjEuUGxhY2VzLlNlYXJjaFRleHQQAhgEIAA,coffee_shop,"coffee_shop,cafe,food_store,store,point_of_interest,food,establishment",OPERATIONAL,4.7,53,咖啡烘焙;咖啡烘焙室,HK_WanChai
ChIJLeXKBt4FBDQREZX6avwN04g,HK,Winstons Coffee - Sai Kung,"G/F, 55 See Cheung St, Sai Kung",22.3799285,114.2721763,https://maps.google.com/?cid=9859239387021874449&g_mp=Cidnb29nbGUubWFwcy5wbGFjZXMudjEuUGxhY2VzLlNlYXJjaFRleHQQAhgEIAA,cafe,"cafe,point_of_interest,food,establishment",OPERATIONAL,4.5,53,coffee roaster;coffee roastery,HK_SaiKung
ChIJE3On0B8BBDQRJlX335gnZDA,HK,29 Coffee,"Sheung Wan, Bonham Strand, 50號G2舖",22.285767,114.1512853,https://maps.google.com/?cid=3486955549037647142&g_mp=Cidnb29nbGUubWFwcy5wbGFjZXMudjEuUGxhY2VzLlNlYXJjaFRleHQQAhgEIAA,,"point_of_interest,establishment",OPERATIONAL,4.7,52,coffee roaster,HK_Central
ChIJFyxeWADxAzQRLQDJ89H70BI,HK,Treeoo cafe,"Lin Fat Building, Fung Kwan St, Yuen Long",22.442401,114.03509489999999,https://maps.google.com/?cid=1355860366995292205&g_mp=Cidnb29nbGUubWFwcy5wbGFjZXMudjEuUGxhY2VzLlNlYXJjaFRleHQQAhgEIAA,coffee_shop,"coffee_shop,cafe,food_store,store,point_of_interest,food,establishment",OPERATIONAL,4.6,52,coffee roaster,HK_YuenLong
ChIJG29vQ1EABDQR7R5QtjUpJyk,HK,Le Petit Salon (銅鑼灣),"銅鑼灣新會道8-10號, Capital Building, 號 地舖",22.277632099999998,114.18473469999999,https://maps.google.com/?cid=2965384190315470573&g_mp=Cidnb29nbGUubWFwcy5wbGFjZXMudjEuUGxhY2VzLlNlYXJjaFRleHQQAhgEIAA,coffee_shop,"coffee_shop,cafe,point_of_interest,food_store,store,food,establishment",OPERATIONAL,4.4,51,咖啡烘焙,HK_CausewayBay
ChIJrfUzBKkFBDQRfUVCy7tFlKY,HK,法國佬烘焙店,"西貢福民路58-72號, Ko Fu Building Block A, 地下1號舖",22.3821641,114.2730639,https://maps.google.com/?cid=12003295579720533373&g_mp=Cidnb29nbGUubWFwcy5wbGFjZXMudjEuUGxhY2VzLlNlYXJjaFRleHQQAhgEIAA,bakery,"bakery,food_store,store,food,point_of_interest,establishment",OPERATIONAL,4.7,51,咖啡烘焙,HK_SaiKung
ChIJ81r536kBBDQRiuaBl3Ktygo,HK,Cupping Room Coffee Roaster (Sheung Wan),"Ground Floor, Cafe, 89 Jervois St, Sheung Wan",22.2855553,114.15075639999999,https://maps.google.com/?cid=777624593354581642&g_mp=Cidnb29nbGUubWFwcy5wbGFjZXMudjEuUGxhY2VzLlNlYXJjaFRleHQQAhgEIAA,cafe,"cafe,point_of_interest,food,establishment",OPERATIONAL,4.6,50,coffee roaster;coffee roastery;specialty coffee roaster,HK_Central
ChIJccbgLj4BBDQRYugb548ERCU,HK,"Coffeelin (LHT, Central)",中環皇后大道中31號陸海通大廈1樓2號鋪,22.2821219,114.15661539999999,https://maps.google.com/?cid=2685276293923858530&g_mp=Cidnb29nbGUubWFwcy5wbGFjZXMudjEuUGxhY2VzLlNlYXJjaFRleHQQAhgEIAA,food_store,"food_store,store,point_of_interest,food,establishment",OPERATIONAL,3.1,49,咖啡烘焙,HK_Central
ChIJg7iWNQAJBDQRv-BzbczBOOg,HK,Giraffe Coffee,大埔翠樂街11號美豐花園B座地下2號舖,22.4543908,114.16469590000001,https://maps.google.com/?cid=16733337499248877759&g_mp=Cidnb29nbGUubWFwcy5wbGFjZXMudjEuUGxhY2VzLlNlYXJjaFRleHQQAhgEIAA,coffee_shop,"coffee_shop,cafe,food_store,store,point_of_interest,food,establishment",OPERATIONAL,4.7,49,coffee roaster;coffee roastery;specialty coffee roaster,HK_TaiPo
ChIJ4TYYttABBDQRT-Tt9RgT1Os,HK,Roasters Central,"Shop G5 G/F, Alexandra House, 18 Chater Rd, Central",22.2815571,114.1584036,https://maps.google.com/?cid=16993228291901875279&g_mp=Cidnb29nbGUubWFwcy5wbGFjZXMudjEuUGxhY2VzLlNlYXJjaFRleHQQAhgEIAA,coffee_shop,"coffee_shop,cafe,food_store,store,point_of_interest,food,establishment",OPERATIONAL,4.2,49,coffee roaster;coffee roastery;specialty coffee roaster,HK_Central
ChIJma9tUWQBBDQR9i1LlQSZ4HA,HK,ANCHOR COFFEE,"257 Des Voeux Rd Central, Sheung Wan",22.2866853,114.15199469999999,https://maps.google.com/?cid=8133669171994766838&g_mp=Cidnb29nbGUubWFwcy5wbGFjZXMudjEuUGxhY2VzLlNlYXJjaFRleHQQAhgEIAA,coffee_shop,"coffee_shop,cafe,food_store,store,point_of_interest,food,establishment",OPERATIONAL,4.8,48,coffee roaster;coffee roastery;specialty coffee roaster,HK_Central
ChIJq7yKlKoJBDQRMkW-63pqnXQ,HK,咖啡米子,大埔大埔超級城E區2樓356B舖,22.4499325,114.1690841,https://maps.google.com/?cid=8402989555916883250&g_mp=Cidnb29nbGUubWFwcy5wbGFjZXMudjEuUGxhY2VzLlNlYXJjaFRleHQQAhgEIAA,food_store,"food_store,store,point_of_interest,food,establishment",OPERATIONAL,4.5,48,咖啡烘焙;咖啡烘焙室,HK_TaiPo
ChIJl7qOrmkBBDQRPliUT7_rdCE,HK,香り Kaōri,灣仔汕頭街11至21號仁美大廈Shop A,22.2756851,114.17158610000001,https://maps.google.com/?cid=2410810907456460862&g_mp=Cidnb29nbGUubWFwcy5wbGFjZXMudjEuUGxhY2VzLlNlYXJjaFRleHQQAhgEIAA,coffee_shop,"coffee_shop,cafe,food_store,store,point_of_interest,food,establishment",OPERATIONAL,4.6,48,咖啡烘焙,HK_WanChai
ChIJ2eF6GUYBBDQROo-1ipndnRA,HK,COFFEE Lover Cafe,"3/F, Hung To Centre, 94-96號 How Ming St, Kwun Tong",22.312878599999998,114.22033499999999,https://maps.google.com/?cid=1197356727477309242&g_mp=Cidnb29nbGUubWFwcy5wbGFjZXMudjEuUGxhY2VzLlNlYXJjaFRleHQQAhgEIAA,coffee_shop,"coffee_shop,cafe,food_store,store,point_of_interest,food,establishment",OPERATIONAL,4.1,47,咖啡烘焙,HK_KwunTong
ChIJ30FfQ2MBBDQRqs0tX3_XVsw,HK,Hidden Coffee & Roaster,"油麻地彌敦道375-381號, Honour House, 地下13號舖",22.3082676,114.17095289999999,https://maps.google.com/?cid=14724192973792071082&g_mp=Cidnb29nbGUubWFwcy5wbGFjZXMudjEuUGxhY2VzLlNlYXJjaFRleHQQAhgEIAA,coffee_stand,"coffee_stand,cafe,food_store,store,point_of_interest,food,establishment",OPERATIONAL,4.8,47,coffee roaster;coffee roastery;specialty coffee roaster;咖啡烘焙,HK_Central
ChIJY2g-7MYABDQRClpbwssgUMo,HK,My Little Coffee,旺角旺角花園街1/F號Room 22 16,22.316044599999998,114.1718779,https://maps.google.com/?cid=14578188053309512202&g_mp=Cidnb29nbGUubWFwcy5wbGFjZXMudjEuUGxhY2VzLlNlYXJjaFRleHQQAhgEIAA,food_store,"food_store,store,point_of_interest,food,establishment",OPERATIONAL,4.3,46,咖啡烘焙室;coffee roaster;coffee roastery,HK_TsimShaTsui
ChIJH4s8QAABBDQRvofs014flBs,HK,Twins Coffee,"1/F, 49號 Granville Rd, Tsim Sha Tsui",22.3003793,114.1751087,https://maps.google.com/?cid=1987247827720112062&g_mp=Cidnb29nbGUubWFwcy5wbGFjZXMudjEuUGxhY2VzLlNlYXJjaFRleHQQAhgEIAA,coffee_shop,"coffee_shop,cafe,point_of_interest,food_store,store,food,establishment",OPERATIONAL,4.8,46,specialty coffee roaster;咖啡烘焙,HK_TsimShaTsui
ChIJ936BQAABBDQRwj0wQDDMz-M,HK,Brentwood Coffee Roaster (Causeway Bay),"Lee Garden Three, Sunning Rd, Causeway Bay",22.2779442,114.18523929999999,https://maps.google.com/?cid=16415563674396147138&g_mp=Cidnb29nbGUubWFwcy5wbGFjZXMudjEuUGxhY2VzLlNlYXJjaFRleHQQAhgEIAA,coffee_shop,"coffee_shop,cafe,food_store,store,point_of_interest,food,establishment",OPERATIONAL,4.1,45,coffee roaster;coffee roastery;specialty coffee roaster;咖啡烘焙,HK_Central
ChIJ6z0PTD0BBDQR5q-JuQZd6sE,HK,Saturn Coffee Roaster,"Kwun Tong, Hoi Bun Rd, 181號, One Harbour Square, 地下1號鋪",22.309326,114.22046399999999,https://maps.google.com/?cid=13973083077334380518&g_mp=Cidnb29nbGUubWFwcy5wbGFjZXMudjEuUGxhY2VzLlNlYXJjaFRleHQQAhgEIAA,cafe,"cafe,point_of_interest,food,establishment",OPERATIONAL,4.6,45,coffee roaster;specialty coffee roaster;咖啡烘焙;咖啡烘焙室,HK_Central
ChIJW7igJwD_AzQRP4kFQ1fol10,HK,零叁cafe,西營盤第三街第三街50號,22.2855456,114.14238089999999,https://maps.google.com/?cid=6744114428494842175&g_mp=Cidnb29nbGUubWFwcy5wbGFjZXMudjEuUGxhY2VzLlNlYXJjaFRleHQQAhgEIAA,cafe,"cafe,restaurant,point_of_interest,food,establishment",OPERATIONAL,4.5,45,咖啡烘焙,HK_SheungWan
ChIJHbV8lRkBBDQRkDV5vKkWDJo,HK,SObyACT - Single Origin by ACT,"G/F, S22, 22 Heung Yip Rd, Wong Chuk Hang",22.2479366,114.1660423,https://maps.google.com/?cid=11100272099828774288&g_mp=Cidnb29nbGUubWFwcy5wbGFjZXMudjEuUGxhY2VzLlNlYXJjaFRleHQQAhgEIAA,cafe,"cafe,coffee_shop,food_store,store,point_of_interest,food,establishment",OPERATIONAL,4.9,43,coffee roastery,HK_Aberdeen
ChIJpYKxVTL5AzQRs4QHaYr8D3M,HK,HOLISTIC Coffee,"34 Graham St, Central",22.282794,114.1533723,https://maps.google.com/?cid=8291123110410159283&g_mp=Cidnb29nbGUubWFwcy5wbGFjZXMudjEuUGxhY2VzLlNlYXJjaFRleHQQAhgEIAA,coffee_shop,"coffee_shop,coffee_roastery,cafe,wholesaler,food_store,supplier,store,food,point_of_interest,establishment",OPERATIONAL,4.7,42,coffee roastery;咖啡烘焙,HK_Central
ChIJA57O5kkBBDQRcIzLNfaet5I,HK,Little Cove Espresso (Quarry Bay),"Area A, G/F, 18 Westlands Rd, Quarry Bay",22.2861485,114.21333800000001,https://maps.google.com/?cid=10572093430577204336&g_mp=Cidnb29nbGUubWFwcy5wbGFjZXMudjEuUGxhY2VzLlNlYXJjaFRleHQQAhgEIAA,cafe,"cafe,point_of_interest,food,establishment",OPERATIONAL,4.2,42,coffee roaster,HK_KwunTong
ChIJWXucpLgABDQR9zaOq2SfkcU,HK,堅強貿易行,"4-6 Soy Street, 4-6 Soy St, Mong Kok",22.3160071,114.1672152,https://maps.google.com/?cid=14236335151818618615&g_mp=Cidnb29nbGUubWFwcy5wbGFjZXMudjEuUGxhY2VzLlNlYXJjaFRleHQQAhgEIAA,coffee_shop,"coffee_shop,cafe,food_store,store,point_of_interest,food,establishment",OPERATIONAL,4.4,42,coffee roaster;coffee roastery,HK_MongKok
ChIJE5Upc10BBDQRuc2qL6qNw1s,HK,MAYA x The Cakery,"Shop 1105A, Level 1, of ifc mall, on Podium, 8 Finance St, Central",22.284813399999997,114.1594502,https://maps.google.com/?cid=6612284439993699769&g_mp=Cidnb29nbGUubWFwcy5wbGFjZXMudjEuUGxhY2VzLlNlYXJjaFRleHQQAhgEIAA,coffee_shop,"coffee_shop,cafe,food_store,store,point_of_interest,food,establishment",OPERATIONAL,4.2,41,咖啡烘焙,HK_Central
ChIJT_aI4dYBBDQRRwN6oqVATBI,HK,sharen8 咖啡生活選物館,旺角旺角花園街2-16號好景商業中心14樓1413室,22.315982899999998,114.17194239999999,https://maps.google.com/?cid=1318499871052399431&g_mp=Cidnb29nbGUubWFwcy5wbGFjZXMudjEuUGxhY2VzLlNlYXJjaFRleHQQAhgEIAA,food_store,"cafe,coffee_stand,food_store,store,point_of_interest,food,establishment",OPERATIONAL,5,41,咖啡烘焙室,HK_Central
ChIJvTuv0ez7AzQR6DXXbKCa7oE,HK,Alpha Coffee,"158, Ma Tin Tsuen",22.439665899999998,114.02569500000001,https://maps.google.com/?cid=9362590689161328104&g_mp=Cidnb29nbGUubWFwcy5wbGFjZXMudjEuUGxhY2VzLlNlYXJjaFRleHQQAhgEIAA,brunch_restaurant,"brunch_restaurant,restaurant,point_of_interest,food,establishment",OPERATIONAL,3.9,40,咖啡烘焙,HK_YuenLong
ChIJYUm0WvHxAzQRr2cTI233oJo,HK,享樂烘焙 (元朗),元朗號鋪形點一期1097,22.444076499999998,114.0360649,https://maps.google.com/?cid=11142177526226577327&g_mp=Cidnb29nbGUubWFwcy5wbGFjZXMudjEuUGxhY2VzLlNlYXJjaFRleHQQAhgEIAA,bakery,"bakery,food_store,store,point_of_interest,food,establishment",OPERATIONAL,3.9,40,咖啡烘焙,HK_YuenLong
ChIJH96TU5f_AzQRdlQm__V5NVo,HK,愛烘焙麵包工房 (堅尼地城),"Shop 2, G/F Block 2, Centenary Mansion, 1 Victoria Rd, Kennedy Town",22.2817641,114.12602729999999,https://maps.google.com/?cid=6500235734633829494&g_mp=Cidnb29nbGUubWFwcy5wbGFjZXMudjEuUGxhY2VzLlNlYXJjaFRleHQQAhgEIAA,bakery,"bakery,food_store,store,point_of_interest,food,establishment",OPERATIONAL,4.2,40,咖啡烘焙室,HK_SheungWan
ChIJkRxMUIQBBDQRCMWY2kN5UbE,HK,Coffee Station,紅磡崇潔街44B號号地舖,22.311328,114.18855389999999,https://maps.google.com/?cid=12777126950164022536&g_mp=Cidnb29nbGUubWFwcy5wbGFjZXMudjEuUGxhY2VzLlNlYXJjaFRleHQQAhgEIAA,food_store,"coffee_roastery,salad_shop,hot_dog_stand,meal_takeaway,american_restaurant,chocolate_shop,candy_store,dessert_shop,confectionery,food_store,store,restaurant,point_of_interest,food,establishment",OPERATIONAL,4.8,39,咖啡烘焙;咖啡烘焙室,HK_Central
ChIJQXJJEiEBBDQRl8Cg3M62-Jo,HK,Full Nature Roastery,"3 Yuen Yuen St, Happy Valley",22.269177600000003,114.1859843,https://maps.google.com/?cid=11166876275646185623&g_mp=Cidnb29nbGUubWFwcy5wbGFjZXMudjEuUGxhY2VzLlNlYXJjaFRleHQQAhgEIAA,coffee_shop,"coffee_shop,cafe,food_store,store,food,point_of_interest,establishment",OPERATIONAL,4.9,39,coffee roastery;specialty coffee roaster,HK_Central
