place_id,name,addr,state,lat,lng,maps_url,primary_type,types,business_status,rating,user_rating_count,found_via_query,found_via_region
ChIJ18J7NDUtDogRHjOXXc8DXsY,Starbucks Reserve Roastery,"646 N Michigan Ave, Chicago, IL 60611",Illinois,41.893924,-87.62459729999999,https://maps.google.com/?cid=14293866456483836702&g_mp=Cidnb29nbGUubWFwcy5wbGFjZXMudjEuUGxhY2VzLlNlYXJjaFRleHQQAhgEIAA,cafe,"cafe,cocktail_bar,coffee_roastery,coffee_shop,tourist_attraction,bakery,bar,food_store,store,point_of_interest,food,establishment",OPERATIONAL,4.4,19313,coffee roaster;coffee roastery;coffee roasting company,IL_Chicago
ChIJQ4IZi9vnaC4RBw4zHBo2cto,Wheels Coffee Roasters - Juanda (Dago),"Jl. Ir. H. Juanda No.256, Sekeloa, Kecamatan Coblong, Kota Bandung, Jawa Barat 40135, Indonesia",Unknown,-6.8815912,107.61598529999999,https://maps.google.com/?cid=15740703133383462407&g_mp=Cidnb29nbGUubWFwcy5wbGFjZXMudjEuUGxhY2VzLlNlYXJjaFRleHQQAhgEIAA,coffee_shop,"coffee_shop,cafe,food_store,store,point_of_interest,food,establishment",OPERATIONAL,4.8,11337,coffee roaster,Alabama
ChIJTWZhRFW1RIYRrdGa7DPzT7w,Mozart's Coffee Roasters,"3825 Lake Austin Blvd, Austin, TX 78703",Texas,30.295469599999997,-97.78395119999999,https://maps.google.com/?cid=13569331606629044653&g_mp=Cidnb29nbGUubWFwcy5wbGFjZXMudjEuUGxhY2VzLlNlYXJjaFRleHQQAhgEIAA,coffee_shop,"coffee_shop,cafe,dessert_restaurant,live_music_venue,event_venue,food_store,store,service,restaurant,point_of_interest,food,establishment",OPERATIONAL,4.5,10756,coffee roaster;coffee roastery;specialty coffee roaster,TX_Austin
ChIJkZ_tZzyF3YgRDW2MkZjIw0w,Susana's Cafe - Kissimmee,"18 S Orlando Ave, Kissimmee, FL 34741",Florida,28.290988,-81.4090743,https://maps.google.com/?cid=5531485324943584525&g_mp=Cidnb29nbGUubWFwcy5wbGFjZXMudjEuUGxhY2VzLlNlYXJjaFRleHQQAhgEIAA,coffee_shop,"coffee_shop,brunch_restaurant,breakfast_restaurant,cafe,cafeteria,bakery,food_store,store,restaurant,point_of_interest,food,establishment",OPERATIONAL,4.9,8969,coffee roaster,Florida
ChIJIQDZbb9ZwokRNRez4RviXGQ,Starbucks Reserve Roastery New York,"61 9th Ave, New York, NY 10011",New York,40.7416,-74.00529999999999,https://maps.google.com/?cid=7231903711028778805&g_mp=Cidnb29nbGUubWFwcy5wbGFjZXMudjEuUGxhY2VzLlNlYXJjaFRleHQQAhgEIAA,coffee_shop,"coffee_shop,cocktail_bar,coffee_roastery,cafe,tourist_attraction,bakery,bar,food_store,store,point_of_interest,food,establishment",OPERATIONAL,4.3,7596,coffee roastery;coffee roasting company,NY_NYC
ChIJ11hsiYXEwogRjDBv39F04J8,Oxford Exchange,"420 W Kennedy Blvd, Tampa, FL 33606",Florida,27.9449261,-82.4646338,https://maps.google.com/?cid=11520336291559321740&g_mp=Cidnb29nbGUubWFwcy5wbGFjZXMudjEuUGxhY2VzLlNlYXJjaFRleHQQAhgEIAA,american_restaurant,"american_restaurant,gift_shop,breakfast_restaurant,coffee_shop,cafe,wedding_venue,tea_house,coworking_space,book_store,event_venue,food_store,store,service,restaurant,point_of_interest,food,establishment",OPERATIONAL,4.6,6845,coffee roasting company,FL_Tampa
ChIJAw1Ve1DxyoARAUOmpTh3PQQ,River Rock Roasting Company,"394 S State St, La Verkin, UT 84745",Utah,37.1945238,-113.27600199999999,https://maps.google.com/?cid=305531434912072449&g_mp=Cidnb29nbGUubWFwcy5wbGFjZXMudjEuUGxhY2VzLlNlYXJjaFRleHQQAhgEIAA,restaurant,"restaurant,hamburger_restaurant,coffee_shop,pizza_restaurant,cafe,breakfast_restaurant,american_restaurant,point_of_interest,food_store,store,food,establishment",OPERATIONAL,4.8,6622,coffee roaster;coffee roastery;coffee roasting company,Utah
ChIJF1qcgTvGwoARn7ujAJGHC1Y,Urth Caffe,"459 S Hewitt St, Los Angeles, CA 90013",California,34.041989199999996,-118.23546089999999,https://maps.google.com/?cid=6200198368856357791&g_mp=Cidnb29nbGUubWFwcy5wbGFjZXMudjEuUGxhY2VzLlNlYXJjaFRleHQQAhgEIAA,coffee_shop,"coffee_shop,cafe,acai_shop,brazilian_restaurant,food_store,store,european_restaurant,restaurant,point_of_interest,food,establishment",OPERATIONAL,4.5,5784,coffee roasting company,CA_LosAngeles
ChIJ41W9caFZwokRVJOfTKNepZI,787 Coffee Co.,"251 W 30th St, New York, NY 10001",New York,40.7493629,-73.9942691,https://maps.google.com/?cid=10566956156152943444&g_mp=Cidnb29nbGUubWFwcy5wbGFjZXMudjEuUGxhY2VzLlNlYXJjaFRleHQQAhgEIAA,coffee_shop,"coffee_shop,cafe,food_store,store,point_of_interest,food,establishment",OPERATIONAL,4.8,5732,coffee roaster;specialty coffee roaster;coffee roasting company,NY_NYC
ChIJURsfO8MFB3wReNXq-qP5yaU,Kauaʻi Coffee Company,"870 Halewili Rd, Kalaheo, HI 96741",Hawaii,21.8998985,-159.56111130000002,https://maps.google.com/?cid=11946353969261630840&g_mp=Cidnb29nbGUubWFwcy5wbGFjZXMudjEuUGxhY2VzLlNlYXJjaFRleHQQAhgEIAA,cafe,"cafe,coffee_roastery,gift_shop,coffee_shop,food_store,store,point_of_interest,food,establishment",OPERATIONAL,4.6,5583,coffee roastery,Hawaii
ChIJzcC-_d1dAHwR5f2T7bBsOp8,Green World Coffee Farm,"71-101 Kamehameha Hwy, Wahiawa, HI 96786",Hawaii,21.512946,-158.0412145,https://maps.google.com/?cid=11473602507835702757&g_mp=Cidnb29nbGUubWFwcy5wbGFjZXMudjEuUGxhY2VzLlNlYXJjaFRleHQQAhgEIAA,coffee_shop,"coffee_shop,cafe,food_store,store,point_of_interest,food,establishment",OPERATIONAL,4.6,4884,coffee roaster;coffee roastery;specialty coffee roaster;coffee roasting company,Hawaii
ChIJ-R-bCm2mIIYR0IggBQn1ZDA,Café Du Monde Riverwalk,"500 Port of New Orleans Pl, New Orleans, LA 70130",Louisiana,29.946665999999997,-90.06217730000002,https://maps.google.com/?cid=3487181430581135568&g_mp=Cidnb29nbGUubWFwcy5wbGFjZXMudjEuUGxhY2VzLlNlYXJjaFRleHQQAhgEIAA,coffee_shop,"coffee_shop,cafe,food_store,store,point_of_interest,food,establishment",OPERATIONAL,4.3,4476,coffee roaster,LA_NewOrleans
ChIJ6c15h4202YgRzh62yUUQJ-c,Shepherd Artisan Coffee,"919 Collins Ave, Miami Beach, FL 33139",Florida,25.7797643,-80.131697,https://maps.google.com/?cid=16656299638776012494&g_mp=Cidnb29nbGUubWFwcy5wbGFjZXMudjEuUGxhY2VzLlNlYXJjaFRleHQQAhgEIAA,coffee_shop,"coffee_shop,breakfast_restaurant,cafe,sandwich_shop,juice_shop,food_store,store,restaurant,point_of_interest,food,establishment",OPERATIONAL,4.6,4254,coffee roaster;specialty coffee roaster,FL_Miami
ChIJs88PkWVZwokR2jF02LIXkw0,787 Coffee,"310 W 14th St, New York, NY 10014",New York,40.739911299999996,-74.003287,https://maps.google.com/?cid=978151600972640730&g_mp=Cidnb29nbGUubWFwcy5wbGFjZXMudjEuUGxhY2VzLlNlYXJjaFRleHQQAhgEIAA,coffee_shop,"coffee_shop,cafe,point_of_interest,food_store,store,food,establishment",OPERATIONAL,4.9,4017,coffee roastery;specialty coffee roaster,NY_NYC
ChIJvX-ocHZyAHwRqi3lYt8pNdA,Kona Coffee Purveyors,"Kuhio Mall Entrance, 2330 Kalākaua Ave, Honolulu, HI 96815",Hawaii,21.278831,-157.82562099999998,https://maps.google.com/?cid=15002943773068307882&g_mp=Cidnb29nbGUubWFwcy5wbGFjZXMudjEuUGxhY2VzLlNlYXJjaFRleHQQAhgEIAA,coffee_shop,"coffee_shop,cafe,sandwich_shop,bakery,food_store,store,restaurant,point_of_interest,food,establishment",OPERATIONAL,4.4,4013,coffee roaster;coffee roastery;coffee roasting company,Hawaii
ChIJBRY0FTJZwokRO9yVHnHsu9k,787 Coffee,"256 W 15th St, New York, NY 10011",New York,40.7400325,-74.00158929999999,https://maps.google.com/?cid=15689393697463852091&g_mp=Cidnb29nbGUubWFwcy5wbGFjZXMudjEuUGxhY2VzLlNlYXJjaFRleHQQAhgEIAA,coffee_shop,"coffee_shop,cafe,food_store,store,point_of_interest,food,establishment",OPERATIONAL,4.9,3983,specialty coffee roaster,NY_NYC
ChIJR6rSfzdbwokRqxjfFh0tj4I,787 Coffee,"93 Worth St, New York, NY 10013",New York,40.7165872,-74.00480639999999,https://maps.google.com/?cid=9407787749561276587&g_mp=Cidnb29nbGUubWFwcy5wbGFjZXMudjEuUGxhY2VzLlNlYXJjaFRleHQQAhgEIAA,coffee_shop,"coffee_shop,cafe,food_store,store,point_of_interest,food,establishment",OPERATIONAL,4.9,3849,specialty coffee roaster,NY_NYC
ChIJj6h52FZzAHwRV864YY0Y1Vw,Island Vintage Coffee Waikiki,"2301 Kalākaua Ave #C215, Honolulu, HI 96815",Hawaii,21.2783342,-157.82874959999998,https://maps.google.com/?cid=6689279817037696599&g_mp=Cidnb29nbGUubWFwcy5wbGFjZXMudjEuUGxhY2VzLlNlYXJjaFRleHQQAhgEIAA,coffee_shop,"coffee_shop,coffee_roastery,cafe,food_store,store,restaurant,point_of_interest,food,establishment",OPERATIONAL,4.4,3691,coffee roastery,Hawaii
ChIJYYNnASJj_ogR0kw-BOpHQlw,Lodi Coffee,"2210 Ashley Phosphate Rd, North Charleston, SC 29406",South Carolina,32.9359469,-80.0437341,https://maps.google.com/?cid=6647955070371384530&g_mp=Cidnb29nbGUubWFwcy5wbGFjZXMudjEuUGxhY2VzLlNlYXJjaFRleHQQAhgEIAA,coffee_shop,"coffee_shop,cafe,food_store,store,point_of_interest,food,establishment",OPERATIONAL,4.9,3637,coffee roastery,SC_Charleston
ChIJq6oWuvC22YgRdTYzZwuTTtE,La Colada Gourmet,"1518 SW 8th St, Miami, FL 33135",Florida,25.7655457,-80.2198971,https://maps.google.com/?cid=15082153879295702645&g_mp=Cidnb29nbGUubWFwcy5wbGFjZXMudjEuUGxhY2VzLlNlYXJjaFRleHQQAhgEIAA,cafe,"cuban_restaurant,latin_american_restaurant,coffee_shop,cafe,food_store,store,restaurant,point_of_interest,food,establishment",OPERATIONAL,4.8,3560,coffee roaster,FL_Miami
ChIJVVWVX87GyIARYdB4ZK1Xs-k,Gäbi Coffee & Bakery,"5808 Spring Mountain Rd #104, Las Vegas, NV 89146",Nevada,36.1260036,-115.22180639999999,https://maps.google.com/?cid=16839899833895014497&g_mp=Cidnb29nbGUubWFwcy5wbGFjZXMudjEuUGxhY2VzLlNlYXJjaFRleHQQAhgEIAA,cafe,"cafe,coffee_shop,coffee_roastery,tea_house,bakery,point_of_interest,food_store,store,food,establishment",OPERATIONAL,4.5,3491,coffee roastery,NV_LasVegas
ChIJbbyr1qkZBYgRqdyqZl0WMyM,Colectivo Coffee Lakefront,"1701 N Lincoln Memorial Dr, Milwaukee, WI 53202",Wisconsin,43.0535539,-87.88684769999999,https://maps.google.com/?cid=2536395605549964457&g_mp=Cidnb29nbGUubWFwcy5wbGFjZXMudjEuUGxhY2VzLlNlYXJjaFRleHQQAhgEIAA,cafe,"cafe,coffee_shop,food_store,store,point_of_interest,food,establishment",OPERATIONAL,4.6,3489,coffee roaster;coffee roastery,WI_Milwaukee
ChIJoZLve8JZwokRiI2HC6SgXpY,787 Coffee,"131 E 7th St, New York, NY 10009",New York,40.7263237,-73.9838523,https://maps.google.com/?cid=10835274379928505736&g_mp=Cidnb29nbGUubWFwcy5wbGFjZXMudjEuUGxhY2VzLlNlYXJjaFRleHQQAhgEIAA,coffee_shop,"coffee_shop,internet_cafe,coffee_roastery,coffee_stand,cafe,tea_house,food_store,store,service,point_of_interest,food,establishment",OPERATIONAL,4.9,3449,coffee roastery,NY_NYC
ChIJf-V9OIKAhYARu8bBG2S6RME,Sightglass Coffee,"270 7th St, San Francisco, CA 94103",California,37.7770356,-122.40845429999997,https://maps.google.com/?cid=13926460886861596347&g_mp=Cidnb29nbGUubWFwcy5wbGFjZXMudjEuUGxhY2VzLlNlYXJjaFRleHQQAhgEIAA,coffee_shop,"coffee_shop,cafe,point_of_interest,food_store,store,food,establishment",OPERATIONAL,4.4,3393,coffee roastery;coffee roasting company,CA_SanFrancisco
ChIJH9_V9uwSK4cRUapxZRnjlJw,Lux Central,"4402 N Central Ave, Phoenix, AZ 85012",Arizona,33.5004756,-112.0741388,https://maps.google.com/?cid=11282892664685570641&g_mp=Cidnb29nbGUubWFwcy5wbGFjZXMudjEuUGxhY2VzLlNlYXJjaFRleHQQAhgEIAA,coffee_shop,"coffee_shop,cafe,food_store,store,restaurant,point_of_interest,food,establishment",OPERATIONAL,4.5,3145,coffee roaster;coffee roasting company,Arizona
ChIJBR3G8LJqkFQRWD2Wzn0qG3c,Storyville Coffee Pike Place,"94 Pike St Top floor Suite 34, Seattle, WA 98101",Washington,47.60895,-122.3404309,https://maps.google.com/?cid=8582500234709843288&g_mp=Cidnb29nbGUubWFwcy5wbGFjZXMudjEuUGxhY2VzLlNlYXJjaFRleHQQAhgEIAA,coffee_shop,"coffee_shop,coffee_roastery,cafe,bakery,point_of_interest,food_store,store,food,establishment",OPERATIONAL,4.6,3121,coffee roaster;coffee roastery;coffee roasting company,WA_Seattle
ChIJM7jaCHHDyIARPHMuFhyy8hI,PublicUs,"1126 E Fremont St, Las Vegas, NV 89101",Nevada,36.1657782,-115.13296199999999,https://maps.google.com/?cid=1365349470747652924&g_mp=Cidnb29nbGUubWFwcy5wbGFjZXMudjEuUGxhY2VzLlNlYXJjaFRleHQQAhgEIAA,coffee_shop,"coffee_shop,cafe,breakfast_restaurant,bakery,restaurant,point_of_interest,food_store,store,food,establishment",OPERATIONAL,4.7,2816,coffee roaster,NV_LasVegas
ChIJj-xy_TL99IgRTXH77aWphuQ,Roast Coffee House,"6000 N Terminal Pkwy, Atlanta, GA 30320",Georgia,33.640774199999996,-84.43617309999999,https://maps.google.com/?cid=16467035617654174029&g_mp=Cidnb29nbGUubWFwcy5wbGFjZXMudjEuUGxhY2VzLlNlYXJjaFRleHQQAhgEIAA,restaurant,"restaurant,point_of_interest,food,establishment",OPERATIONAL,4.7,2814,coffee roasting company,GA_Atlanta
ChIJjXJk2b2d-4gRwkwqsJ4qINA,Savannah Coffee Roasters,"215 W Liberty St, Savannah, GA 31401",Georgia,32.0752476,-81.0963968,https://maps.google.com/?cid=14997033620192513218&g_mp=Cidnb29nbGUubWFwcy5wbGFjZXMudjEuUGxhY2VzLlNlYXJjaFRleHQQAhgEIAA,cafe,"cafe,brunch_restaurant,coffee_roastery,bistro,breakfast_restaurant,coffee_shop,bakery,event_venue,food_store,store,restaurant,point_of_interest,food,establishment",OPERATIONAL,4.5,2688,coffee roaster;coffee roastery;coffee roasting company,Georgia
ChIJ__abjyF-j4ARmyuzGS1yOdc,Four Barrel Coffee,"375 Valencia St, San Francisco, CA 94103",California,37.7670234,-122.42178059999999,https://maps.google.com/?cid=15508552329857280923&g_mp=Cidnb29nbGUubWFwcy5wbGFjZXMudjEuUGxhY2VzLlNlYXJjaFRleHQQAhgEIAA,coffee_shop,"coffee_shop,cafe,food_store,store,point_of_interest,food,establishment",OPERATIONAL,4.5,2674,coffee roaster;coffee roastery;coffee roasting company,CA_SanFrancisco
ChIJD8gatsMQ9YgRTueabDLTpAw,Rev Coffee,"1680 Spring Rd SE B, Smyrna, GA 30080",Georgia,33.882145699999995,-84.50423669999999,https://maps.google.com/?cid=911085238159599438&g_mp=Cidnb29nbGUubWFwcy5wbGFjZXMudjEuUGxhY2VzLlNlYXJjaFRleHQQAhgEIAA,coffee_shop,"coffee_shop,cafe,tea_house,bakery,food_store,store,point_of_interest,food,establishment",OPERATIONAL,4.7,2626,coffee roaster;coffee roastery;specialty coffee roaster;coffee roasting company,Georgia
ChIJGU7NvE6ZToYRF34eTBS3sPE,Ascension Coffee - Design District,"1621 Oak Lawn Ave, Dallas, TX 75207",Texas,32.7970313,-96.8199752,https://maps.google.com/?cid=17415621056846003735&g_mp=Cidnb29nbGUubWFwcy5wbGFjZXMudjEuUGxhY2VzLlNlYXJjaFRleHQQAhgEIAA,cafe,"cafe,coffee_shop,wine_bar,bar,food_store,american_restaurant,store,restaurant,point_of_interest,food,establishment",OPERATIONAL,4.4,2580,coffee roaster,TX_Dallas
ChIJG6HQcrK22YgREOwX4PyCF8c,Panther Coffee - Wynwood,"2390 NW 2nd Ave, Miami, FL 33127",Florida,25.7998834,-80.19929549999999,https://maps.google.com/?cid=14346079160615037968&g_mp=Cidnb29nbGUubWFwcy5wbGFjZXMudjEuUGxhY2VzLlNlYXJjaFRleHQQAhgEIAA,coffee_shop,"coffee_shop,cafe,food_store,store,point_of_interest,food,establishment",OPERATIONAL,4.4,2576,coffee roaster;coffee roastery;specialty coffee roaster;coffee roasting company,FL_Miami
ChIJwXyjgP5skFQRbKQjyqmj2qs,Mercurys Coffee Co.,"13102 NE 20th St, Bellevue, WA 98005",Washington,47.628321,-122.16556600000001,https://maps.google.com/?cid=12383390075044734060&g_mp=Cidnb29nbGUubWFwcy5wbGFjZXMudjEuUGxhY2VzLlNlYXJjaFRleHQQAhgEIAA,coffee_shop,"coffee_shop,breakfast_restaurant,coworking_space,cafe,pastry_shop,bakery,dessert_shop,confectionery,event_venue,food_store,store,restaurant,food,point_of_interest,establishment",OPERATIONAL,4.4,2539,coffee roasting company,WA_Seattle
ChIJkzL4rXcZU4gRrLTQ2_yYEVA,Awoo Coffee,"236 S Elm St F, Greensboro, NC 27401",North Carolina,36.070478,-79.79059099999999,https://maps.google.com/?cid=5769560809425384620&g_mp=Cidnb29nbGUubWFwcy5wbGFjZXMudjEuUGxhY2VzLlNlYXJjaFRleHQQAhgEIAA,coffee_shop,"coffee_shop,cafe,food_store,store,point_of_interest,food,establishment",OPERATIONAL,4.9,2494,coffee roaster,North Carolina
ChIJCTTaEbtYXIYRVe7EbSKqwDY,Halcyon Southtown,"1414 S Alamo St #101, San Antonio, TX 78210",Texas,29.4099534,-98.49547869999999,https://maps.google.com/?cid=3945340338423787093&g_mp=Cidnb29nbGUubWFwcy5wbGFjZXMudjEuUGxhY2VzLlNlYXJjaFRleHQQAhgEIAA,cafe,"cafe,coffee_shop,lounge_bar,night_club,bar,food_store,store,restaurant,point_of_interest,food,establishment",OPERATIONAL,4.2,2458,coffee roaster;coffee roasting company,TX_SanAntonio
ChIJscwUlfO1RIYRmKPeAAr1Zts,Cherrywood Coffeehouse,"1400 E 38th 1/2 St, Austin, TX 78722",Texas,30.293563199999998,-97.7160212,https://maps.google.com/?cid=15809592965243773848&g_mp=Cidnb29nbGUubWFwcy5wbGFjZXMudjEuUGxhY2VzLlNlYXJjaFRleHQQAhgEIAA,restaurant,"restaurant,taco_restaurant,coffee_shop,hamburger_restaurant,breakfast_restaurant,cafe,beer_garden,brunch_restaurant,bar,food_store,american_restaurant,store,point_of_interest,food,establishment",OPERATIONAL,4.5,2415,coffee roaster,TX_Austin
ChIJV_yZObA0O4gRPDu9lA6rEA8,Qahwah House Coffee - East Dearborn,"6655 Schaefer Rd, Dearborn, MI 48126",Michigan,42.3401583,-83.1768639,https://maps.google.com/?cid=1085555589309610812&g_mp=Cidnb29nbGUubWFwcy5wbGFjZXMudjEuUGxhY2VzLlNlYXJjaFRleHQQAhgEIAA,coffee_shop,"coffee_shop,cafe,food_store,store,point_of_interest,food,establishment",OPERATIONAL,4.7,2409,coffee roaster,MI_Detroit
ChIJZ1xnLNq3t4kRMWSzJo7OC6k,Tryst,"2459 18th St NW, Washington, DC 20009",District of Columbia,38.921977000000005,-77.042091,https://maps.google.com/?cid=12181056727083607089&g_mp=Cidnb29nbGUubWFwcy5wbGFjZXMudjEuUGxhY2VzLlNlYXJjaFRleHQQAhgEIAA,coffee_shop,"coffee_shop,lounge_bar,cafe,night_club,art_gallery,bar,food_store,store,point_of_interest,food,establishment",OPERATIONAL,4.3,2404,coffee roaster;specialty coffee roaster,District of Columbia
ChIJ1VMVN_SnIIYR41ziI7hLs64,Streetcar Cafe,"312 St Charles Ave, New Orleans, LA 70130",Louisiana,29.951151999999993,-90.070007,https://maps.google.com/?cid=12588488637678771427&g_mp=Cidnb29nbGUubWFwcy5wbGFjZXMudjEuUGxhY2VzLlNlYXJjaFRleHQQAhgEIAA,brunch_restaurant,"brunch_restaurant,cocktail_bar,coffee_shop,cafe,american_restaurant,bar,food_store,store,restaurant,point_of_interest,food,establishment",OPERATIONAL,4.6,2386,coffee roaster,LA_NewOrleans
ChIJDxYKIhCMGGARScnqzc-T-TU,GLITCH COFFEE & ROASTERS,"Japan, 〒101-0054 Tokyo, Chiyoda City, Kanda Nishikichō, 3-chōme−１６ １階",Unknown,35.693742799999995,139.76130469999998,https://maps.google.com/?cid=3889302273933363529&g_mp=Cidnb29nbGUubWFwcy5wbGFjZXMudjEuUGxhY2VzLlNlYXJjaFRleHQQAhgEIAA,coffee_shop,"coffee_shop,cafe,food_store,store,point_of_interest,food,establishment",OPERATIONAL,4.4,2348,coffee roaster,Nevada
ChIJncEfclNZwokRbp1V57MpWxg,Qahwah House Coffee - Williamsburg Brooklyn,"162 Bedford Ave, Brooklyn, NY 11211",New York,40.7185755,-73.95718690000001,https://maps.google.com/?cid=1755042332447972718&g_mp=Cidnb29nbGUubWFwcy5wbGFjZXMudjEuUGxhY2VzLlNlYXJjaFRleHQQAhgEIAA,coffee_shop,"coffee_shop,cafe,point_of_interest,food_store,store,food,establishment",OPERATIONAL,4.7,2302,coffee roaster,NY_NYC
ChIJZYfjcxemIIYRp0eZueIjuJU,Envie Espresso Bar & Cafe,"1241 Decatur St, New Orleans, LA 70116",Louisiana,29.961462099999995,-90.0586616,https://maps.google.com/?cid=10788412364049434535&g_mp=Cidnb29nbGUubWFwcy5wbGFjZXMudjEuUGxhY2VzLlNlYXJjaFRleHQQAhgEIAA,cafe,"cafe,coffee_shop,breakfast_restaurant,food_store,store,restaurant,point_of_interest,food,establishment",OPERATIONAL,4.6,2220,coffee roaster,LA_NewOrleans
ChIJVV4QAOzhR4cRHiu67nG5M4Q,Moab Coffee Roasters,"90 N Main St, Moab, UT 84532",Utah,38.5744971,-109.5503544,https://maps.google.com/?cid=9526161535806352158&g_mp=Cidnb29nbGUubWFwcy5wbGFjZXMudjEuUGxhY2VzLlNlYXJjaFRleHQQAhgEIAA,coffee_shop,"coffee_shop,juice_shop,bagel_shop,chocolate_shop,candy_store,ice_cream_shop,sandwich_shop,cafe,dessert_shop,confectionery,bakery,clothing_store,meal_takeaway,restaurant,point_of_interest,food_store,store,food,establishment",OPERATIONAL,4.3,2218,coffee roaster;coffee roastery;coffee roasting company,Utah
ChIJ6ZFu2tosDogRPqdBeBkX6IU,Sawada Coffee,"112 N Green St, Chicago, IL 60607",Illinois,41.883625099999996,-87.6487119,https://maps.google.com/?cid=9648987599800477502&g_mp=Cidnb29nbGUubWFwcy5wbGFjZXMudjEuUGxhY2VzLlNlYXJjaFRleHQQAhgEIAA,coffee_shop,"coffee_shop,cafe,food_store,store,point_of_interest,food,establishment",OPERATIONAL,4.6,2217,coffee roaster,IL_Chicago
ChIJKxNQZ2ae-4gRoKeNsxCRMyk,The Coffee Fox Roasting Co.,"102 W Broughton St, Savannah, GA 31401",Georgia,32.0794528,-81.09313329999999,https://maps.google.com/?cid=2968876080285198240&g_mp=Cidnb29nbGUubWFwcy5wbGFjZXMudjEuUGxhY2VzLlNlYXJjaFRleHQQAhgEIAA,coffee_shop,"coffee_shop,cafe,pastry_shop,bakery,dessert_shop,confectionery,food_store,store,point_of_interest,food,establishment",OPERATIONAL,4.5,2213,coffee roasting company,Georgia
ChIJKQJO3OwMIocRmKZBW1pTcMQ,Barelas Coffee House,"1502 4th St SW, Albuquerque, NM 87102",New Mexico,35.0710578,-106.65392229999999,https://maps.google.com/?cid=14154905276368660120&g_mp=Cidnb29nbGUubWFwcy5wbGFjZXMudjEuUGxhY2VzLlNlYXJjaFRleHQQAhgEIAA,restaurant,"restaurant,point_of_interest,food,establishment",OPERATIONAL,4.6,2160,coffee roaster,NM_Albuquerque
ChIJzUIFw8hnlIARP4jeLN5Zvz4,Dutch Bros Coffee,"1768 W Shaw Ave, Fresno, CA 93711",California,36.8086499,-119.82569489999997,https://maps.google.com/?cid=4521431361673660479&g_mp=Cidnb29nbGUubWFwcy5wbGFjZXMudjEuUGxhY2VzLlNlYXJjaFRleHQQAhgEIAA,coffee_shop,"coffee_shop,juice_shop,tea_house,cafe,point_of_interest,food_store,store,food,establishment",OPERATIONAL,4.6,2155,coffee roaster,California
ChIJ3ypbNizTRIYRKCA1YNc2iuM,Red Horn Coffee House and Brewing Co.,"13010 W Parmer Ln #800, Cedar Park, TX 78613",Texas,30.533823100000003,-97.78082839999999,https://maps.google.com/?cid=16395977692055674920&g_mp=Cidnb29nbGUubWFwcy5wbGFjZXMudjEuUGxhY2VzLlNlYXJjaFRleHQQAhgEIAA,coffee_shop,"coffee_shop,brewery,cafe,tea_house,food_store,manufacturer,store,service,restaurant,point_of_interest,food,establishment",OPERATIONAL,4.7,2140,coffee roaster;coffee roastery;coffee roasting company,TX_Austin
ChIJRWuUX_2zQYgRDGuieqQ79I0,Coffee Emporium,"110 E Central Pkwy, Cincinnati, OH 45202",Ohio,39.1077291,-84.51257079999999,https://maps.google.com/?cid=10228866231283378956&g_mp=Cidnb29nbGUubWFwcy5wbGFjZXMudjEuUGxhY2VzLlNlYXJjaFRleHQQAhgEIAA,coffee_shop,"coffee_shop,pastry_shop,tea_house,cafe,dessert_shop,confectionery,bakery,point_of_interest,food_store,store,food,establishment",OPERATIONAL,4.7,2123,coffee roaster;coffee roastery,OH_Cincinnati
ChIJuY25rS9kZIgRN5MuBAa-JY4,Frothy Monkey,"2509 12th Ave S, Nashville, TN 37204",Tennessee,36.124621499999996,-86.7898649,https://maps.google.com/?cid=10242801860573303607&g_mp=Cidnb29nbGUubWFwcy5wbGFjZXMudjEuUGxhY2VzLlNlYXJjaFRleHQQAhgEIAA,restaurant,"restaurant,coffee_shop,wine_bar,cafe,brunch_restaurant,bar,point_of_interest,food_store,store,food,establishment",OPERATIONAL,4.5,2121,coffee roaster;specialty coffee roaster;coffee roasting company,Tennessee
ChIJj_WHnaUsDogRLVVNKF7LxhY,Intelligentsia,"53 E Randolph St, Chicago, IL 60601",Illinois,41.884282999999996,-87.62577519999999,https://maps.google.com/?cid=1641222719486645549&g_mp=Cidnb29nbGUubWFwcy5wbGFjZXMudjEuUGxhY2VzLlNlYXJjaFRleHQQAhgEIAA,coffee_shop,"coffee_shop,cafe,tea_house,food_store,store,point_of_interest,food,establishment",OPERATIONAL,4.3,2105,coffee roasting company,IL_Chicago
ChIJr1JYqGjDQIYRWrQ6s3_s910,Royal Roastery,"6467 Westheimer Rd A, Houston, TX 77057",Texas,29.737264999999994,-95.4989138,https://maps.google.com/?cid=6771140597986800730&g_mp=Cidnb29nbGUubWFwcy5wbGFjZXMudjEuUGxhY2VzLlNlYXJjaFRleHQQAhgEIAA,coffee_shop,"coffee_shop,halal_restaurant,dessert_restaurant,chocolate_shop,candy_store,ice_cream_shop,cafe,middle_eastern_restaurant,dessert_shop,gift_shop,confectionery,bakery,restaurant,point_of_interest,food_store,store,food,establishment",OPERATIONAL,4.5,2100,coffee roaster;coffee roastery;specialty coffee roaster,Texas
ChIJr4J2gZFZwokRA2y5p4UfH8I,Caffe Reggio,"119 MacDougal St, New York, NY 10012",New York,40.73030790000001,-74.0003706,https://maps.google.com/?cid=13987933626541108227&g_mp=Cidnb29nbGUubWFwcy5wbGFjZXMudjEuUGxhY2VzLlNlYXJjaFRleHQQAhgEIAA,cafe,"cafe,point_of_interest,food,establishment",OPERATIONAL,4.3,2097,coffee roaster,NY_NYC
ChIJJS2z7LtaE4cRY91Q-QRzQJA,Jives Coffee Lounge,"16 Colbrunn Ct, Colorado Springs, CO 80904",Colorado,38.8471,-104.8617278,https://maps.google.com/?cid=10394434405170994531&g_mp=Cidnb29nbGUubWFwcy5wbGFjZXMudjEuUGxhY2VzLlNlYXJjaFRleHQQAhgEIAA,coffee_shop,"coffee_shop,breakfast_restaurant,cafe,sandwich_shop,live_music_venue,event_venue,food_store,store,restaurant,point_of_interest,food,establishment",OPERATIONAL,4.7,2093,coffee roasting company,Colorado
ChIJiZB7QdtU2YARBz7sv-2hm7w,Better Buzz Coffee Hillcrest,"801 University Ave, San Diego, CA 92103",California,32.7481995,-117.15703549999999,https://maps.google.com/?cid=13590634343019855367&g_mp=Cidnb29nbGUubWFwcy5wbGFjZXMudjEuUGxhY2VzLlNlYXJjaFRleHQQAhgEIAA,coffee_shop,"coffee_shop,coffee_roastery,breakfast_restaurant,cafe,food_store,store,restaurant,point_of_interest,food,establishment",OPERATIONAL,4.4,2084,coffee roaster;coffee roastery;specialty coffee roaster;coffee roasting company,CA_SanDiego
ChIJzzH5Mgnt2YkRWbyPcIf0KWE,Zaman Coffee House,"3911 Brewerton Rd, Syracuse, NY 13212",New York,43.121708999999996,-76.1431605,https://maps.google.com/?cid=7001395958270377049&g_mp=Cidnb29nbGUubWFwcy5wbGFjZXMudjEuUGxhY2VzLlNlYXJjaFRleHQQAhgEIAA,coffee_shop,"coffee_shop,cafe,food_store,store,point_of_interest,food,establishment",OPERATIONAL,4.9,2079,coffee roaster;specialty coffee roaster,New York
ChIJWXerz2vIxokRkue1--XSK5M,La Colombe Coffee Workshop,"1335 Frankford Ave, Philadelphia, PA 19125",Pennsylvania,39.971241,-75.134027,https://maps.google.com/?cid=10604801632786311058&g_mp=Cidnb29nbGUubWFwcy5wbGFjZXMudjEuUGxhY2VzLlNlYXJjaFRleHQQAhgEIAA,coffee_shop,"coffee_shop,breakfast_restaurant,cafe,food_store,store,restaurant,point_of_interest,food,establishment",OPERATIONAL,4.6,2074,coffee roasting company,PA_Philadelphia
ChIJAbkBsJkts1IRNj7L1NnbGUg,Spyhouse Coffee Roasters | Northeast,"945 Broadway St NE, Minneapolis, MN 55413",Minnesota,44.9988885,-93.24633,https://maps.google.com/?cid=5195425373773053494&g_mp=Cidnb29nbGUubWFwcy5wbGFjZXMudjEuUGxhY2VzLlNlYXJjaFRleHQQAhgEIAA,coffee_shop,"coffee_shop,cafe,food_store,store,point_of_interest,food,establishment",OPERATIONAL,4.4,2074,coffee roaster;coffee roastery;coffee roasting company,MN_Minneapolis
ChIJCRB94Ai1RIYRNvGk25HweQA,Halcyon,"218 W 4th St, Austin, TX 78701",Texas,30.2669598,-97.7456922,https://maps.google.com/?cid=34322981427933494&g_mp=Cidnb29nbGUubWFwcy5wbGFjZXMudjEuUGxhY2VzLlNlYXJjaFRleHQQAhgEIAA,bar,"bar,coffee_shop,cafe,food_store,store,restaurant,point_of_interest,food,establishment",OPERATIONAL,4.3,2068,coffee roaster,TX_Austin
ChIJb7bAyKaKUocRfDMskgTQStA,Sugar House Coffee,"2011 S 1100 E, Salt Lake City, UT 84106",Utah,40.7264477,-111.8591103,https://maps.google.com/?cid=15009037426216416124&g_mp=Cidnb29nbGUubWFwcy5wbGFjZXMudjEuUGxhY2VzLlNlYXJjaFRleHQQAhgEIAA,coffee_shop,"coffee_shop,bistro,cafe,food_store,store,restaurant,point_of_interest,food,establishment",OPERATIONAL,4.6,2055,coffee roaster,UT_SaltLake
ChIJF3rre2YU44kR054_82YJvx4,Derby Street - Jaho Coffee Roaster & Wine Bar,"197 Derby St, Salem, MA 01970",Massachusetts,42.520811099999996,-70.8882306,https://maps.google.com/?cid=2215499879461920467&g_mp=Cidnb29nbGUubWFwcy5wbGFjZXMudjEuUGxhY2VzLlNlYXJjaFRleHQQAhgEIAA,coffee_shop,"coffee_shop,wine_bar,bagel_shop,cafe,sandwich_shop,tea_house,bakery,bar,ice_cream_shop,dessert_shop,confectionery,food_store,store,restaurant,point_of_interest,food,establishment",OPERATIONAL,4.4,2054,coffee roaster,Massachusetts
ChIJ22kr8Wm52YgRUfotnCRGmXU,Macondo Coffee Roasters - Doral,"2494 NW 89th Pl, Doral, FL 33172",Florida,25.7963933,-80.3428696,https://maps.google.com/?cid=8473881296927324753&g_mp=Cidnb29nbGUubWFwcy5wbGFjZXMudjEuUGxhY2VzLlNlYXJjaFRleHQQAhgEIAA,coffee_shop,"coffee_shop,breakfast_restaurant,cafe,food_store,store,restaurant,point_of_interest,food,establishment",OPERATIONAL,4.6,2044,coffee roaster;coffee roastery;specialty coffee roaster,FL_Miami
ChIJdQcQ-0JmZIgRSgV44OZA_L0,Crema Coffee Roasters,"15 Hermitage Ave, Nashville, TN 37210",Tennessee,36.1568332,-86.769701,https://maps.google.com/?cid=13689888327652083018&g_mp=Cidnb29nbGUubWFwcy5wbGFjZXMudjEuUGxhY2VzLlNlYXJjaFRleHQQAhgEIAA,coffee_shop,"coffee_shop,coffee_roastery,cafe,point_of_interest,food_store,store,food,establishment",OPERATIONAL,4.6,2028,coffee roaster;coffee roastery;specialty coffee roaster;coffee roasting company,Tennessee
ChIJm8ohAZZlK4cRaN_gUcU3jUM,Elevate Coffee Company,"2530 W Happy Valley Rd Ste 1273, Phoenix, AZ 85085",Arizona,33.7154583,-112.1138194,https://maps.google.com/?cid=4867608092879150952&g_mp=Cidnb29nbGUubWFwcy5wbGFjZXMudjEuUGxhY2VzLlNlYXJjaFRleHQQAhgEIAA,coffee_shop,"coffee_shop,breakfast_restaurant,cafe,real_estate_agency,food_store,service,store,restaurant,point_of_interest,food,establishment",OPERATIONAL,4.7,1935,coffee roaster;specialty coffee roaster;coffee roasting company,Arizona
ChIJgdrD00oVkFQRbSXCy0wr9RY,Anchorhead Coffee,"1600 7th Ave Ste 105, Seattle, WA 98101",Washington,47.6134003,-122.33476379999999,https://maps.google.com/?cid=1654276046964532589&g_mp=Cidnb29nbGUubWFwcy5wbGFjZXMudjEuUGxhY2VzLlNlYXJjaFRleHQQAhgEIAA,coffee_shop,"coffee_shop,cafe,food_store,store,point_of_interest,food,establishment",OPERATIONAL,4.6,1929,coffee roaster;coffee roastery;coffee roasting company,WA_Seattle
ChIJ27_1pGS_QIYRJB3FWgFpN70,Siphon Coffee,"701 W Alabama St, Houston, TX 77006",Texas,29.738384299999996,-95.3882548,https://maps.google.com/?cid=13634481851426217252&g_mp=Cidnb29nbGUubWFwcy5wbGFjZXMudjEuUGxhY2VzLlNlYXJjaFRleHQQAhgEIAA,coffee_shop,"coffee_shop,taco_restaurant,breakfast_restaurant,cafe,brunch_restaurant,sandwich_shop,bakery,food_store,store,restaurant,point_of_interest,food,establishment",OPERATIONAL,4.4,1914,coffee roaster,TX_Houston
ChIJsTeFlMG0RIYRu_2cahz8C-o,Summer Moon Coffee (South 1st),"3115 S 1st St #1b, Austin, TX 78704",Texas,30.233241099999997,-97.76480939999999,https://maps.google.com/?cid=16864850428596911547&g_mp=Cidnb29nbGUubWFwcy5wbGFjZXMudjEuUGxhY2VzLlNlYXJjaFRleHQQAhgEIAA,coffee_shop,"coffee_shop,cafe,food_store,store,point_of_interest,food,establishment",OPERATIONAL,4.5,1913,coffee roaster;coffee roasting company,TX_Austin
ChIJy8oQNUy_QIYRxmu55wH4Y6Q,Catalina Coffee,"2201 Washington Ave, Houston, TX 77007",Texas,29.767973299999998,-95.3806446,https://maps.google.com/?cid=11845584131980880838&g_mp=Cidnb29nbGUubWFwcy5wbGFjZXMudjEuUGxhY2VzLlNlYXJjaFRleHQQAhgEIAA,coffee_shop,"coffee_shop,cafe,food_store,store,point_of_interest,food,establishment",OPERATIONAL,4.6,1908,coffee roaster;specialty coffee roaster;coffee roasting company,TX_Houston
ChIJY6T74yQU9YgRxJGHa_pLOcE,Cool Beans Coffee Roasters,"31 Mill St, Marietta, GA 30060",Georgia,33.953126999999995,-84.5507299,https://maps.google.com/?cid=13923243261910553028&g_mp=Cidnb29nbGUubWFwcy5wbGFjZXMudjEuUGxhY2VzLlNlYXJjaFRleHQQAhgEIAA,coffee_shop,"coffee_shop,cafe,food_store,store,point_of_interest,food,establishment",OPERATIONAL,4.7,1906,coffee roaster;coffee roastery;coffee roasting company,Georgia
ChIJRzjLv3d644kRhkAHf0tdR2g,Chinatown - Jaho Coffee Roaster & Wine Bar,"665 Washington St, Boston, MA 02111",Massachusetts,42.351743299999995,-71.0628941,https://maps.google.com/?cid=7514077082126073990&g_mp=Cidnb29nbGUubWFwcy5wbGFjZXMudjEuUGxhY2VzLlNlYXJjaFRleHQQAhgEIAA,coffee_shop,"coffee_shop,wine_bar,bagel_shop,cafe,tea_house,bakery,bar,food_store,store,restaurant,point_of_interest,food,establishment",OPERATIONAL,4.4,1895,coffee roaster;coffee roastery;specialty coffee roaster;coffee roasting company,Massachusetts
ChIJbT5i5AYKlVQRHZOtE8vGAz4,Stumptown Coffee Roasters,"128 SW 3rd Ave, Portland, OR 97204",Oregon,45.521802199999996,-122.67345639999999,https://maps.google.com/?cid=4468633830792467229&g_mp=Cidnb29nbGUubWFwcy5wbGFjZXMudjEuUGxhY2VzLlNlYXJjaFRleHQQAhgEIAA,coffee_shop,"coffee_shop,coffee_roastery,cafe,tea_store,market,food_store,store,point_of_interest,food,establishment",OPERATIONAL,4.4,1895,coffee roaster;coffee roastery;coffee roasting company,OR_Portland
ChIJt_gW1bvMj4AR6XY_0N9JiqQ,Philz Coffee,"118 Paseo de San Antonio, San Jose, CA 95112",California,37.333572,-121.88504920000001,https://maps.google.com/?cid=11856370194626606825&g_mp=Cidnb29nbGUubWFwcy5wbGFjZXMudjEuUGxhY2VzLlNlYXJjaFRleHQQAhgEIAA,coffee_shop,"coffee_shop,cafe,food_store,store,point_of_interest,food,establishment",OPERATIONAL,4.6,1867,coffee roaster,CA_SanJose
ChIJY4yiZDdhXIYRwiTSt9HOzS4,Black Rifle Coffee Company,"180 W Bitters Rd, San Antonio, TX 78216",Texas,29.565935399999997,-98.4843537,https://maps.google.com/?cid=3372579096097858754&g_mp=Cidnb29nbGUubWFwcy5wbGFjZXMudjEuUGxhY2VzLlNlYXJjaFRleHQQAhgEIAA,coffee_shop,"coffee_shop,cafe,food_store,store,point_of_interest,food,establishment",OPERATIONAL,4.6,1838,coffee roaster;coffee roastery;coffee roasting company,TX_SanAntonio
ChIJyaUh0yFFE4cR9kbrTpDyb3I,Loyal Coffee,"408 S Nevada Ave, Colorado Springs, CO 80903",Colorado,38.827774999999995,-104.82240829999999,https://maps.google.com/?cid=8246076144351921910&g_mp=Cidnb29nbGUubWFwcy5wbGFjZXMudjEuUGxhY2VzLlNlYXJjaFRleHQQAhgEIAA,coffee_shop,"coffee_shop,cafe,food_store,store,point_of_interest,food,establishment",OPERATIONAL,4.7,1826,coffee roaster;coffee roasting company,Colorado
ChIJoauUOM4YBYgRxByHwiDd2Bg,Roast Coffee Company,"2132 E Locust St, Milwaukee, WI 53211",Wisconsin,43.0711816,-87.8832785,https://maps.google.com/?cid=1790423984652098756&g_mp=Cidnb29nbGUubWFwcy5wbGFjZXMudjEuUGxhY2VzLlNlYXJjaFRleHQQAhgEIAA,coffee_shop,"coffee_shop,coffee_stand,catering_service,cafe,food_delivery,food_store,store,service,restaurant,point_of_interest,food,establishment",OPERATIONAL,4.9,1826,coffee roaster;specialty coffee roaster;coffee roasting company;coffee roastery,Wisconsin
ChIJn9L2t59iUocRyCWfVse519c,Sunset Coffee Company,"7978 S 1300 E, Sandy, UT 84094",Utah,40.6071497,-111.85544499999999,https://maps.google.com/?cid=15553104103950198216&g_mp=Cidnb29nbGUubWFwcy5wbGFjZXMudjEuUGxhY2VzLlNlYXJjaFRleHQQAhgEIAA,coffee_shop,"coffee_shop,cafe,point_of_interest,food_store,store,food,establishment",OPERATIONAL,4.6,1813,coffee roaster;coffee roastery,Utah
ChIJaUsphJLKj4ARAYCI5h6fvgA,Voyager Craft Coffee,"3985 Stevens Creek Blvd, Santa Clara, CA 95051",California,37.32362,-121.972528,https://maps.google.com/?cid=53655200640565249&g_mp=Cidnb29nbGUubWFwcy5wbGFjZXMudjEuUGxhY2VzLlNlYXJjaFRleHQQAhgEIAA,coffee_shop,"coffee_shop,cafe,food_store,store,point_of_interest,food,establishment",OPERATIONAL,4.6,1809,coffee roaster;coffee roastery;specialty coffee roaster,CA_SanJose
ChIJG1hqrFCgToYRIqdFUfCkgbM,White Rock Coffee,"10105 E NW Hwy, Dallas, TX 75238",Texas,32.864604799999995,-96.7123226,https://maps.google.com/?cid=12934800956847400738&g_mp=Cidnb29nbGUubWFwcy5wbGFjZXMudjEuUGxhY2VzLlNlYXJjaFRleHQQAhgEIAA,coffee_shop,"coffee_shop,cafe,bakery,food_store,store,point_of_interest,food,establishment",OPERATIONAL,4.7,1805,coffee roaster,TX_Dallas
ChIJYwWOa6Sr3oARsmTDFQlvgGc,Better Buzz Coffee Point Loma,"1480 Rosecrans St, San Diego, CA 92106",California,32.7262183,-117.2281828,https://maps.google.com/?cid=7458083067736057010&g_mp=Cidnb29nbGUubWFwcy5wbGFjZXMudjEuUGxhY2VzLlNlYXJjaFRleHQQAhgEIAA,coffee_shop,"coffee_shop,coffee_roastery,breakfast_restaurant,cafe,food_store,store,restaurant,point_of_interest,food,establishment",OPERATIONAL,4.4,1789,coffee roastery,CA_SanDiego
ChIJLVU0csPQmoAR2BoDuV6oWXA,Temple Coffee,"2200 K St, Sacramento, CA 95816",California,38.574641899999996,-121.47760309999998,https://maps.google.com/?cid=8095686929959557848&g_mp=Cidnb29nbGUubWFwcy5wbGFjZXMudjEuUGxhY2VzLlNlYXJjaFRleHQQAhgEIAA,coffee_shop,"coffee_shop,cafe,food_store,store,point_of_interest,food,establishment",OPERATIONAL,4.6,1772,coffee roaster;coffee roastery;specialty coffee roaster;coffee roasting company,CA_Sacramento
ChIJ4V9vVCXGxokRc6G0KXOyrZQ,Elixr Coffee Roasters,"207 S Sydenham St, Philadelphia, PA 19102",Pennsylvania,39.9493231,-75.1667136,https://maps.google.com/?cid=10713415296274964851&g_mp=Cidnb29nbGUubWFwcy5wbGFjZXMudjEuUGxhY2VzLlNlYXJjaFRleHQQAhgEIAA,coffee_shop,"coffee_shop,cafe,food_store,store,point_of_interest,food,establishment",OPERATIONAL,4.6,1770,coffee roaster;coffee roastery;specialty coffee roaster,Delaware
ChIJ996aHDbiwogRbzjPz9vamFI,Bandit Coffee Co.,"2662 Central Ave, St. Petersburg, FL 33712",Florida,27.7708504,-82.6695525,https://maps.google.com/?cid=5951747545189267567&g_mp=Cidnb29nbGUubWFwcy5wbGFjZXMudjEuUGxhY2VzLlNlYXJjaFRleHQQAhgEIAA,cafe,"cafe,brunch_restaurant,coffee_roastery,breakfast_restaurant,coffee_shop,bakery,food_store,store,restaurant,point_of_interest,food,establishment",OPERATIONAL,4.5,1764,specialty coffee roaster;coffee roasting company;coffee roastery,Florida
ChIJL491KBCcskwRUaDKulH16y8,Tandem Coffee and Bakery,"742 Congress St, Portland, ME 04102",Maine,43.653094599999996,-70.2705388,https://maps.google.com/?cid=3453123270684614737&g_mp=Cidnb29nbGUubWFwcy5wbGFjZXMudjEuUGxhY2VzLlNlYXJjaFRleHQQAhgEIAA,bakery,"bakery,coffee_shop,cafe,confectionery,food_store,store,point_of_interest,food,establishment",OPERATIONAL,4.7,1759,coffee roaster;coffee roastery,Maine
ChIJHdL7-dIR9YgR_vIuc67Dle4,Chattahoochee Coffee Company - Riverside,"2281 Akers Mill Rd, Atlanta, GA 30339",Georgia,33.896575299999995,-84.4451589,https://maps.google.com/?cid=17191862306580919038&g_mp=Cidnb29nbGUubWFwcy5wbGFjZXMudjEuUGxhY2VzLlNlYXJjaFRleHQQAhgEIAA,coffee_shop,"coffee_shop,cafe,food_store,store,point_of_interest,food,establishment",OPERATIONAL,4.3,1745,coffee roasting company,GA_Atlanta
ChIJ20D77LR_bIcRngEDKqLRtI4,Corvus Coffee Roasters,"1740 S Broadway, Denver, CO 80210",Colorado,39.68495800000001,-104.987228,https://maps.google.com/?cid=10283074343613432222&g_mp=Cidnb29nbGUubWFwcy5wbGFjZXMudjEuUGxhY2VzLlNlYXJjaFRleHQQAhgEIAA,coffee_shop,"coffee_shop,coffee_roastery,cafe,food_store,store,point_of_interest,food,establishment",OPERATIONAL,4.6,1737,coffee roaster;coffee roastery;specialty coffee roaster;coffee roasting company,Colorado
ChIJm8vaiT5-j4ARU2MyuxNCc2s,Ritual Coffee Roasters,"1026 Valencia St, San Francisco, CA 94110",California,37.7564253,-122.4214111,https://maps.google.com/?cid=7742604836892468051&g_mp=Cidnb29nbGUubWFwcy5wbGFjZXMudjEuUGxhY2VzLlNlYXJjaFRleHQQAhgEIAA,coffee_shop,"coffee_shop,cafe,food_store,store,point_of_interest,food,establishment",OPERATIONAL,4.3,1719,coffee roaster;coffee roastery;specialty coffee roaster;coffee roasting company,CA_SanFrancisco
ChIJWSzUkndxToYRwWuoL56cXR8,Avoca Coffee Roasters,"1311 W Magnolia Ave, Fort Worth, TX 76104",Texas,32.7303207,-97.3400205,https://maps.google.com/?cid=2260134791228189633&g_mp=Cidnb29nbGUubWFwcy5wbGFjZXMudjEuUGxhY2VzLlNlYXJjaFRleHQQAhgEIAA,coffee_shop,"coffee_shop,cafe,lounge_bar,night_club,bar,parking,transportation_service,food_store,store,point_of_interest,food,establishment",OPERATIONAL,4.5,1714,coffee roaster,TX_Dallas
ChIJT2h1HKZZwokR0kgzEtsa03k,Stumptown Coffee Roasters,"18 W 29th St, New York, NY 10001",New York,40.7457399,-73.9882272,https://maps.google.com/?cid=8778389626880739538&g_mp=Cidnb29nbGUubWFwcy5wbGFjZXMudjEuUGxhY2VzLlNlYXJjaFRleHQQAhgEIAA,coffee_shop,"coffee_shop,coffee_roastery,cafe,tea_store,market,food_store,store,point_of_interest,food,establishment",OPERATIONAL,4.5,1712,coffee roaster;coffee roastery;specialty coffee roaster;coffee roasting company,NY_NYC
ChIJZ_7Z4_t654gRLdMiyqCm-gU,Craft & Common,"47 E Robinson St Unit 100, Orlando, FL 32801",Florida,28.545786399999997,-81.3781783,https://maps.google.com/?cid=430839923883561773&g_mp=Cidnb29nbGUubWFwcy5wbGFjZXMudjEuUGxhY2VzLlNlYXJjaFRleHQQAhgEIAA,coffee_shop,"coffee_shop,breakfast_restaurant,cafe,food_store,store,restaurant,point_of_interest,food,establishment",OPERATIONAL,4.7,1701,coffee roaster,FL_Orlando
ChIJBwSVgYNw44kRDG1TtmfpVXM,Ogawa Coffee,"10 Milk St, Boston, MA 02108",Massachusetts,42.3568114,-71.058072,https://maps.google.com/?cid=8310805319031942412&g_mp=Cidnb29nbGUubWFwcy5wbGFjZXMudjEuUGxhY2VzLlNlYXJjaFRleHQQAhgEIAA,coffee_shop,"coffee_shop,cafe,food_store,store,point_of_interest,food,establishment",OPERATIONAL,4.4,1699,coffee roaster;coffee roasting company,MA_Boston
ChIJC9wuL0Gxt4kRkmXGV6JL_vs,Misha's,"917 King St, Alexandria, VA 22314",Virginia,38.80565000000001,-77.0497329,https://maps.google.com/?cid=18158033908233823634&g_mp=Cidnb29nbGUubWFwcy5wbGFjZXMudjEuUGxhY2VzLlNlYXJjaFRleHQQAhgEIAA,coffee_shop,"coffee_shop,cafe,coffee_roastery,food_store,store,point_of_interest,food,establishment",OPERATIONAL,4.5,1696,coffee roastery,Maryland
ChIJf732s2-kIIYRfJH0710yoUU,Coffee &,"5024 Westbank Expy, Marrero, LA 70072",Louisiana,29.895196,-90.1011485,https://maps.google.com/?cid=5017346838906573180&g_mp=Cidnb29nbGUubWFwcy5wbGFjZXMudjEuUGxhY2VzLlNlYXJjaFRleHQQAhgEIAA,restaurant,"restaurant,coffee_shop,donut_shop,cafe,dessert_shop,confectionery,bakery,point_of_interest,food_store,store,food,establishment",OPERATIONAL,4.4,1681,coffee roasting company,LA_NewOrleans
ChIJeWs-6QoKlVQRrTobPU_sOsY,Coava Coffee Roasters,"1300 SE Grand Ave a, Portland, OR 97214",Oregon,45.513549399999995,-122.6606018,https://maps.google.com/?cid=14283988993230715565&g_mp=Cidnb29nbGUubWFwcy5wbGFjZXMudjEuUGxhY2VzLlNlYXJjaFRleHQQAhgEIAA,coffee_shop,"coffee_shop,cafe,food_store,store,point_of_interest,food,establishment",OPERATIONAL,4.6,1676,coffee roaster;coffee roastery;specialty coffee roaster;coffee roasting company,Oregon
ChIJKYe5pD8J2YgRJG-sNTH1oCI,Enticing Coffee,"10220 W State Rd 84 Ste 3, Davie, FL 33324",Florida,26.1058947,-80.2847615,https://maps.google.com/?cid=2495263785265950500&g_mp=Cidnb29nbGUubWFwcy5wbGFjZXMudjEuUGxhY2VzLlNlYXJjaFRleHQQAhgEIAA,catering_service,"catering_service,food_delivery,service,point_of_interest,food,establishment",OPERATIONAL,5,1628,coffee roaster;specialty coffee roaster,FL_Miami
ChIJmY_jY1eI-4gRdR3YpLIlUAE,Corner Perk Brunch Cafe & Coffee Roasters - Bluffton,"1297 May River Rd, Bluffton, SC 29910",South Carolina,32.237411099999996,-80.86184569999999,https://maps.google.com/?cid=94617041374813557&g_mp=Cidnb29nbGUubWFwcy5wbGFjZXMudjEuUGxhY2VzLlNlYXJjaFRleHQQAhgEIAA,coffee_shop,"coffee_shop,brunch_restaurant,breakfast_restaurant,cafe,sandwich_shop,bakery,live_music_venue,event_venue,bar,food_store,store,restaurant,point_of_interest,food,establishment",OPERATIONAL,4.5,1619,coffee roaster;coffee roastery,Georgia
ChIJM_73yqRqkFQRgLc2-YKhXr4,Zeitgeist Coffee,"171 S Jackson St, Seattle, WA 98104",Washington,47.599110599999996,-122.33179899999999,https://maps.google.com/?cid=13717579098916042624&g_mp=Cidnb29nbGUubWFwcy5wbGFjZXMudjEuUGxhY2VzLlNlYXJjaFRleHQQAhgEIAA,cafe,"cafe,point_of_interest,food,establishment",OPERATIONAL,4.5,1615,coffee roaster,WA_Seattle
ChIJ4eXDs2-z2YgRzzArZVLvkXs,Roasters 'N Toasters - Miami Beach,"533 Arthur Godfrey Rd, Miami Beach, FL 33140",Florida,25.814097099999998,-80.1300133,https://maps.google.com/?cid=8904161075451867343&g_mp=Cidnb29nbGUubWFwcy5wbGFjZXMudjEuUGxhY2VzLlNlYXJjaFRleHQQAhgEIAA,deli,"deli,brunch_restaurant,soup_restaurant,bagel_shop,catering_service,breakfast_restaurant,meal_takeaway,sandwich_shop,food_delivery,bakery,american_restaurant,food_store,store,service,restaurant,point_of_interest,food,establishment",OPERATIONAL,4.5,1603,coffee roaster,FL_Miami
ChIJB__akFGOOIgRtsNBczYTyjw,Stauf's Coffee Roasters,"1277 Grandview Ave, Columbus, OH 43212",Ohio,39.983776999999996,-83.04505499999999,https://maps.google.com/?cid=4380334712154080182&g_mp=Cidnb29nbGUubWFwcy5wbGFjZXMudjEuUGxhY2VzLlNlYXJjaFRleHQQAhgEIAA,coffee_shop,"coffee_shop,breakfast_restaurant,cafe,tea_house,bakery,food_store,store,restaurant,point_of_interest,food,establishment",OPERATIONAL,4.6,1595,coffee roaster;coffee roastery;specialty coffee roaster;coffee roasting company,Ohio
ChIJpdhJXFr1UocRITqu2kK7EEI,Coffee Garden,"878 E 900 S, Salt Lake City, UT 84105",Utah,40.7495455,-111.86583470000001,https://maps.google.com/?cid=4760510701941701153&g_mp=Cidnb29nbGUubWFwcy5wbGFjZXMudjEuUGxhY2VzLlNlYXJjaFRleHQQAhgEIAA,coffee_shop,"coffee_shop,cafe,food_store,store,point_of_interest,food,establishment",OPERATIONAL,4.6,1594,coffee roaster;coffee roastery,UT_SaltLake
ChIJT994RulZwokRdgqQX0zc3QY,La Cabra Bakery,"152 2nd Ave, New York, NY 10003",New York,40.729445899999995,-73.9868353,https://maps.google.com/?cid=494793754659523190&g_mp=Cidnb29nbGUubWFwcy5wbGFjZXMudjEuUGxhY2VzLlNlYXJjaFRleHQQAhgEIAA,coffee_shop,"coffee_shop,cafe,bakery,point_of_interest,food_store,store,food,establishment",OPERATIONAL,4.6,1593,coffee roastery,NY_NYC
ChIJN_-jnSnsa4cRDDn5vjGB7JU,The Laughing Goat,"1709 Pearl St, Boulder, CO 80302",Colorado,40.019539699999996,-105.2731378,https://maps.google.com/?cid=10803151656812361996&g_mp=Cidnb29nbGUubWFwcy5wbGFjZXMudjEuUGxhY2VzLlNlYXJjaFRleHQQAhgEIAA,coffee_shop,"coffee_shop,cafe,live_music_venue,event_venue,point_of_interest,food_store,store,food,establishment",OPERATIONAL,4.6,1591,coffee roaster,CO_Boulder
ChIJnzzCxkoVkFQRTECoVWZJFiA,Mr West Cafe Bar Downtown,"720 Olive Wy, Seattle, WA 98101",Washington,47.6141236,-122.33449840000002,https://maps.google.com/?cid=2312116162573910092&g_mp=Cidnb29nbGUubWFwcy5wbGFjZXMudjEuUGxhY2VzLlNlYXJjaFRleHQQAhgEIAA,cafe,"cafe,bar,point_of_interest,food,establishment",OPERATIONAL,4.3,1582,coffee roaster,WA_Seattle
ChIJtd9GWCP1UocRCzVn2q_BIOE,Publik Coffee Roasters,"975 S W Temple St, Salt Lake City, UT 84101",Utah,40.7478557,-111.8935214,https://maps.google.com/?cid=16222178818816161035&g_mp=Cidnb29nbGUubWFwcy5wbGFjZXMudjEuUGxhY2VzLlNlYXJjaFRleHQQAhgEIAA,coffee_shop,"coffee_shop,cafe,food_store,store,point_of_interest,food,establishment",OPERATIONAL,4.6,1580,coffee roaster;coffee roastery;coffee roasting company,Utah
ChIJATChnBLKj4ARC6PCtPL9FrU,Big Mug Coffee Roaster,"3014 El Camino Real, Santa Clara, CA 95051",California,37.3515167,-121.980882,https://maps.google.com/?cid=13048896189209158411&g_mp=Cidnb29nbGUubWFwcy5wbGFjZXMudjEuUGxhY2VzLlNlYXJjaFRleHQQAhgEIAA,coffee_shop,"coffee_shop,cafe,food_store,store,point_of_interest,food,establishment",OPERATIONAL,4.2,1562,coffee roaster;coffee roastery;specialty coffee roaster,CA_SanJose
ChIJ8blo70HPJIgRIgQ6PYDIPS8,Atomic Coffee,"401 S Main St, Royal Oak, MI 48067",Michigan,42.487093,-83.1437954,https://maps.google.com/?cid=3404097346470544418&g_mp=Cidnb29nbGUubWFwcy5wbGFjZXMudjEuUGxhY2VzLlNlYXJjaFRleHQQAhgEIAA,coffee_shop,"coffee_shop,cafe,food_store,store,point_of_interest,food,establishment",OPERATIONAL,4.4,1561,coffee roaster;coffee roastery;specialty coffee roaster,MI_Detroit
ChIJv42R3nRw54gRth5z_MMbPXE,Foxtail Coffee - Winter Park,"1282 N Orange Ave, Winter Park, FL 32789",Florida,28.5873632,-81.36289699999999,https://maps.google.com/?cid=8159708628433182390&g_mp=Cidnb29nbGUubWFwcy5wbGFjZXMudjEuUGxhY2VzLlNlYXJjaFRleHQQAhgEIAA,cafe,"cafe,point_of_interest,food,establishment",OPERATIONAL,4.5,1543,coffee roastery;coffee roasting company,FL_Orlando
ChIJ2fFTPKoWsYkR_lUCoWnyRPU,Ironclad Coffee Roasters & Baking Co.,"1805 E Grace St, Richmond, VA 23223",Virginia,37.5343484,-77.4257411,https://maps.google.com/?cid=17673517373195441662&g_mp=Cidnb29nbGUubWFwcy5wbGFjZXMudjEuUGxhY2VzLlNlYXJjaFRleHQQAhgEIAA,coffee_shop,"coffee_shop,coffee_roastery,breakfast_restaurant,cafe,tea_house,bakery,dessert_shop,confectionery,food_store,store,restaurant,point_of_interest,food,establishment",OPERATIONAL,4.5,1543,coffee roaster;coffee roastery;specialty coffee roaster;coffee roasting company,Virginia
ChIJRfRbFWt6_ogR4t_JmCU70AI,"Kudu - Coffee, Craft Beer & Wine","4 Vanderhorst St, Charleston, SC 29403",South Carolina,32.7872603,-79.9376977,https://maps.google.com/?cid=202727015894867938&g_mp=Cidnb29nbGUubWFwcy5wbGFjZXMudjEuUGxhY2VzLlNlYXJjaFRleHQQAhgEIAA,coffee_shop,"coffee_shop,cafe,point_of_interest,food_store,store,food,establishment",OPERATIONAL,4.6,1527,coffee roaster;coffee roastery,SC_Charleston
ChIJ6Sd77S0VkFQRcMeTs1sg6iU,Espresso Vivace Capitol Hill,"532 Broadway E, Seattle, WA 98102",Washington,47.6237833,-122.3206194,https://maps.google.com/?cid=2732031702180546416&g_mp=Cidnb29nbGUubWFwcy5wbGFjZXMudjEuUGxhY2VzLlNlYXJjaFRleHQQAhgEIAA,coffee_shop,"coffee_shop,cafe,food_store,store,point_of_interest,food,establishment",OPERATIONAL,4.5,1520,coffee roastery,WA_Seattle
ChIJRQVxk-3QmoARq0K9P2_TmSQ,Temple Coffee,"2829 S St, Sacramento, CA 95816",California,38.5639177,-121.4724262,https://maps.google.com/?cid=2637371531566334635&g_mp=Cidnb29nbGUubWFwcy5wbGFjZXMudjEuUGxhY2VzLlNlYXJjaFRleHQQAhgEIAA,coffee_shop,"coffee_shop,cafe,food_store,store,point_of_interest,food,establishment",OPERATIONAL,4.6,1501,coffee roaster;coffee roastery;specialty coffee roaster;coffee roasting company,CA_Sacramento
ChIJo51lvLDorIkRWul-hUawTc4,Bean Traders,"105 W Nc 54 Hwy, 249, Durham, NC 27713",North Carolina,35.909652799999996,-78.938861,https://maps.google.com/?cid=14865731761953761626&g_mp=Cidnb29nbGUubWFwcy5wbGFjZXMudjEuUGxhY2VzLlNlYXJjaFRleHQQAhgEIAA,coffee_shop,"coffee_shop,coffee_roastery,cafe,bakery,coffee_stand,tea_house,food_store,store,food,point_of_interest,establishment",OPERATIONAL,4.6,1495,coffee roaster;coffee roastery,NC_Raleigh
ChIJicdX0XwUkFQR-XNas59i9_E,Seven Coffee Roasters Market & Cafe,"2007 NE Ravenna Blvd, Seattle, WA 98105",Washington,47.669110499999995,-122.30606180000001,https://maps.google.com/?cid=17435512920436536313&g_mp=Cidnb29nbGUubWFwcy5wbGFjZXMudjEuUGxhY2VzLlNlYXJjaFRleHQQAhgEIAA,cafe,"cafe,liquor_store,coffee_shop,market,point_of_interest,food_store,store,food,establishment",OPERATIONAL,4.8,1495,coffee roaster;coffee roastery;specialty coffee roaster;coffee roasting company,Washington
ChIJY32xdrF654gR2Sr64d61VGs,Stardust Video & Coffee,"1842 Winter Park Rd, Orlando, FL 32803",Florida,28.5684649,-81.34653519999999,https://maps.google.com/?cid=7734006428980619993&g_mp=Cidnb29nbGUubWFwcy5wbGFjZXMudjEuUGxhY2VzLlNlYXJjaFRleHQQAhgEIAA,cafe,"cafe,cocktail_bar,coffee_shop,book_store,vegetarian_restaurant,bar,food_store,store,restaurant,point_of_interest,food,establishment",OPERATIONAL,4.3,1494,coffee roaster,FL_Orlando
ChIJzYvTRcAFyIkRi-Qpi2-axyw,Zeke's Coffee Baltimore,"4719 Harford Rd, Baltimore, MD 21214",Maryland,39.343886999999995,-76.567895,https://maps.google.com/?cid=3226717461901075595&g_mp=Cidnb29nbGUubWFwcy5wbGFjZXMudjEuUGxhY2VzLlNlYXJjaFRleHQQAhgEIAA,coffee_shop,"coffee_shop,brunch_restaurant,breakfast_restaurant,cafe,bar_and_grill,bar,food_store,store,restaurant,point_of_interest,food,establishment",OPERATIONAL,4.6,1484,coffee roaster;coffee roastery;coffee roasting company,MD_Baltimore
ChIJ6yS40oJw44kRISRX73kgcck,George Howell Coffee,"505 Washington St, Boston, MA 02111",Massachusetts,42.354785899999996,-71.06147,https://maps.google.com/?cid=14515418782070416417&g_mp=Cidnb29nbGUubWFwcy5wbGFjZXMudjEuUGxhY2VzLlNlYXJjaFRleHQQAhgEIAA,cafe,"cafe,coffee_shop,food_store,store,point_of_interest,food,establishment",OPERATIONAL,4.5,1482,coffee roaster;specialty coffee roaster;coffee roasting company,MA_Boston
ChIJU-ncgh7DQIYRdVSuIbWy1zI,Golden Roastery,"3111 Fondren Rd, Houston, TX 77063",Texas,29.731008700000004,-95.519883,https://maps.google.com/?cid=3663593312913085557&g_mp=Cidnb29nbGUubWFwcy5wbGFjZXMudjEuUGxhY2VzLlNlYXJjaFRleHQQAhgEIAA,dessert_shop,"coffee_shop,candy_store,cafe,gift_shop,dessert_shop,dessert_restaurant,confectionery,buffet_restaurant,food_store,store,restaurant,point_of_interest,food,establishment",OPERATIONAL,4.8,1481,coffee roastery;specialty coffee roaster;coffee roasting company,Arkansas
ChIJ96i2HtcIK4cR3pPQXoa0W1Q,Cartel Roasting Co.,"810 S Ash Ave, Tempe, AZ 85281",Arizona,33.4211099,-111.94249769999999,https://maps.google.com/?cid=6078650611275961310&g_mp=Cidnb29nbGUubWFwcy5wbGFjZXMudjEuUGxhY2VzLlNlYXJjaFRleHQQAhgEIAA,coffee_shop,"coffee_shop,cafe,coffee_roastery,pastry_shop,dessert_shop,bakery,confectionery,food_store,wholesaler,store,point_of_interest,supplier,food,establishment",OPERATIONAL,4.4,1473,coffee roaster;coffee roastery;specialty coffee roaster;coffee roasting company,Arizona
ChIJ7c9s1JZZwokRs_zFHYCtNDA,Stumptown Coffee Roasters,"30 W 8th St, New York, NY 10011",New York,40.7328275,-73.9979664,https://maps.google.com/?cid=3473591978376428723&g_mp=Cidnb29nbGUubWFwcy5wbGFjZXMudjEuUGxhY2VzLlNlYXJjaFRleHQQAhgEIAA,coffee_shop,"coffee_shop,cafe,tea_store,food_store,store,point_of_interest,food,establishment",OPERATIONAL,4.4,1473,coffee roaster;coffee roastery;specialty coffee roaster;coffee roasting company,NY_NYC
ChIJM-FdL9QN9YgRTu5fvjDMj04,Land Of A Thousand Hills Coffee,"352 S Atlanta St, Roswell, GA 30075",Georgia,34.0083476,-84.3602045,https://maps.google.com/?cid=5660967766352457294&g_mp=Cidnb29nbGUubWFwcy5wbGFjZXMudjEuUGxhY2VzLlNlYXJjaFRleHQQAhgEIAA,coffee_shop,"coffee_shop,cafe,food_store,store,point_of_interest,food,establishment",OPERATIONAL,4.6,1463,coffee roaster;coffee roastery,Georgia
ChIJCZ44dX-_QIYR2UJJ-nkD_qY,Brass Tacks,"612 Live Oak St, Houston, TX 77003",Texas,29.7514608,-95.34943919999999,https://maps.google.com/?cid=12033059076805575385&g_mp=Cidnb29nbGUubWFwcy5wbGFjZXMudjEuUGxhY2VzLlNlYXJjaFRleHQQAhgEIAA,cafe,"cafe,cocktail_bar,breakfast_restaurant,coffee_shop,bar,food_store,store,restaurant,point_of_interest,food,establishment",OPERATIONAL,4.5,1458,coffee roaster,TX_Houston
ChIJ31doZ-cQsocR63ron6M7lok,Elemental Coffee,"815 N Hudson Ave, Oklahoma City, OK 73102",Oklahoma,35.475787,-97.51947779999999,https://maps.google.com/?cid=9914177203651246827&g_mp=Cidnb29nbGUubWFwcy5wbGFjZXMudjEuUGxhY2VzLlNlYXJjaFRleHQQAhgEIAA,coffee_shop,"coffee_shop,cafe,food_store,store,restaurant,point_of_interest,food,establishment",OPERATIONAL,4.5,1454,coffee roaster;coffee roastery;coffee roasting company,Oklahoma
ChIJnbkUjE4S04kRxnLu0hwjedU,SPoT Coffee Delaware/Chippewa,"225 Delaware Ave, Buffalo, NY 14202",New York,42.8905384,-78.8765963,https://maps.google.com/?cid=15382364608965538502&g_mp=Cidnb29nbGUubWFwcy5wbGFjZXMudjEuUGxhY2VzLlNlYXJjaFRleHQQAhgEIAA,cafe,"cafe,breakfast_restaurant,restaurant,point_of_interest,food,establishment",OPERATIONAL,4.2,1451,coffee roastery,NY_Buffalo
ChIJHSJLxCbsa4cRkw2E3vTDfzU,Trident Booksellers and Cafe,"940 Pearl St, Boulder, CO 80302",Colorado,40.0171546,-105.28299179999999,https://maps.google.com/?cid=3855015262525066643&g_mp=Cidnb29nbGUubWFwcy5wbGFjZXMudjEuUGxhY2VzLlNlYXJjaFRleHQQAhgEIAA,coffee_shop,"coffee_shop,cafe,tea_house,book_store,bar,food_store,store,point_of_interest,food,establishment",OPERATIONAL,4.7,1448,coffee roaster,CO_Boulder
ChIJ7fI8bVs1O4gRdWaYQv6LoRg,Qahwah House,"22000 Michigan Ave, Dearborn, MI 48124",Michigan,42.3062633,-83.2444355,https://maps.google.com/?cid=1774853652315924085&g_mp=Cidnb29nbGUubWFwcy5wbGFjZXMudjEuUGxhY2VzLlNlYXJjaFRleHQQAhgEIAA,coffee_shop,"coffee_shop,cafe,tea_house,food_store,store,point_of_interest,food,establishment",OPERATIONAL,4.7,1446,coffee roaster,MI_Detroit
ChIJBf3DjNIR3ogRLVIeriwZZZA,Apocalypse Coffee Roasters,"454 N Harbor City Blvd, Melbourne, FL 32935",Florida,28.115612799999997,-80.6229316,https://maps.google.com/?cid=10404750193799877165&g_mp=Cidnb29nbGUubWFwcy5wbGFjZXMudjEuUGxhY2VzLlNlYXJjaFRleHQQAhgEIAA,coffee_shop,"coffee_shop,coffee_roastery,cafe,food_store,store,point_of_interest,food,establishment",OPERATIONAL,4.7,1442,coffee roaster,Florida
ChIJa92lywQKlVQRXlkX4rXNbnM,Case Study Coffee Roasters,"802 SW 10th Ave, Portland, OR 97205",Oregon,45.5191855,-122.6823608,https://maps.google.com/?cid=8317811742865840478&g_mp=Cidnb29nbGUubWFwcy5wbGFjZXMudjEuUGxhY2VzLlNlYXJjaFRleHQQAhgEIAA,coffee_shop,"coffee_shop,cafe,food_store,store,point_of_interest,food,establishment",OPERATIONAL,4.4,1439,coffee roaster;coffee roastery,OR_Portland
ChIJ5_i9tdT5rIkRDDbs2kVVuMI,NoRa Cafe,"12333 Strickland Rd Ste 100, Raleigh, NC 27613",North Carolina,35.9060373,-78.7024897,https://maps.google.com/?cid=14031058397586798092&g_mp=Cidnb29nbGUubWFwcy5wbGFjZXMudjEuUGxhY2VzLlNlYXJjaFRleHQQAhgEIAA,coffee_shop,"coffee_shop,wine_bar,cafe,book_store,bar,food_store,store,food,point_of_interest,establishment",OPERATIONAL,4.8,1437,coffee roaster,NC_Raleigh
ChIJM25sEKsrzYcRGpmaQLXqKtQ,Kollective Coffee & Tea,"110 Central Ave, Hot Springs, AR 71901",Arkansas,34.5183116,-93.0558126,https://maps.google.com/?cid=15288289949256423706&g_mp=Cidnb29nbGUubWFwcy5wbGFjZXMudjEuUGxhY2VzLlNlYXJjaFRleHQQAhgEIAA,coffee_shop,"coffee_shop,tea_house,cafe,point_of_interest,food_store,store,food,establishment",OPERATIONAL,4.4,1435,coffee roaster,Arkansas
ChIJNdqbeFHEwogRqSpHNssx6L4,Blind Tiger Coffee Roasters- Ybor City Cafe,"1823 E 7th Ave, Tampa, FL 33605",Florida,27.960217099999998,-82.43839919999999,https://maps.google.com/?cid=13756299810661935785&g_mp=Cidnb29nbGUubWFwcy5wbGFjZXMudjEuUGxhY2VzLlNlYXJjaFRleHQQAhgEIAA,coffee_shop,"coffee_shop,brunch_restaurant,breakfast_restaurant,cafe,sandwich_shop,tea_house,food_store,store,restaurant,point_of_interest,food,establishment",OPERATIONAL,4.5,1418,coffee roaster,FL_Tampa
ChIJ02DNErjpJIgRVG4bLioN470,Dessert Oasis Coffee Roasters Rochester,"336 S Main St, Rochester, MI 48307",Michigan,42.6805139,-83.1335265,https://maps.google.com/?cid=13682794567695035988&g_mp=Cidnb29nbGUubWFwcy5wbGFjZXMudjEuUGxhY2VzLlNlYXJjaFRleHQQAhgEIAA,coffee_shop,"coffee_shop,coffee_roastery,cafe,pastry_shop,bakery,dessert_shop,confectionery,food_store,store,wholesaler,point_of_interest,food,establishment",OPERATIONAL,4.5,1416,coffee roastery,MI_Detroit
ChIJt4yisvz4rlQRrwwyzdvys5E,Flying M Coffee House,"500 W Idaho St #100, Boise, ID 83702",Idaho,43.614808,-116.199343,https://maps.google.com/?cid=10499002182185127087&g_mp=Cidnb29nbGUubWFwcy5wbGFjZXMudjEuUGxhY2VzLlNlYXJjaFRleHQQAhgEIAA,coffee_shop,"coffee_shop,cafe,food_store,store,point_of_interest,food,establishment",OPERATIONAL,4.7,1414,coffee roaster;coffee roasting company,Idaho
ChIJbTKdBTqsK4cRR2OFB7GGnb8,The Coffee Shop,"3000 E Ray Rd, Gilbert, AZ 85296",Arizona,33.3219164,-111.726292,https://maps.google.com/?cid=13807340127481324359&g_mp=Cidnb29nbGUubWFwcy5wbGFjZXMudjEuUGxhY2VzLlNlYXJjaFRleHQQAhgEIAA,coffee_shop,"coffee_shop,breakfast_restaurant,cafe,food_store,store,restaurant,point_of_interest,food,establishment",OPERATIONAL,4.6,1411,coffee roaster,Arizona
ChIJv9bVuGG_QIYRq3Lf9AaP8XE,Blacksmith,"1018 Westheimer Rd, Houston, TX 77006",Texas,29.7448347,-95.3925027,https://maps.google.com/?cid=8210500855713985195&g_mp=Cidnb29nbGUubWFwcy5wbGFjZXMudjEuUGxhY2VzLlNlYXJjaFRleHQQAhgEIAA,coffee_shop,"coffee_shop,breakfast_restaurant,cafe,food_store,store,restaurant,point_of_interest,food,establishment",OPERATIONAL,4.6,1410,coffee roaster,TX_Houston
ChIJM0lsN2cSAHwROpIQYO0gs6Y,Island Brew Coffeehouse,"377 Keahole St, Honolulu, HI 96825",Hawaii,21.284113899999998,-157.7071389,https://maps.google.com/?cid=12011980835018281530&g_mp=Cidnb29nbGUubWFwcy5wbGFjZXMudjEuUGxhY2VzLlNlYXJjaFRleHQQAhgEIAA,coffee_shop,"coffee_shop,cafe,food_store,store,point_of_interest,food,establishment",OPERATIONAL,4.5,1409,coffee roaster,Hawaii
ChIJg8lup3rNQIYR0w_3d6AjVVo,Barbarossa Coffee Roasters,"9166 Farm to Market 2920 Ste 100, Tomball, TX 77375",Texas,30.0793656,-95.5606564,https://maps.google.com/?cid=6509148008548339667&g_mp=Cidnb29nbGUubWFwcy5wbGFjZXMudjEuUGxhY2VzLlNlYXJjaFRleHQQAhgEIAA,coffee_shop,"coffee_shop,cafe,bakery,food_store,store,point_of_interest,food,establishment",OPERATIONAL,4.7,1408,coffee roaster;specialty coffee roaster,TX_Houston
ChIJEfTmY3RpZIgR50sYdv0-wrA,Caliber Coffee Co.,"2513 Lebanon Pike, Nashville, TN 37214",Tennessee,36.169241899999996,-86.6784821,https://maps.google.com/?cid=12736811954486135783&g_mp=Cidnb29nbGUubWFwcy5wbGFjZXMudjEuUGxhY2VzLlNlYXJjaFRleHQQAhgEIAA,coffee_shop,"coffee_shop,cafe,breakfast_restaurant,brunch_restaurant,restaurant,point_of_interest,food_store,store,food,establishment",OPERATIONAL,4.7,1404,specialty coffee roaster,TN_Nashville
ChIJh_Lr5A16_ogRdNnc5ZlrCRA,Bitty and Beau’s Coffee,"159 Church St, Charleston, SC 29401",South Carolina,32.7799455,-79.9296203,https://maps.google.com/?cid=1155573088127867252&g_mp=Cidnb29nbGUubWFwcy5wbGFjZXMudjEuUGxhY2VzLlNlYXJjaFRleHQQAhgEIAA,coffee_shop,"coffee_shop,coffee_roastery,cafe,bakery,food_store,store,point_of_interest,food,establishment",OPERATIONAL,4.7,1403,coffee roastery,SC_Charleston
ChIJL4OUUjfGxokRLgek7FLfoko,La Colombe Coffee Workshop,"1414 S Penn Square, Philadelphia, PA 19102",Pennsylvania,39.9515479,-75.1650513,https://maps.google.com/?cid=5378106452284278574&g_mp=Cidnb29nbGUubWFwcy5wbGFjZXMudjEuUGxhY2VzLlNlYXJjaFRleHQQAhgEIAA,coffee_shop,"coffee_shop,cafe,food_store,store,point_of_interest,food,establishment",OPERATIONAL,4.4,1403,coffee roaster;coffee roasting company,PA_Philadelphia
ChIJN4HITffPyIARmEtlgMnTslQ,Sunrise Coffee,"3130 E Sunset Rd, Las Vegas, NV 89120",Nevada,36.071899099999996,-115.10697639999998,https://maps.google.com/?cid=6103173307436452760&g_mp=Cidnb29nbGUubWFwcy5wbGFjZXMudjEuUGxhY2VzLlNlYXJjaFRleHQQAhgEIAA,coffee_shop,"coffee_shop,coffee_roastery,cafe,food_store,store,wholesaler,restaurant,point_of_interest,food,establishment",OPERATIONAL,4.5,1402,coffee roaster;coffee roastery;coffee roasting company,NV_LasVegas
ChIJmx-U_7JqkFQRdymQucyLhXA,Victrola Coffee Roasters,"108 Pine St, Seattle, WA 98101",Washington,47.610166799999995,-122.34061229999999,https://maps.google.com/?cid=8108040415553268087&g_mp=Cidnb29nbGUubWFwcy5wbGFjZXMudjEuUGxhY2VzLlNlYXJjaFRleHQQAhgEIAA,cafe,"cafe,coffee_shop,breakfast_restaurant,food_store,store,restaurant,point_of_interest,food,establishment",OPERATIONAL,4.4,1402,specialty coffee roaster;coffee roastery;coffee roasting company,Washington
ChIJ-7-AAor1XIYR-FOrzWQiX_w,Summer Moon Coffee,"3233 N St Mary's St #102, San Antonio, TX 78212",Texas,29.454468600000002,-98.48352440000001,https://maps.google.com/?cid=18185291636687983608&g_mp=Cidnb29nbGUubWFwcy5wbGFjZXMudjEuUGxhY2VzLlNlYXJjaFRleHQQAhgEIAA,coffee_shop,"coffee_shop,cafe,food_store,store,point_of_interest,food,establishment",OPERATIONAL,4.6,1398,coffee roaster,TX_SanAntonio
ChIJ4VGR6fwfTIYRKn7827DxyVg,Arwa Yemeni Coffee,"888 S Greenville Ave Ste 223, Richardson, TX 75081",Texas,32.938215,-96.7346238,https://maps.google.com/?cid=6397910487563796010&g_mp=Cidnb29nbGUubWFwcy5wbGFjZXMudjEuUGxhY2VzLlNlYXJjaFRleHQQAhgEIAA,coffee_shop,"coffee_shop,cafe,food_store,store,point_of_interest,food,establishment",OPERATIONAL,4.7,1390,coffee roaster;coffee roastery;specialty coffee roaster,TX_Dallas
ChIJ4fB2zSoC3IARQung7-rjxOU,Bird Rock Coffee Roasters - La Jolla,"5627 La Jolla Blvd, La Jolla, CA 92037",California,32.8144743,-117.2697587,https://maps.google.com/?cid=16556608728307132738&g_mp=Cidnb29nbGUubWFwcy5wbGFjZXMudjEuUGxhY2VzLlNlYXJjaFRleHQQAhgEIAA,coffee_shop,"coffee_shop,cafe,point_of_interest,food_store,store,food,establishment",OPERATIONAL,4.6,1390,coffee roaster;coffee roastery;specialty coffee roaster;coffee roasting company,CA_SanDiego
ChIJY0fcO85PE4cR28j9qwBog5w,Kairos Coffee House,"505 Popes Bluff Trail, Colorado Springs, CO 80907",Colorado,38.8979109,-104.8322053,https://maps.google.com/?cid=11277972243960678619&g_mp=Cidnb29nbGUubWFwcy5wbGFjZXMudjEuUGxhY2VzLlNlYXJjaFRleHQQAhgEIAA,coffee_shop,"coffee_shop,diner,cafe,tea_house,food_store,store,restaurant,food,point_of_interest,establishment",OPERATIONAL,4.6,1388,coffee roaster,Colorado
ChIJ32j7CJZQa4gRm_FzOdnT014,Cath Coffee and Tea House,"6020 E 82nd St, Indianapolis, IN 46250",Indiana,39.910232099999995,-86.0653725,https://maps.google.com/?cid=6833037989576438171&g_mp=Cidnb29nbGUubWFwcy5wbGFjZXMudjEuUGxhY2VzLlNlYXJjaFRleHQQAhgEIAA,coffee_shop,"coffee_shop,cafe,food_store,store,point_of_interest,food,establishment",OPERATIONAL,5,1386,coffee roaster,Indiana
ChIJUXdmhjfxMIgR-JwxxvLCq5U,27 Club Coffee,"1215 W 10th St, Cleveland, OH 44113",Ohio,41.4999237,-81.7034899,https://maps.google.com/?cid=10784928080631799032&g_mp=Cidnb29nbGUubWFwcy5wbGFjZXMudjEuUGxhY2VzLlNlYXJjaFRleHQQAhgEIAA,coffee_shop,"coffee_shop,cafe,food_store,store,point_of_interest,food,establishment",OPERATIONAL,4.5,1382,coffee roastery,OH_Cleveland
ChIJOfalBUMD9YgRd0hSjtV1Tvk,Black Coffee Atlanta,"1800 Jonesboro Rd SE Ste C, Atlanta, GA 30315",Georgia,33.7047782,-84.3775735,https://maps.google.com/?cid=17964425523703728247&g_mp=Cidnb29nbGUubWFwcy5wbGFjZXMudjEuUGxhY2VzLlNlYXJjaFRleHQQAhgEIAA,coffee_shop,"coffee_shop,cafe,food_store,store,point_of_interest,food,establishment",OPERATIONAL,4.9,1381,coffee roaster;specialty coffee roaster;coffee roastery;coffee roasting company,Georgia
ChIJBbKx3DhF5IkRdBwYNjfVGH8,Coffee Exchange,"207 Wickenden St, Providence, RI 02903",Rhode Island,41.819286999999996,-71.3990847,https://maps.google.com/?cid=9158304275365370996&g_mp=Cidnb29nbGUubWFwcy5wbGFjZXMudjEuUGxhY2VzLlNlYXJjaFRleHQQAhgEIAA,coffee_shop,"coffee_shop,cafe,food_store,store,point_of_interest,food,establishment",OPERATIONAL,4.7,1381,specialty coffee roaster;coffee roastery,Massachusetts
ChIJbWjOvU0pTIYRejZUV8w-4wM,Haraz Coffee House,"10009 N MacArthur Blvd #101, Irving, TX 75063",Texas,32.941438999999995,-96.9527325,https://maps.google.com/?cid=280136649186489978&g_mp=Cidnb29nbGUubWFwcy5wbGFjZXMudjEuUGxhY2VzLlNlYXJjaFRleHQQAhgEIAA,cafe,"cafe,coffee_shop,food_store,store,point_of_interest,food,establishment",OPERATIONAL,4.7,1379,coffee roastery,TX_Dallas
ChIJmTqp-nZyAHwR7YrrUbvbyh4,Kai Coffee Hawaii at Hyatt Regency Waikiki,"2424 Kalākaua Ave #129, Honolulu, HI 96815",Hawaii,21.2761632,-157.8250809,https://maps.google.com/?cid=2218827364013148909&g_mp=Cidnb29nbGUubWFwcy5wbGFjZXMudjEuUGxhY2VzLlNlYXJjaFRleHQQAhgEIAA,coffee_shop,"coffee_shop,cafe,food_store,store,point_of_interest,food,establishment",OPERATIONAL,4.4,1373,coffee roaster;coffee roastery,Hawaii
ChIJ0zah3YMIK4cRroWCsxKKvSo,Xtreme Bean Coffee,"1707 E Southern Ave, Tempe, AZ 85282",Arizona,33.392634,-111.911068,https://maps.google.com/?cid=3079769533117007278&g_mp=Cidnb29nbGUubWFwcy5wbGFjZXMudjEuUGxhY2VzLlNlYXJjaFRleHQQAhgEIAA,coffee_shop,"coffee_shop,cafe,food_store,store,point_of_interest,food,establishment",OPERATIONAL,4.4,1372,coffee roasting company,AZ_Phoenix
ChIJY3TwzSL5WYgRaK0q6N9ifHw,Dripolator Black Mountain,"221 W State St, Black Mountain, NC 28711",North Carolina,35.616335299999996,-82.321478,https://maps.google.com/?cid=8970153271627525480&g_mp=Cidnb29nbGUubWFwcy5wbGFjZXMudjEuUGxhY2VzLlNlYXJjaFRleHQQAhgEIAA,coffee_shop,"coffee_shop,cafe,food_store,store,point_of_interest,food,establishment",OPERATIONAL,4.7,1370,coffee roaster;coffee roastery,NC_Asheville
ChIJJwKZDCS4t4kRrB6_ZwOGdK0,Ebenezers Coffeehouse,"201 F St NE, Washington, DC 20002",District of Columbia,38.897117,-77.00330199999999,https://maps.google.com/?cid=12498762215043571372&g_mp=Cidnb29nbGUubWFwcy5wbGFjZXMudjEuUGxhY2VzLlNlYXJjaFRleHQQAhgEIAA,coffee_shop,"coffee_shop,cafe,coffee_roastery,food_store,wholesaler,store,point_of_interest,food,establishment",OPERATIONAL,4.5,1364,coffee roaster;coffee roastery,District of Columbia
ChIJh_i-PINvkFQR3ptqRqRShu4,Issaquah Coffee Company,"317 NW Gilman Blvd #47, Issaquah, WA 98027",Washington,47.5395786,-122.04231259999999,https://maps.google.com/?cid=17187515893415582686&g_mp=Cidnb29nbGUubWFwcy5wbGFjZXMudjEuUGxhY2VzLlNlYXJjaFRleHQQAhgEIAA,coffee_shop,"coffee_shop,breakfast_restaurant,cafe,pastry_shop,tea_house,bakery,dessert_shop,confectionery,food_store,store,restaurant,point_of_interest,food,establishment",OPERATIONAL,4.4,1361,coffee roasting company,WA_Seattle
ChIJLcrjXMhLtokRWGjRLVW24hk,Caffe Amouri Coffee Roaster,"107 Church St NE, Vienna, VA 22180",Virginia,38.9024734,-77.2657028,https://maps.google.com/?cid=1865253672641980504&g_mp=Cidnb29nbGUubWFwcy5wbGFjZXMudjEuUGxhY2VzLlNlYXJjaFRleHQQAhgEIAA,coffee_shop,"coffee_shop,cafe,tea_house,educational_institution,food_store,store,point_of_interest,food,establishment",OPERATIONAL,4.5,1352,coffee roaster;coffee roastery;specialty coffee roaster,Maryland
ChIJB6nUad-1RIYR6wPJS0b75oU,Creature Coffee Catering,"2500 S Hwy 183 Bldg 2, Unit 240, Austin, TX 78744",Texas,30.210659,-97.6861387,https://maps.google.com/?cid=9648675531025613803&g_mp=Cidnb29nbGUubWFwcy5wbGFjZXMudjEuUGxhY2VzLlNlYXJjaFRleHQQAhgEIAA,catering_service,"coffee_shop,catering_service,cafe,food_delivery,coffee_roastery,food_store,service,wholesaler,store,point_of_interest,food,establishment",OPERATIONAL,5,1352,coffee roaster;coffee roastery;specialty coffee roaster;coffee roasting company,TX_Austin
ChIJV3iAksZ4Q4gReg-YLaEEG7E,Daniel Boone Coffee Shop,"769 Natural Bridge Rd, Slade, KY 40376",Kentucky,37.7898162,-83.6969749,https://maps.google.com/?cid=12761799059385618298&g_mp=Cidnb29nbGUubWFwcy5wbGFjZXMudjEuUGxhY2VzLlNlYXJjaFRleHQQAhgEIAA,coffee_shop,"coffee_shop,cafe,food_store,store,point_of_interest,food,establishment",OPERATIONAL,4.6,1352,coffee roaster;coffee roastery,Kentucky
ChIJC8hstL8MIocRqbk6wNuHqLM,Zendo Coffee,"413 2nd St SW, Albuquerque, NM 87102",New Mexico,35.080701,-106.650036,https://maps.google.com/?cid=12945746506769152425&g_mp=Cidnb29nbGUubWFwcy5wbGFjZXMudjEuUGxhY2VzLlNlYXJjaFRleHQQAhgEIAA,coffee_shop,"coffee_shop,cafe,art_gallery,food_store,store,point_of_interest,food,establishment",OPERATIONAL,4.7,1343,coffee roaster;coffee roastery,New Mexico
ChIJqQzornWmIIYRZqTRk1F9oAw,Drip Affogato Bar NOLA,"336 Camp St Apt 100, New Orleans, LA 70130",Louisiana,29.9502626,-90.0689402,https://maps.google.com/?cid=909864914054653030&g_mp=Cidnb29nbGUubWFwcy5wbGFjZXMudjEuUGxhY2VzLlNlYXJjaFRleHQQAhgEIAA,dessert_restaurant,"dessert_restaurant,cocktail_bar,lounge_bar,coffee_shop,cafe,night_club,parking,transportation_service,bar,food_store,store,restaurant,point_of_interest,food,establishment",OPERATIONAL,4.7,1340,coffee roaster,LA_NewOrleans
ChIJj6zpZYqt2YgR_ris-G1Y-80,Alaska Coffee Roasting,"13130 Biscayne Blvd, North Miami, FL 33181",Florida,25.8965912,-80.1626205,https://maps.google.com/?cid=14842554226276350206&g_mp=Cidnb29nbGUubWFwcy5wbGFjZXMudjEuUGxhY2VzLlNlYXJjaFRleHQQAhgEIAA,coffee_shop,"coffee_shop,cafe,food_store,store,point_of_interest,food,establishment",OPERATIONAL,4.5,1339,coffee roaster;coffee roastery;specialty coffee roaster;coffee roasting company,FL_Miami
ChIJjc_1xa7iEogRH_vMqAFMYIU,Greyhouse Coffee & Supply Co. - West Lafayette,"100 Northwestern Ave Unit A, West Lafayette, IN 47906",Indiana,40.4241939,-86.90776439999999,https://maps.google.com/?cid=9610765174819322655&g_mp=Cidnb29nbGUubWFwcy5wbGFjZXMudjEuUGxhY2VzLlNlYXJjaFRleHQQAhgEIAA,coffee_shop,"coffee_shop,ice_cream_shop,cafe,dessert_shop,confectionery,restaurant,point_of_interest,food_store,store,food,establishment",OPERATIONAL,4.6,1339,coffee roasting company,Indiana
ChIJx_rKPrJqkFQR7OliFT0Jk-A,Fonté Coffee - 1st Avenue,"1321 1st Ave, Seattle, WA 98101",Washington,47.607234299999995,-122.33900949999999,https://maps.google.com/?cid=16182288044028783084&g_mp=Cidnb29nbGUubWFwcy5wbGFjZXMudjEuUGxhY2VzLlNlYXJjaFRleHQQAhgEIAA,coffee_shop,"coffee_shop,breakfast_restaurant,cafe,brunch_restaurant,european_restaurant,coffee_roastery,food_store,store,restaurant,point_of_interest,food,establishment",OPERATIONAL,4.4,1337,coffee roaster;coffee roastery,WA_Seattle
ChIJSWmJFf1OE4cRTLh_efrnCpE,Third Space Coffee,"5670 N Academy Blvd, Colorado Springs, CO 80918",Colorado,38.9134214,-104.7892777,https://maps.google.com/?cid=10451420948232910924&g_mp=Cidnb29nbGUubWFwcy5wbGFjZXMudjEuUGxhY2VzLlNlYXJjaFRleHQQAhgEIAA,coffee_shop,"coffee_shop,breakfast_restaurant,coffee_roastery,internet_cafe,cafe,coffee_stand,event_venue,food_store,store,restaurant,food,point_of_interest,service,establishment",OPERATIONAL,4.5,1330,coffee roaster;coffee roastery;coffee roasting company,Colorado
ChIJFfNBXThTBogRgFIxOgJ6fSk,Michelangelo's Coffee House,"114 State St, Madison, WI 53703",Wisconsin,43.0748932,-89.3872186,https://maps.google.com/?cid=2989679877628711552&g_mp=Cidnb29nbGUubWFwcy5wbGFjZXMudjEuUGxhY2VzLlNlYXJjaFRleHQQAhgEIAA,coffee_shop,"coffee_shop,cafe,breakfast_restaurant,dessert_shop,confectionery,restaurant,point_of_interest,food_store,store,food,establishment",OPERATIONAL,4.6,1329,coffee roaster,WI_Madison
ChIJEYHV_v63FIgREBn2UAMRbgU,YAFA GOLDEN COFFEE,"14160 Mundy Dr Ste 100, Noblesville, IN 46060",Indiana,39.9940144,-86.00224399999999,https://maps.google.com/?cid=391268923568691472&g_mp=Cidnb29nbGUubWFwcy5wbGFjZXMudjEuUGxhY2VzLlNlYXJjaFRleHQQAhgEIAA,coffee_shop,"coffee_shop,cafe,pastry_shop,tea_house,juice_shop,bakery,dessert_shop,confectionery,food_store,store,point_of_interest,food,establishment",OPERATIONAL,4.8,1328,coffee roaster;specialty coffee roaster,Indiana
ChIJJQ1mxcWtGYgRtl2dJspexG0,Madcap Coffee Company,"98 Monroe Center St NW, Grand Rapids, MI 49503",Michigan,42.9651336,-85.66999260000001,https://maps.google.com/?cid=7909551067893685686&g_mp=Cidnb29nbGUubWFwcy5wbGFjZXMudjEuUGxhY2VzLlNlYXJjaFRleHQQAhgEIAA,coffee_shop,"coffee_shop,cafe,food_store,store,point_of_interest,food,establishment",OPERATIONAL,4.6,1319,coffee roaster;coffee roasting company,MI_GrandRapids
ChIJdam9at-HhYAReFFog6hjhdo,Flywheel Coffee Roasters,"672 Stanyan St, San Francisco, CA 94117",California,37.7696901,-122.4534936,https://maps.google.com/?cid=15746101247581114744&g_mp=Cidnb29nbGUubWFwcy5wbGFjZXMudjEuUGxhY2VzLlNlYXJjaFRleHQQAhgEIAA,coffee_shop,"coffee_shop,cafe,food_store,store,point_of_interest,food,establishment",OPERATIONAL,4.4,1316,specialty coffee roaster;coffee roastery;coffee roasting company,Georgia
ChIJTwDfStLqM4gRz8varD4FYjc,O'Neill Coffee Co,"14 Fair St, West Middlesex, PA 16159",Pennsylvania,41.1725491,-80.45760279999999,https://maps.google.com/?cid=3990757986549812175&g_mp=Cidnb29nbGUubWFwcy5wbGFjZXMudjEuUGxhY2VzLlNlYXJjaFRleHQQAhgEIAA,coffee_shop,"coffee_shop,cafe,food_store,store,point_of_interest,food,establishment",OPERATIONAL,5,1316,coffee roasting company,PA_Pittsburgh
ChIJuyOmKROmsYkRZz4XYUYEatg,Demolition Coffee,"215 E Bank St, Petersburg, VA 23803",Virginia,37.232206999999995,-77.40072599999999,https://maps.google.com/?cid=15594281360046898791&g_mp=Cidnb29nbGUubWFwcy5wbGFjZXMudjEuUGxhY2VzLlNlYXJjaFRleHQQAhgEIAA,coffee_shop,"coffee_shop,cafe,pastry_shop,dessert_shop,bakery,confectionery,food_store,store,point_of_interest,food,establishment",OPERATIONAL,4.5,1315,coffee roaster,VA_Richmond
ChIJqbKLFDG3A4gRGJVPPvFl2tk,Copper Rock Coffee Company,"210 W College Ave, Appleton, WI 54911",Wisconsin,44.261967500000004,-88.4078043,https://maps.google.com/?cid=15697971537960211736&g_mp=Cidnb29nbGUubWFwcy5wbGFjZXMudjEuUGxhY2VzLlNlYXJjaFRleHQQAhgEIAA,cafe,"cafe,point_of_interest,food,establishment",OPERATIONAL,4.6,1314,coffee roaster,Wisconsin
ChIJWRIIZ00tDogRiM95S7fMqPs,Dark Matter Coffee - The Mothership,"738 N Western Ave, Chicago, IL 60612",Illinois,41.895069899999996,-87.687134,https://maps.google.com/?cid=18133968987224657800&g_mp=Cidnb29nbGUubWFwcy5wbGFjZXMudjEuUGxhY2VzLlNlYXJjaFRleHQQAhgEIAA,cafe,"cafe,coffee_shop,food_store,store,point_of_interest,food,establishment",OPERATIONAL,4.8,1311,coffee roaster;coffee roastery;specialty coffee roaster,IL_Chicago
ChIJ89hxThWcskwR2KqDLwdWrEM,Bard Coffee,"185 Middle St, Portland, ME 04101",Maine,43.6576744,-70.2552393,https://maps.google.com/?cid=4876367085397322456&g_mp=Cidnb29nbGUubWFwcy5wbGFjZXMudjEuUGxhY2VzLlNlYXJjaFRleHQQAhgEIAA,coffee_shop,"coffee_shop,cafe,point_of_interest,food_store,store,food,establishment",OPERATIONAL,4.6,1306,coffee roaster;coffee roastery;coffee roasting company,ME_Portland
ChIJ_Rml2B51kVQRSx_9s1v4rGc,Olympia Coffee Roasting,"600 4th Ave E, Olympia, WA 98501",Washington,47.0455458,-122.89526450000001,https://maps.google.com/?cid=7470618954646232907&g_mp=Cidnb29nbGUubWFwcy5wbGFjZXMudjEuUGxhY2VzLlNlYXJjaFRleHQQAhgEIAA,coffee_shop,"coffee_shop,cafe,point_of_interest,food_store,store,food,establishment",OPERATIONAL,4.6,1306,coffee roasting company;coffee roaster;coffee roastery,Washington
ChIJMw1rdqlYXIYR5Hf6fbewIho,CommonWealth Coffeehouse & Bakery Hemisfair,"611 Hemisfair Blvd, San Antonio, TX 78205",Texas,29.418744099999994,-98.48710679999999,https://maps.google.com/?cid=1883261896333359076&g_mp=Cidnb29nbGUubWFwcy5wbGFjZXMudjEuUGxhY2VzLlNlYXJjaFRleHQQAhgEIAA,coffee_shop,"coffee_shop,brunch_restaurant,cafe,bakery,food_store,store,restaurant,point_of_interest,food,establishment",OPERATIONAL,4.5,1297,coffee roaster,TX_SanAntonio
ChIJS6HfAfORy4kRtWX7OcSZo2w,Greenbean Coffee House,"715 6th Ave, Altoona, PA 16602",Pennsylvania,40.5163169,-78.39224899999999,https://maps.google.com/?cid=7828269645365470645&g_mp=Cidnb29nbGUubWFwcy5wbGFjZXMudjEuUGxhY2VzLlNlYXJjaFRleHQQAhgEIAA,coffee_shop,"coffee_shop,coffee_roastery,cafe,food_store,store,point_of_interest,food,establishment",OPERATIONAL,4.7,1295,coffee roaster;coffee roastery,Pennsylvania
ChIJJe5a5i98hYARKF0NeaK-9kM,Caffè Strada,"2300 College Ave, Berkeley, CA 94704",California,37.869146,-122.25485900000001,https://maps.google.com/?cid=4897311249836891432&g_mp=Cidnb29nbGUubWFwcy5wbGFjZXMudjEuUGxhY2VzLlNlYXJjaFRleHQQAhgEIAA,coffee_shop,"coffee_shop,cafe,food_store,store,point_of_interest,food,establishment",OPERATIONAL,4.3,1292,coffee roaster;coffee roastery,CA_Berkeley
ChIJ0_erjsoKIocRTOcqAP9wWl4,Little Bear Coffee - Uptown,"2632 Pennsylvania St NE, Albuquerque, NM 87110",New Mexico,35.1108672,-106.5594891,https://maps.google.com/?cid=6798870827990968140&g_mp=Cidnb29nbGUubWFwcy5wbGFjZXMudjEuUGxhY2VzLlNlYXJjaFRleHQQAhgEIAA,coffee_shop,"coffee_shop,cafe,coffee_roastery,food_store,store,point_of_interest,food,establishment",OPERATIONAL,4.6,1289,coffee roaster;coffee roastery,New Mexico
ChIJ7ZAS4zPwwIcRFx-b0WtrzE8,The Roasterie Factory Cafe,"1204 W 27th St, Kansas City, MO 64108",Missouri,39.0788572,-94.5986035,https://maps.google.com/?cid=5750088935067557655&g_mp=Cidnb29nbGUubWFwcy5wbGFjZXMudjEuUGxhY2VzLlNlYXJjaFRleHQQAhgEIAA,coffee_shop,"coffee_shop,coffee_roastery,tea_house,cafe,wholesaler,point_of_interest,food_store,store,food,establishment",OPERATIONAL,4.6,1289,coffee roaster;coffee roastery;specialty coffee roaster;coffee roasting company,Kansas
ChIJF94GiHauGYgRtAdXhsIOdK4,Bitter End Coffee House,"752 Fulton St W, Grand Rapids, MI 49504",Michigan,42.9633274,-85.6871094,https://maps.google.com/?cid=12570688688538191796&g_mp=Cidnb29nbGUubWFwcy5wbGFjZXMudjEuUGxhY2VzLlNlYXJjaFRleHQQAhgEIAA,coffee_shop,"coffee_shop,cafe,food_store,store,point_of_interest,food,establishment",OPERATIONAL,4.4,1288,coffee roaster;coffee roastery,MI_GrandRapids
ChIJMW6J79Rx1oYRKX1yxd21UA8,Black Crown Coffee Company,"4024 E Speedway Blvd, Tucson, AZ 85712",Arizona,32.2359353,-110.90669709999999,https://maps.google.com/?cid=1103581872810786089&g_mp=Cidnb29nbGUubWFwcy5wbGFjZXMudjEuUGxhY2VzLlNlYXJjaFRleHQQAhgEIAA,coffee_shop,"coffee_shop,internet_cafe,cafe,food_store,store,service,point_of_interest,food,establishment",OPERATIONAL,4.7,1288,coffee roaster;coffee roastery;specialty coffee roaster;coffee roasting company,AZ_Tucson
ChIJi-USCg31OIgRwujCmjBObTU,Java Central Café and Roaster,"20 S State St Ste B, Westerville, OH 43081",Ohio,40.1254069,-82.9310172,https://maps.google.com/?cid=3849819227133503682&g_mp=Cidnb29nbGUubWFwcy5wbGFjZXMudjEuUGxhY2VzLlNlYXJjaFRleHQQAhgEIAA,coffee_shop,"coffee_shop,cafe,coffee_roastery,food_store,store,point_of_interest,food,establishment",OPERATIONAL,4.6,1285,coffee roaster;coffee roastery;specialty coffee roaster;coffee roasting company,Ohio
ChIJkzkG2CpDfYcRgAdWdJelbww,Harriet & Oak,"329 Main St #1, Rapid City, SD 57701",South Dakota,44.0802956,-103.2230688,https://maps.google.com/?cid=896116920780457856&g_mp=Cidnb29nbGUubWFwcy5wbGFjZXMudjEuUGxhY2VzLlNlYXJjaFRleHQQAhgEIAA,coffee_shop,"coffee_shop,breakfast_restaurant,cafe,coffee_roastery,food_store,store,restaurant,point_of_interest,food,establishment",OPERATIONAL,4.6,1281,coffee roaster;coffee roastery,South Dakota
ChIJt3AWTYXDyIARcYXpVjOsvAU,Vesta Coffee Roasters,"1114 S Casino Center Blvd #1, Las Vegas, NV 89104",Nevada,36.1581356,-115.15244050000001,https://maps.google.com/?cid=413394602312697201&g_mp=Cidnb29nbGUubWFwcy5wbGFjZXMudjEuUGxhY2VzLlNlYXJjaFRleHQQAhgEIAA,coffee_shop,"coffee_shop,coffee_roastery,cafe,brunch_restaurant,restaurant,point_of_interest,food_store,store,food,establishment",OPERATIONAL,4.7,1277,coffee roastery;specialty coffee roaster;coffee roasting company,Nevada
ChIJIwCH0z0SK4cRo8Zj2GI-PLU,Fair Trade Cafe,"1020 N 1st Ave, Phoenix, AZ 85003",Arizona,33.459392099999995,-112.0743347,https://maps.google.com/?cid=13059381613725730467&g_mp=Cidnb29nbGUubWFwcy5wbGFjZXMudjEuUGxhY2VzLlNlYXJjaFRleHQQAhgEIAA,cafe,"cafe,point_of_interest,food,establishment",OPERATIONAL,4.4,1276,coffee roaster,AZ_Phoenix
ChIJ8xl1nbWKUocRvYqv_P128WI,Alchemy Coffee,"390 E 1700 S, Salt Lake City, UT 84115",Utah,40.7331633,-111.8798727,https://maps.google.com/?cid=7129610518342372029&g_mp=Cidnb29nbGUubWFwcy5wbGFjZXMudjEuUGxhY2VzLlNlYXJjaFRleHQQAhgEIAA,coffee_shop,"coffee_shop,cafe,art_gallery,live_music_venue,event_venue,food_store,store,restaurant,point_of_interest,food,establishment",OPERATIONAL,4.6,1273,coffee roastery,UT_SaltLake
ChIJlQfje0uPOIgRI0lwa0YHSgs,Stauf's Coffee Roasters,"627 S 3rd St #1060, Columbus, OH 43206",Ohio,39.9495856,-82.99568649999999,https://maps.google.com/?cid=813470681725421859&g_mp=Cidnb29nbGUubWFwcy5wbGFjZXMudjEuUGxhY2VzLlNlYXJjaFRleHQQAhgEIAA,coffee_shop,"coffee_shop,cafe,bakery,food_store,store,point_of_interest,food,establishment",OPERATIONAL,4.6,1272,coffee roaster;coffee roastery;specialty coffee roaster,Ohio
ChIJA95oV-lWrlQRxpmXZVkwyIQ,Alchemist Coffee Overland,"10650 W Overland Rd, Boise, ID 83709",Idaho,43.5908318,-116.3154722,https://maps.google.com/?cid=9567950568863275462&g_mp=Cidnb29nbGUubWFwcy5wbGFjZXMudjEuUGxhY2VzLlNlYXJjaFRleHQQAhgEIAA,cafe,"cafe,coffee_roastery,coffee_stand,lounge_bar,breakfast_restaurant,coffee_shop,night_club,live_music_venue,event_venue,bar,food_store,store,restaurant,point_of_interest,food,establishment",OPERATIONAL,4.6,1266,coffee roaster,Idaho
ChIJX7L3Bw2mIIYRyMJKkBkqtKs,French Truck Coffee,"217 Chartres St, New Orleans, LA 70130",Louisiana,29.9538936,-90.06714300000002,https://maps.google.com/?cid=12372560365576962760&g_mp=Cidnb29nbGUubWFwcy5wbGFjZXMudjEuUGxhY2VzLlNlYXJjaFRleHQQAhgEIAA,coffee_shop,"coffee_shop,cafe,food_store,store,point_of_interest,food,establishment",OPERATIONAL,4.5,1264,coffee roaster;coffee roastery,LA_NewOrleans
ChIJo20fEQpZwokRW7sSJjFierw,BUDDIES COFFEE,"226 E 3rd St, New York, NY 10009",New York,40.722209,-73.98217249999999,https://maps.google.com/?cid=13581275589520833371&g_mp=Cidnb29nbGUubWFwcy5wbGFjZXMudjEuUGxhY2VzLlNlYXJjaFRleHQQAhgEIAA,coffee_shop,"coffee_shop,coffee_roastery,coffee_stand,cafe,food_store,store,point_of_interest,food,establishment",OPERATIONAL,5,1263,coffee roaster;coffee roastery;specialty coffee roaster,NY_NYC
ChIJCSbOEIEDyIkRNJ0OfCewqpQ,Pitango Bakery + Cafe,"903 S Ann St, Baltimore, MD 21231",Maryland,39.2816508,-76.59096679999999,https://maps.google.com/?cid=10712568347285691700&g_mp=Cidnb29nbGUubWFwcy5wbGFjZXMudjEuUGxhY2VzLlNlYXJjaFRleHQQAhgEIAA,bakery,"bakery,coffee_shop,cafe,salad_shop,sandwich_shop,dessert_shop,confectionery,grocery_store,food_store,store,restaurant,point_of_interest,food,establishment",OPERATIONAL,4.4,1263,coffee roaster,MD_Baltimore
ChIJbabYU7B544kRN9pfEkE-fJA,Caffè Nero,"10 Summer St, Boston, MA 02110",Massachusetts,42.3552207,-71.0598366,https://maps.google.com/?cid=10411264887775812151&g_mp=Cidnb29nbGUubWFwcy5wbGFjZXMudjEuUGxhY2VzLlNlYXJjaFRleHQQAhgEIAA,coffee_shop,"coffee_shop,cafe,food_store,store,point_of_interest,food,establishment",OPERATIONAL,4.1,1262,coffee roastery,MA_Boston
ChIJL4OUUjfGxokRWbdDe02buok,La Colombe Coffee Workshop,"130 S 19th St, Philadelphia, PA 19103",Pennsylvania,39.950756399999996,-75.1723193,https://maps.google.com/?cid=9924415485947131737&g_mp=Cidnb29nbGUubWFwcy5wbGFjZXMudjEuUGxhY2VzLlNlYXJjaFRleHQQAhgEIAA,coffee_shop,"coffee_shop,cafe,food_store,store,point_of_interest,food,establishment",OPERATIONAL,4.6,1261,coffee roastery,PA_Philadelphia
ChIJB8bdUHJfrIkRkvv5z6PSWRY,Sir Walter Coffee,"145 E Davie St, Raleigh, NC 27601",North Carolina,35.775616299999996,-78.6371255,https://maps.google.com/?cid=1610549942772431762&g_mp=Cidnb29nbGUubWFwcy5wbGFjZXMudjEuUGxhY2VzLlNlYXJjaFRleHQQAhgEIAA,coffee_shop,"coffee_shop,cafe,food_store,store,point_of_interest,food,establishment",OPERATIONAL,4.5,1259,coffee roaster;coffee roastery;specialty coffee roaster;coffee roasting company,NC_Raleigh
ChIJwRfU4clPAYcRsMGkzBipBEw,Roasters Coffee & Tea,"1818 S Georgia St, Amarillo, TX 79109",Texas,35.1940642,-101.86671899999999,https://maps.google.com/?cid=5477688970767024560&g_mp=Cidnb29nbGUubWFwcy5wbGFjZXMudjEuUGxhY2VzLlNlYXJjaFRleHQQAhgEIAA,coffee_shop,"coffee_shop,cafe,food_store,store,point_of_interest,food,establishment",OPERATIONAL,4.7,1256,coffee roaster,Texas
ChIJj3cMufKhVogRas8nFeRLdzY,The Giddy Goat Coffee Roasters Plaza,"1217 The Plaza, Charlotte, NC 28205",North Carolina,35.2189342,-80.8110255,https://maps.google.com/?cid=3924689043256233834&g_mp=Cidnb29nbGUubWFwcy5wbGFjZXMudjEuUGxhY2VzLlNlYXJjaFRleHQQAhgEIAA,coffee_shop,"coffee_shop,wine_bar,coffee_roastery,breakfast_restaurant,cafe,beer_garden,bar,food_store,store,restaurant,point_of_interest,food,establishment",OPERATIONAL,4.8,1255,coffee roaster;coffee roastery;specialty coffee roaster;coffee roasting company,North Carolina
ChIJEanCMFWXTYcRSgLXoNooVW8,peace on earth coffee PROVO,"35 N 300 W #200, Provo, UT 84601",Utah,40.233969099999996,-111.66418039999999,https://maps.google.com/?cid=8022363230696833610&g_mp=Cidnb29nbGUubWFwcy5wbGFjZXMudjEuUGxhY2VzLlNlYXJjaFRleHQQAhgEIAA,coffee_shop,"coffee_shop,cafe,point_of_interest,food_store,store,food,establishment",OPERATIONAL,4.5,1255,coffee roaster,Utah
ChIJX7kyjg1T2YARE11m3x4zkUY,Cafe Moto,"2619 National Ave, San Diego, CA 92113",California,32.695662899999995,-117.13776390000001,https://maps.google.com/?cid=5084901661968063763&g_mp=Cidnb29nbGUubWFwcy5wbGFjZXMudjEuUGxhY2VzLlNlYXJjaFRleHQQAhgEIAA,cafe,"cafe,coffee_roastery,coffee_shop,food_store,store,point_of_interest,food,establishment",OPERATIONAL,4.6,1252,coffee roaster;coffee roastery;coffee roasting company,CA_SanDiego
ChIJzeS5JJ97j4AR1YU0jwL9A5s,Soul Grind Coffee Roasters,"5400 CA-1, Pacifica, CA 94044",California,37.595155399999996,-122.50611199999999,https://maps.google.com/?cid=11170049688243307989&g_mp=Cidnb29nbGUubWFwcy5wbGFjZXMudjEuUGxhY2VzLlNlYXJjaFRleHQQAhgEIAA,cafe,"cafe,point_of_interest,food,establishment",OPERATIONAL,4.6,1251,coffee roaster;coffee roastery,CA_SanFrancisco
ChIJyepQX6w1O4gRtzyqGOULPgQ,Haraz Coffee House,"13810 Michigan Ave, Dearborn, MI 48126",Michigan,42.321703799999995,-83.17865410000002,https://maps.google.com/?cid=305694903296998583&g_mp=Cidnb29nbGUubWFwcy5wbGFjZXMudjEuUGxhY2VzLlNlYXJjaFRleHQQAhgEIAA,coffee_shop,"coffee_shop,cafe,tea_house,bakery,dessert_shop,confectionery,food_store,store,point_of_interest,food,establishment",OPERATIONAL,4.6,1249,coffee roaster;coffee roastery,MI_Detroit
ChIJNxTl-31QGIcRuinCHJevEZA,"Iconik Coffee Roasters, Lena","1600 Lena St Ste A2, Santa Fe, NM 87505",New Mexico,35.665228,-105.96423899999999,https://maps.google.com/?cid=10381271679623113146&g_mp=Cidnb29nbGUubWFwcy5wbGFjZXMudjEuUGxhY2VzLlNlYXJjaFRleHQQAhgEIAA,cafe,"cafe,coffee_shop,breakfast_restaurant,brunch_restaurant,coffee_roastery,grocery_store,food_store,store,restaurant,point_of_interest,food,establishment",OPERATIONAL,4.6,1244,coffee roaster;coffee roastery,New Mexico
ChIJOa8mDpX1rIkRI2EQZ1ICDgE,Cup A Joe,"3100 Hillsborough St, Raleigh, NC 27607",North Carolina,35.7899785,-78.6774456,https://maps.google.com/?cid=76000796651577635&g_mp=Cidnb29nbGUubWFwcy5wbGFjZXMudjEuUGxhY2VzLlNlYXJjaFRleHQQAhgEIAA,coffee_roastery,"coffee_roastery,coffee_shop,cafe,food_store,store,point_of_interest,food,establishment",OPERATIONAL,4.6,1243,coffee roastery,NC_Raleigh
ChIJNaDcdoNJE4cRG8chH1CKIoo,Wayfinder Coffee Co.,"6140 Austin Bluffs Pkwy, Colorado Springs, CO 80923",Colorado,38.9216057,-104.73955490000002,https://maps.google.com/?cid=9953670203166541595&g_mp=Cidnb29nbGUubWFwcy5wbGFjZXMudjEuUGxhY2VzLlNlYXJjaFRleHQQAhgEIAA,coffee_shop,"coffee_shop,cafe,food_store,store,point_of_interest,food,establishment",OPERATIONAL,4.6,1242,coffee roaster;coffee roasting company,Colorado
ChIJRZL9Z2mL_ogRw7GEp3PTGJ4,"Coastal Coffee Roasters, Inc.","108 E 3rd N St, Summerville, SC 29483",South Carolina,33.0235135,-80.17148739999999,https://maps.google.com/?cid=11392087751118860739&g_mp=Cidnb29nbGUubWFwcy5wbGFjZXMudjEuUGxhY2VzLlNlYXJjaFRleHQQAhgEIAA,cafe,"cafe,coffee_roastery,point_of_interest,food,establishment",OPERATIONAL,4.7,1233,coffee roaster;coffee roastery;specialty coffee roaster;coffee roasting company,South Carolina
ChIJT085k833NIgR7A8eXAw6Kp8,Carnegie Coffee Company,"132 E Main St, Carnegie, PA 15106",Pennsylvania,40.4076664,-80.0860764,https://maps.google.com/?cid=11469043225811881964&g_mp=Cidnb29nbGUubWFwcy5wbGFjZXMudjEuUGxhY2VzLlNlYXJjaFRleHQQAhgEIAA,cafe,"cafe,restaurant,point_of_interest,food_store,store,food,establishment",OPERATIONAL,4.6,1232,coffee roaster,PA_Pittsburgh
ChIJ_SUMHrJykFQRvFNNAvZixGg,Victor's Celtic Coffee & Roasters,"7993 Gilman St, Redmond, WA 98052",Washington,47.6745394,-122.12198360000001,https://maps.google.com/?cid=7549267684119892924&g_mp=Cidnb29nbGUubWFwcy5wbGFjZXMudjEuUGxhY2VzLlNlYXJjaFRleHQQAhgEIAA,coffee_shop,"coffee_shop,breakfast_restaurant,coffee_roastery,cafe,pastry_shop,bakery,community_center,dessert_shop,confectionery,event_venue,food_store,store,restaurant,food,point_of_interest,service,establishment",OPERATIONAL,4.4,1232,coffee roasting company,WA_Seattle
ChIJVXjgKA1w54gRvUY2Hv_R4lY,Austin's Coffee,"2240 W Fairbanks Ave, Winter Park, FL 32789",Florida,28.592768699999997,-81.3792631,https://maps.google.com/?cid=6260797325652149949&g_mp=Cidnb29nbGUubWFwcy5wbGFjZXMudjEuUGxhY2VzLlNlYXJjaFRleHQQAhgEIAA,coffee_shop,"coffee_shop,breakfast_restaurant,cafe,live_music_venue,event_venue,food_store,store,restaurant,point_of_interest,food,establishment",OPERATIONAL,4.5,1229,coffee roaster,FL_Orlando
ChIJnd8KRO7HwogR44XN53I_X-E,Madent Al-Taybat Roastery,"4241 E Busch Blvd Ste A, Tampa, FL 33617",Florida,28.032367299999997,-82.4103872,https://maps.google.com/?cid=16239768544069125603&g_mp=Cidnb29nbGUubWFwcy5wbGFjZXMudjEuUGxhY2VzLlNlYXJjaFRleHQQAhgEIAA,grocery_store,"grocery_store,food_store,store,point_of_interest,food,establishment",OPERATIONAL,4.8,1228,coffee roastery,Florida
ChIJNYx7fnvDwogRoKjp83NDlgs,Buddy Brew Coffee,"Buddy Brew Coffee, 2020 W Kennedy Blvd, Tampa, FL 33606",Florida,27.9445394,-82.48074710000002,https://maps.google.com/?cid=834928946216282272&g_mp=Cidnb29nbGUubWFwcy5wbGFjZXMudjEuUGxhY2VzLlNlYXJjaFRleHQQAhgEIAA,coffee_shop,"coffee_shop,pastry_shop,coffee_roastery,sandwich_shop,cafe,breakfast_restaurant,dessert_shop,confectionery,bakery,restaurant,point_of_interest,food_store,store,food,establishment",OPERATIONAL,4.5,1227,coffee roaster;coffee roastery;coffee roasting company,FL_Tampa
ChIJaY2Qpz5La4gRQ2ThYdxHDV4,Brickhouse Coffee Company,"9771 Fall Creek Rd, Indianapolis, IN 46256",Indiana,39.897498999999996,-85.9949264,https://maps.google.com/?cid=6777152026123002947&g_mp=Cidnb29nbGUubWFwcy5wbGFjZXMudjEuUGxhY2VzLlNlYXJjaFRleHQQAhgEIAA,coffee_shop,"coffee_shop,cafe,food_store,store,point_of_interest,food,establishment",OPERATIONAL,4.8,1225,coffee roaster;coffee roastery;specialty coffee roaster;coffee roasting company,Indiana
ChIJXZ0e56kVkFQRwVQfCjfg-sM,Fremont Coffee Company,"459 N 36th St, Seattle, WA 98103",Washington,47.651663799999994,-122.35309120000001,https://maps.google.com/?cid=14121846108571260097&g_mp=Cidnb29nbGUubWFwcy5wbGFjZXMudjEuUGxhY2VzLlNlYXJjaFRleHQQAhgEIAA,coffee_shop,"coffee_shop,cafe,food_store,store,point_of_interest,food,establishment",OPERATIONAL,4.5,1225,coffee roaster;coffee roasting company,WA_Seattle
ChIJLY8vYKyIOIgRCM0qvH_TMgA,Fox In The Snow Cafe,"210 Thurman Ave, Columbus, OH 43206",Ohio,39.939836199999995,-82.990447,https://maps.google.com/?cid=14306294406761736&g_mp=Cidnb29nbGUubWFwcy5wbGFjZXMudjEuUGxhY2VzLlNlYXJjaFRleHQQAhgEIAA,bakery,"bakery,coffee_shop,cafe,point_of_interest,food_store,store,food,establishment",OPERATIONAL,4.6,1224,coffee roaster,OH_Columbus
ChIJSb2MYCkZBYgRbaGMc6SZrK0,Colectivo Coffee Humboldt Blvd.,"2999 N Humboldt Blvd, Milwaukee, WI 53212",Wisconsin,43.0727682,-87.8980859,https://maps.google.com/?cid=12514546396148048237&g_mp=Cidnb29nbGUubWFwcy5wbGFjZXMudjEuUGxhY2VzLlNlYXJjaFRleHQQAhgEIAA,cafe,"cafe,coffee_shop,food_store,store,point_of_interest,food,establishment",OPERATIONAL,4.5,1223,coffee roastery,WI_Milwaukee
ChIJdV6goioFyIkRZLOSmkPSXFI,Artifact Coffee,"1500 Union Ave, Baltimore, MD 21211",Maryland,39.3324183,-76.6413594,https://maps.google.com/?cid=5934849596765418340&g_mp=Cidnb29nbGUubWFwcy5wbGFjZXMudjEuUGxhY2VzLlNlYXJjaFRleHQQAhgEIAA,coffee_shop,"coffee_shop,breakfast_restaurant,cafe,food_store,store,restaurant,point_of_interest,food,establishment",OPERATIONAL,4.5,1222,coffee roaster,MD_Baltimore
ChIJOamt2H4U6YAR9m3k2gQGB2Q,Handlebar Coffee Roasters,"128 E Canon Perdido St, Santa Barbara, CA 93101",California,34.4222976,-119.6984801,https://maps.google.com/?cid=7207736346551807478&g_mp=Cidnb29nbGUubWFwcy5wbGFjZXMudjEuUGxhY2VzLlNlYXJjaFRleHQQAhgEIAA,coffee_shop,"coffee_shop,cafe,food_store,store,point_of_interest,food,establishment",OPERATIONAL,4.7,1220,coffee roaster;coffee roastery;specialty coffee roaster,CA_SantaBarbara
ChIJ7bdU9rJqkFQRqx0_701azUU,Victrola Coffee Roasters,"310 E Pike St, Seattle, WA 98122",Washington,47.6143128,-122.3272908,https://maps.google.com/?cid=5029775649615584683&g_mp=Cidnb29nbGUubWFwcy5wbGFjZXMudjEuUGxhY2VzLlNlYXJjaFRleHQQAhgEIAA,coffee_shop,"coffee_shop,cafe,food_store,store,food,point_of_interest,establishment",OPERATIONAL,4.5,1215,coffee roastery;specialty coffee roaster;coffee roasting company,Washington
ChIJpYkGUYS_QIYR7C8RbrtFuf8,Day 6 Coffee Co.,"910 Prairie St Suite 100, Houston, TX 77002",Texas,29.760874499999996,-95.362557,https://maps.google.com/?cid=18426836021670916076&g_mp=Cidnb29nbGUubWFwcy5wbGFjZXMudjEuUGxhY2VzLlNlYXJjaFRleHQQAhgEIAA,coffee_shop,"coffee_shop,cafe,food_store,store,point_of_interest,food,establishment",OPERATIONAL,4.7,1212,coffee roaster;coffee roastery;specialty coffee roaster;coffee roasting company,TX_Houston
ChIJIf6Tbe_HxokRJpeLPS46JxI,Madis Coffee Roasters,"3527 Lancaster Ave, Philadelphia, PA 19104",Pennsylvania,39.9585283,-75.1931625,https://maps.google.com/?cid=1308078187049883430&g_mp=Cidnb29nbGUubWFwcy5wbGFjZXMudjEuUGxhY2VzLlNlYXJjaFRleHQQAhgEIAA,coffee_shop,"coffee_shop,cafe,food_store,store,point_of_interest,food,establishment",OPERATIONAL,4.8,1209,coffee roaster;coffee roastery;specialty coffee roaster,Delaware
ChIJmc_TnC9SrIkRImXZ-lgNe_Y,Wake Forest Coffee Company,"156 S White St, Wake Forest, NC 27587",North Carolina,35.9779339,-78.50993120000001,https://maps.google.com/?cid=17760804231282517282&g_mp=Cidnb29nbGUubWFwcy5wbGFjZXMudjEuUGxhY2VzLlNlYXJjaFRleHQQAhgEIAA,coffee_shop,"coffee_shop,cafe,art_gallery,live_music_venue,event_venue,food_store,dessert_restaurant,store,restaurant,food,point_of_interest,establishment",OPERATIONAL,4.7,1205,coffee roaster,NC_Raleigh
ChIJQ0n-ACNH2YkREZY_sIILn4s,Utica Coffee Roasting Company,"92 Genesee St, Utica, NY 13502",New York,43.1034958,-75.2276115,https://maps.google.com/?cid=10060772748499588625&g_mp=Cidnb29nbGUubWFwcy5wbGFjZXMudjEuUGxhY2VzLlNlYXJjaFRleHQQAhgEIAA,coffee_shop,"coffee_shop,cafe,food_store,store,point_of_interest,food,establishment",OPERATIONAL,4.7,1204,coffee roaster;coffee roastery;specialty coffee roaster;coffee roasting company,Idaho
ChIJn3uWRwi1RIYRFf5C6_ymWJw,Houndstooth Coffee,"401 Congress Ave. #100c, Austin, TX 78701",Texas,30.266216,-97.743066,https://maps.google.com/?cid=11265938073076301333&g_mp=Cidnb29nbGUubWFwcy5wbGFjZXMudjEuUGxhY2VzLlNlYXJjaFRleHQQAhgEIAA,coffee_shop,"coffee_shop,cafe,liquor_store,food_store,store,point_of_interest,food,establishment",OPERATIONAL,4.5,1202,coffee roaster;coffee roasting company,TX_Austin
ChIJAZoOoD9TBogRsQGzl6U9FaA,Colectivo Coffee On the Square,"25 S Pinckney St, Madison, WI 53703",Wisconsin,43.0749729,-89.3818951,https://maps.google.com/?cid=11535193802003382705&g_mp=Cidnb29nbGUubWFwcy5wbGFjZXMudjEuUGxhY2VzLlNlYXJjaFRleHQQAhgEIAA,cafe,"cafe,coffee_shop,point_of_interest,food_store,store,food,establishment",OPERATIONAL,4.5,1200,coffee roaster;coffee roastery,WI_Madison
ChIJTzoiienhwogRbPa3GpuvBQU,Paradeco Coffee Roasters,"111 2nd Ave NE Ste 101, St. Petersburg, FL 33701",Florida,27.773676499999997,-82.6335508,https://maps.google.com/?cid=361888425776248428&g_mp=Cidnb29nbGUubWFwcy5wbGFjZXMudjEuUGxhY2VzLlNlYXJjaFRleHQQAhgEIAA,coffee_shop,"coffee_shop,coffee_roastery,breakfast_restaurant,cafe,tea_house,juice_shop,vegan_restaurant,vegetarian_restaurant,food_store,store,wholesaler,restaurant,point_of_interest,food,establishment",OPERATIONAL,4.6,1198,coffee roaster;coffee roastery;coffee roasting company,Florida
ChIJee4DupqHhYARXadb2DlBtr8,Andytown Coffee Roasters,"3655 Lawton St, San Francisco, CA 94122",California,37.7566712,-122.50231470000001,https://maps.google.com/?cid=13814300623704401757&g_mp=Cidnb29nbGUubWFwcy5wbGFjZXMudjEuUGxhY2VzLlNlYXJjaFRleHQQAhgEIAA,coffee_shop,"coffee_shop,cafe,food_store,store,point_of_interest,food,establishment",OPERATIONAL,4.6,1193,coffee roaster;coffee roastery;coffee roasting company;specialty coffee roaster,CA_SanFrancisco
ChIJX-Z3Mirsa4cR9WwdAf6suU0,Boxcar Coffee | Pearl Cafe and Bakery,"1825 Pearl St Ste b, Boulder, CO 80302",Colorado,40.019841199999995,-105.2714926,https://maps.google.com/?cid=5600697818552298741&g_mp=Cidnb29nbGUubWFwcy5wbGFjZXMudjEuUGxhY2VzLlNlYXJjaFRleHQQAhgEIAA,coffee_shop,"coffee_shop,cafe,bakery,point_of_interest,food_store,store,food,establishment",OPERATIONAL,4.6,1192,coffee roaster;coffee roastery;specialty coffee roaster,CO_Boulder
ChIJX08jH_s1joARjuOth7-k7wo,Los Gatos Coffee Roasting Company,"101 W Main St, Los Gatos, CA 95030",California,37.222,-121.983,https://maps.google.com/?cid=788029602335155086&g_mp=Cidnb29nbGUubWFwcy5wbGFjZXMudjEuUGxhY2VzLlNlYXJjaFRleHQQAhgEIAA,coffee_shop,"coffee_shop,internet_cafe,coffee_roastery,cafe,live_music_venue,event_venue,food_store,store,service,point_of_interest,food,establishment",OPERATIONAL,4.5,1192,coffee roasting company;coffee roaster;coffee roastery;specialty coffee roaster,CA_SanFrancisco
ChIJBUN0jW3Aj4ARiUk9mQkTgQ8,Devout Coffee,"37323 Niles Blvd, Fremont, CA 94536",California,37.5772214,-121.9807194,https://maps.google.com/?cid=1117195114511157641&g_mp=Cidnb29nbGUubWFwcy5wbGFjZXMudjEuUGxhY2VzLlNlYXJjaFRleHQQAhgEIAA,coffee_shop,"coffee_shop,cafe,food_store,store,point_of_interest,food,establishment",OPERATIONAL,4.5,1191,coffee roastery,CA_SanJose
ChIJxwEW6dzvwIcRvMSmX4OpfXE,Oddly Correct Coffee Bar,"4141 Troost Ave, Kansas City, MO 64110",Missouri,39.050871699999995,-94.57206269999999,https://maps.google.com/?cid=8177878880085263548&g_mp=Cidnb29nbGUubWFwcy5wbGFjZXMudjEuUGxhY2VzLlNlYXJjaFRleHQQAhgEIAA,coffee_shop,"coffee_shop,cafe,point_of_interest,food_store,store,food,establishment",OPERATIONAL,4.6,1191,coffee roaster;coffee roastery;specialty coffee roaster,Kansas
ChIJD_A6aqtCkFQRSEQyRAlI2h0,Boon Boona Coffee,"724 S 3rd St, Renton, WA 98057",Washington,47.4797895,-122.2069431,https://maps.google.com/?cid=2151110976658883656&g_mp=Cidnb29nbGUubWFwcy5wbGFjZXMudjEuUGxhY2VzLlNlYXJjaFRleHQQAhgEIAA,coffee_shop,"coffee_shop,cafe,coffee_roastery,food_store,store,point_of_interest,food,establishment",OPERATIONAL,4.5,1188,coffee roastery,WA_Tacoma
ChIJWTgbxNtv1oYRnjQokqyv-XM,Crave Coffee Bar,"4530 E Broadway Blvd, Tucson, AZ 85711",Arizona,32.2210898,-110.89587429999999,https://maps.google.com/?cid=8356903739284010142&g_mp=Cidnb29nbGUubWFwcy5wbGFjZXMudjEuUGxhY2VzLlNlYXJjaFRleHQQAhgEIAA,coffee_shop,"coffee_shop,cafe,food_store,store,point_of_interest,food,establishment",OPERATIONAL,4.6,1184,coffee roaster,AZ_Tucson
ChIJG2b3OxYSK4cRs_Ua1rT4i5Y,"Songbird Coffee & Tea House - Phoenix, AZ","812 N 3rd St, Phoenix, AZ 85004",Arizona,33.4570319,-112.070278,https://maps.google.com/?cid=10848037583021864371&g_mp=Cidnb29nbGUubWFwcy5wbGFjZXMudjEuUGxhY2VzLlNlYXJjaFRleHQQAhgEIAA,coffee_shop,"coffee_shop,cafe,tea_house,food_store,store,point_of_interest,food,establishment",OPERATIONAL,4.7,1184,coffee roaster;coffee roastery,AZ_Phoenix
ChIJF1O3V5ZMyocRDBI4KRwC5_I,Fort Smith Coffee Co.,"1101 Rogers Ave, Fort Smith, AR 72901",Arkansas,35.3833481,-94.42073110000001,https://maps.google.com/?cid=17502960796772602380&g_mp=Cidnb29nbGUubWFwcy5wbGFjZXMudjEuUGxhY2VzLlNlYXJjaFRleHQQAhgEIAA,coffee_shop,"coffee_shop,cafe,point_of_interest,food_store,store,food,establishment",OPERATIONAL,4.6,1182,coffee roaster;coffee roastery,Arkansas
